{"type":"FeatureCollection","crs":{"type":"name","properties":{"name":"EPSG:4326"}},"features":[{"type":"Feature","geometry":{"type":"Point","coordinates":[141.822226667,43.709166667]},"properties":{"id":100257031,"name":"恵岱別川  5.5Kp","name_kana":"","ofc_cd":81,"sys_id":1,"sys_cam_id":"257031","pause":0,"date_type":2,"cam_kind":4,"own_cd":257}},{"type":"Feature","geometry":{"type":"Point","coordinates":[141.8786,43.6149972]},"properties":{"id":120736148,"name":"石狩川KP100.5右岸カメラ","name_kana":"いしかりがわKP100.5うがんかめら","ofc_cd":81,"sys_id":1,"sys_cam_id":"20736148","pause":0,"date_type":2,"cam_kind":4,"own_cd":20737}},{"type":"Feature","geometry":{"type":"Point","coordinates":[141.9183833,43.65125]},"properties":{"id":120736149,"name":"石狩川KP106.5左岸カメラ","name_kana":"いしかりがわKP106.5さがんかめら","ofc_cd":81,"sys_id":1,"sys_cam_id":"20736149","pause":0,"date_type":2,"cam_kind":4,"own_cd":20737}},{"type":"Feature","geometry":{"type":"Point","coordinates":[141.91555,43.6680583]},"properties":{"id":120736164,"name":"雨竜川KP4.2右岸カメラ","name_kana":"うりゅうがわKP4.2うがんかめら","ofc_cd":81,"sys_id":1,"sys_cam_id":"20736164","pause":0,"date_type":2,"cam_kind":4,"own_cd":20737}},{"type":"Feature","geometry":{"type":"Point","coordinates":[141.8752333,43.6151972]},"properties":{"id":120736197,"name":"尾白利加川KP1.3左岸カメラ","name_kana":"おしらりかがわKP1.3さがんかめら","ofc_cd":81,"sys_id":1,"sys_cam_id":"20736197","pause":0,"date_type":2,"cam_kind":4,"own_cd":20737}}]}