{"type":"FeatureCollection","crs":{"type":"name","properties":{"name":"EPSG:4326"}},"features":[{"type":"Feature","geometry":{"type":"Point","coordinates":[139.883111111,36.2075]},"properties":{"id":102049077,"name":"九郎兵衛橋","name_kana":"くろべえはし","ofc_cd":83,"sys_id":1,"sys_cam_id":"2049077","pause":0,"date_type":1,"cam_kind":4,"own_cd":2049}},{"type":"Feature","geometry":{"type":"Point","coordinates":[139.9108139,36.2237472]},"properties":{"id":221261034,"name":"平方水位観測所","name_kana":"","ofc_cd":83,"sys_id":2,"sys_cam_id":"8010072","pause":0,"date_type":0,"cam_kind":2,"own_cd":21261}},{"type":"Feature","geometry":{"type":"Point","coordinates":[139.9178333,36.2017639]},"properties":{"id":221261035,"name":"野爪排水樋管","name_kana":"","ofc_cd":83,"sys_id":2,"sys_cam_id":"8010073","pause":0,"date_type":0,"cam_kind":2,"own_cd":21261}},{"type":"Feature","geometry":{"type":"Point","coordinates":[139.9231917,36.1943528]},"properties":{"id":221261036,"name":"西豊田揚水機場","name_kana":"","ofc_cd":83,"sys_id":2,"sys_cam_id":"8010074","pause":0,"date_type":0,"cam_kind":2,"own_cd":21261}},{"type":"Feature","geometry":{"type":"Point","coordinates":[139.9281028,36.1951833]},"properties":{"id":221261037,"name":"今里地先","name_kana":"","ofc_cd":83,"sys_id":2,"sys_cam_id":"8010075","pause":0,"date_type":0,"cam_kind":2,"own_cd":21261}},{"type":"Feature","geometry":{"type":"Point","coordinates":[139.93975,36.1647806]},"properties":{"id":221261038,"name":"山川排水樋管","name_kana":"","ofc_cd":83,"sys_id":2,"sys_cam_id":"8010076","pause":0,"date_type":0,"cam_kind":2,"own_cd":21261}}]}