{"type":"FeatureCollection","crs":{"type":"name","properties":{"name":"EPSG:4326"}},"features":[{"type":"Feature","geometry":{"type":"Point","coordinates":[140.8782361,38.1411583]},"properties":{"id":101025023,"name":"川内沢川（植松）","name_kana":"かわうちさわがわ（うえまつ）","ofc_cd":82,"sys_id":1,"sys_cam_id":"1025023","pause":0,"date_type":2,"cam_kind":4,"own_cd":1025}},{"type":"Feature","geometry":{"type":"Point","coordinates":[140.8389667,38.1579056]},"properties":{"id":101025024,"name":"川内沢川（川内沢橋）","name_kana":"かわうちさわがわ（かわうちさわばし）","ofc_cd":82,"sys_id":1,"sys_cam_id":"1025024","pause":0,"date_type":2,"cam_kind":4,"own_cd":1025}},{"type":"Feature","geometry":{"type":"Point","coordinates":[140.8838247,38.1392971]},"properties":{"id":101025086,"name":"川内沢川（館腰橋）","name_kana":"かわうちさわがわ（たてこしばし）","ofc_cd":82,"sys_id":1,"sys_cam_id":"1025086","pause":0,"date_type":2,"cam_kind":4,"own_cd":1025}},{"type":"Feature","geometry":{"type":"Point","coordinates":[140.92136,38.154558]},"properties":{"id":101025099,"name":"増田川","name_kana":"ますだがわ","ofc_cd":82,"sys_id":1,"sys_cam_id":"1025099","pause":0,"date_type":2,"cam_kind":4,"own_cd":1025}},{"type":"Feature","geometry":{"type":"Point","coordinates":[140.857529,38.134454]},"properties":{"id":101025108,"name":"志賀沢川","name_kana":"しがさわがわ","ofc_cd":82,"sys_id":1,"sys_cam_id":"1025108","pause":0,"date_type":2,"cam_kind":4,"own_cd":1025}},{"type":"Feature","geometry":{"type":"Point","coordinates":[140.9375,38.186472]},"properties":{"id":221033002,"name":"名取川橋右岸下流","name_kana":"","ofc_cd":82,"sys_id":2,"sys_cam_id":"21033008","pause":0,"date_type":0,"cam_kind":2,"own_cd":21033}},{"type":"Feature","geometry":{"type":"Point","coordinates":[140.934639,38.189472]},"properties":{"id":221033003,"name":"名取川橋右岸上流","name_kana":"","ofc_cd":82,"sys_id":2,"sys_cam_id":"21033007","pause":0,"date_type":0,"cam_kind":2,"own_cd":21033}},{"type":"Feature","geometry":{"type":"Point","coordinates":[140.852694,38.202056]},"properties":{"id":221033012,"name":"飛鳥警報所","name_kana":"","ofc_cd":82,"sys_id":2,"sys_cam_id":"21033012","pause":0,"date_type":0,"cam_kind":2,"own_cd":21033}},{"type":"Feature","geometry":{"type":"Point","coordinates":[140.954508,38.176664]},"properties":{"id":221033069,"name":"閖上水門１","name_kana":"","ofc_cd":82,"sys_id":2,"sys_cam_id":"21033070","pause":0,"date_type":0,"cam_kind":2,"own_cd":21033}},{"type":"Feature","geometry":{"type":"Point","coordinates":[140.956389,38.176111]},"properties":{"id":221033074,"name":"名取川河口","name_kana":"","ofc_cd":82,"sys_id":2,"sys_cam_id":"21033075","pause":0,"date_type":0,"cam_kind":2,"own_cd":21033}}]}