{"type":"FeatureCollection","crs":{"type":"name","properties":{"name":"EPSG:4326"}},"features":[{"type":"Feature","geometry":{"type":"Point","coordinates":[140.4994693,35.8843289]},"properties":{"id":103073011,"name":"牧野","name_kana":"","ofc_cd":83,"sys_id":1,"sys_cam_id":"3073011","pause":0,"date_type":2,"cam_kind":4,"own_cd":3073}},{"type":"Feature","geometry":{"type":"Point","coordinates":[140.6113158,35.8574903]},"properties":{"id":103073012,"name":"新開橋","name_kana":"","ofc_cd":83,"sys_id":1,"sys_cam_id":"3073012","pause":0,"date_type":2,"cam_kind":4,"own_cd":3073}},{"type":"Feature","geometry":{"type":"Point","coordinates":[140.508469,35.880242]},"properties":{"id":103073083,"name":"新部橋","name_kana":"","ofc_cd":83,"sys_id":1,"sys_cam_id":"3073083","pause":0,"date_type":2,"cam_kind":4,"own_cd":3073}},{"type":"Feature","geometry":{"type":"Point","coordinates":[140.498667,35.893639]},"properties":{"id":103073084,"name":"小野川新橋","name_kana":"","ofc_cd":83,"sys_id":1,"sys_cam_id":"3073084","pause":0,"date_type":2,"cam_kind":4,"own_cd":3073}},{"type":"Feature","geometry":{"type":"Point","coordinates":[140.494167,35.913333]},"properties":{"id":121270037,"name":"横利根川左岸 0.0k","name_kana":"","ofc_cd":83,"sys_id":1,"sys_cam_id":"21270037","pause":0,"date_type":2,"cam_kind":4,"own_cd":21270}},{"type":"Feature","geometry":{"type":"Point","coordinates":[140.6154194,35.8612167]},"properties":{"id":221269008,"name":"利根川　小見川（千葉県香取）","name_kana":"","ofc_cd":83,"sys_id":2,"sys_cam_id":"12010019","pause":0,"date_type":0,"cam_kind":2,"own_cd":21269}},{"type":"Feature","geometry":{"type":"Point","coordinates":[140.4966167,35.9098222]},"properties":{"id":221269009,"name":"利根川横利根（茨城県稲敷市）","name_kana":"","ofc_cd":83,"sys_id":2,"sys_cam_id":"8010004","pause":0,"date_type":0,"cam_kind":2,"own_cd":21269}},{"type":"Feature","geometry":{"type":"Point","coordinates":[140.5097194,35.9575]},"properties":{"id":221270006,"name":"新横利根閘門","name_kana":"","ofc_cd":83,"sys_id":2,"sys_cam_id":"21270006","pause":0,"date_type":0,"cam_kind":2,"own_cd":21270}}]}