{"type":"FeatureCollection","crs":{"type":"name","properties":{"name":"EPSG:4326"}},"features":[{"type":"Feature","geometry":{"type":"Point","coordinates":[136.591047,36.599349]},"properties":{"id":104353016,"name":"木曳川（冬爪橋）","name_kana":"きびきがわ（かもりばし）","ofc_cd":84,"sys_id":1,"sys_cam_id":"4353016","pause":0,"date_type":2,"cam_kind":4,"own_cd":4353}},{"type":"Feature","geometry":{"type":"Point","coordinates":[136.595074,36.556837]},"properties":{"id":104353017,"name":"馬場川（東浦橋）","name_kana":"ばんばがわ（ひがしうらばし）","ofc_cd":84,"sys_id":1,"sys_cam_id":"4353017","pause":0,"date_type":2,"cam_kind":4,"own_cd":4353}},{"type":"Feature","geometry":{"type":"Point","coordinates":[136.601697,36.568208]},"properties":{"id":104353018,"name":"十人川（市川橋）","name_kana":"じゅうにんがわ（いちかわはし）","ofc_cd":84,"sys_id":1,"sys_cam_id":"4353018","pause":0,"date_type":2,"cam_kind":4,"own_cd":4353}},{"type":"Feature","geometry":{"type":"Point","coordinates":[136.622873,36.512118]},"properties":{"id":104353019,"name":"碇川（額乙丸）","name_kana":"いかりがわ（ぬかおとまる）","ofc_cd":84,"sys_id":1,"sys_cam_id":"4353019","pause":0,"date_type":2,"cam_kind":4,"own_cd":4353}},{"type":"Feature","geometry":{"type":"Point","coordinates":[136.610605,36.592125]},"properties":{"id":104353020,"name":"大徳川（畝田西）","name_kana":"だいとくがわ（うねだにし）","ofc_cd":84,"sys_id":1,"sys_cam_id":"4353020","pause":0,"date_type":2,"cam_kind":4,"own_cd":4353}},{"type":"Feature","geometry":{"type":"Point","coordinates":[136.639554,36.608472]},"properties":{"id":104353021,"name":"弓取川（問屋）","name_kana":"ゆみとりがわ（といや）","ofc_cd":84,"sys_id":1,"sys_cam_id":"4353021","pause":0,"date_type":2,"cam_kind":4,"own_cd":4353}},{"type":"Feature","geometry":{"type":"Point","coordinates":[136.650892,36.626447]},"properties":{"id":104353022,"name":"大宮川（飛行橋）","name_kana":"おおみやがわ（ひこうばし）","ofc_cd":84,"sys_id":1,"sys_cam_id":"4353022","pause":0,"date_type":2,"cam_kind":4,"own_cd":4353}},{"type":"Feature","geometry":{"type":"Point","coordinates":[136.613188,36.59967]},"properties":{"id":104353023,"name":"新大徳川（平木橋）","name_kana":"しんだいとくがわ（ひらきばし）","ofc_cd":84,"sys_id":1,"sys_cam_id":"4353023","pause":0,"date_type":2,"cam_kind":4,"own_cd":4353}},{"type":"Feature","geometry":{"type":"Point","coordinates":[136.646061,36.625599]},"properties":{"id":104353128,"name":"浅野川（鞍降橋）","name_kana":"あさのがわ（くらおりばし）","ofc_cd":84,"sys_id":1,"sys_cam_id":"4353128","pause":0,"date_type":1,"cam_kind":4,"own_cd":4353}},{"type":"Feature","geometry":{"type":"Point","coordinates":[136.605907,36.605354]},"properties":{"id":104353129,"name":"大徳川（桂川橋）","name_kana":"だいとくがわ（かつらがわはし）","ofc_cd":84,"sys_id":1,"sys_cam_id":"4353129","pause":0,"date_type":1,"cam_kind":4,"own_cd":4353}},{"type":"Feature","geometry":{"type":"Point","coordinates":[136.590013,36.597572]},"properties":{"id":104353130,"name":"犀川（普正寺橋）","name_kana":"さいがわ（ふしょうじばし）","ofc_cd":84,"sys_id":1,"sys_cam_id":"4353130","pause":0,"date_type":1,"cam_kind":4,"own_cd":4353}},{"type":"Feature","geometry":{"type":"Point","coordinates":[136.590261,36.587186]},"properties":{"id":104353131,"name":"安原川（轟橋）","name_kana":"やすはらがわ（とどろきばし）","ofc_cd":84,"sys_id":1,"sys_cam_id":"4353131","pause":0,"date_type":1,"cam_kind":4,"own_cd":4353}},{"type":"Feature","geometry":{"type":"Point","coordinates":[136.688075,36.512571]},"properties":{"id":104353157,"name":"内川（おちあい橋）","name_kana":"うちかわ（おちあいばし）","ofc_cd":84,"sys_id":1,"sys_cam_id":"4353157","pause":0,"date_type":2,"cam_kind":4,"own_cd":4353}},{"type":"Feature","geometry":{"type":"Point","coordinates":[136.751699,36.491685]},"properties":{"id":104353158,"name":"湯の川（湯涌田子島）","name_kana":"ゆのかわ（ゆわくたごじま）","ofc_cd":84,"sys_id":1,"sys_cam_id":"4353158","pause":0,"date_type":2,"cam_kind":4,"own_cd":4353}},{"type":"Feature","geometry":{"type":"Point","coordinates":[136.721947,36.587641]},"properties":{"id":104353159,"name":"涌波川（上涌波）","name_kana":"わくなみがわ（うえわくなみ）","ofc_cd":84,"sys_id":1,"sys_cam_id":"4353159","pause":0,"date_type":2,"cam_kind":4,"own_cd":4353}},{"type":"Feature","geometry":{"type":"Point","coordinates":[136.761521,36.558192]},"properties":{"id":104353160,"name":"田島川（下二俣橋）","name_kana":"たのしまがわ（しもふたまたばし）","ofc_cd":84,"sys_id":1,"sys_cam_id":"4353160","pause":0,"date_type":2,"cam_kind":4,"own_cd":4353}},{"type":"Feature","geometry":{"type":"Point","coordinates":[136.613055556,36.498611111]},"properties":{"id":304353014,"name":"県央土木　高橋川　四十万田橋","name_kana":"たかはしがわ　しじまだばし","ofc_cd":17,"sys_id":3,"sys_cam_id":"4353014","pause":0,"date_type":1,"cam_kind":2,"own_cd":4353}},{"type":"Feature","geometry":{"type":"Point","coordinates":[136.6071111,36.577222222]},"properties":{"id":304353015,"name":"県央土木　犀川　示野橋","name_kana":"さいがわ　しめのばし","ofc_cd":17,"sys_id":3,"sys_cam_id":"4353015","pause":0,"date_type":1,"cam_kind":2,"own_cd":4353}},{"type":"Feature","geometry":{"type":"Point","coordinates":[136.656407303,36.55231367]},"properties":{"id":304353016,"name":"県央土木　犀川　下菊橋（三ヶ用水堰）","name_kana":"さいがわ　しもきくばし（さんかようすいぜき）","ofc_cd":17,"sys_id":3,"sys_cam_id":"4353016","pause":0,"date_type":1,"cam_kind":2,"own_cd":4353}},{"type":"Feature","geometry":{"type":"Point","coordinates":[136.6492627,36.55952433]},"properties":{"id":304353017,"name":"県央土木　犀川　犀川大橋（転倒堰）","name_kana":"さいがわ　さいがわおおはし（てんとうぜき）","ofc_cd":17,"sys_id":3,"sys_cam_id":"4353017","pause":0,"date_type":1,"cam_kind":2,"own_cd":4353}},{"type":"Feature","geometry":{"type":"Point","coordinates":[136.6439,36.52984722]},"properties":{"id":304353018,"name":"県央土木　伏見川　山科","name_kana":"ふしみがわ　やましな","ofc_cd":17,"sys_id":3,"sys_cam_id":"4353018","pause":0,"date_type":1,"cam_kind":2,"own_cd":4353}},{"type":"Feature","geometry":{"type":"Point","coordinates":[136.665277778,36.571111111]},"properties":{"id":304353019,"name":"県央土木　浅野川　浅野川大橋","name_kana":"あさのがわ　あさのがわおおはし","ofc_cd":17,"sys_id":3,"sys_cam_id":"4353019","pause":0,"date_type":1,"cam_kind":2,"own_cd":4353}},{"type":"Feature","geometry":{"type":"Point","coordinates":[136.6398889,36.628888889]},"properties":{"id":304353020,"name":"県央土木　大野川　機具橋","name_kana":"おおのがわ　はたぐばし","ofc_cd":17,"sys_id":3,"sys_cam_id":"4353020","pause":0,"date_type":1,"cam_kind":2,"own_cd":4353}},{"type":"Feature","geometry":{"type":"Point","coordinates":[136.6579444,36.618888889]},"properties":{"id":304353021,"name":"県央土木　金腐川　金腐川橋","name_kana":"かなくさりがわ　かなくさりがわばし","ofc_cd":17,"sys_id":3,"sys_cam_id":"4353021","pause":0,"date_type":1,"cam_kind":2,"own_cd":4353}},{"type":"Feature","geometry":{"type":"Point","coordinates":[136.6963333,36.622]},"properties":{"id":304353022,"name":"県央土木　森下川　森本大橋","name_kana":"もりもとがわ　もりもとおおはし","ofc_cd":17,"sys_id":3,"sys_cam_id":"4353022","pause":0,"date_type":1,"cam_kind":2,"own_cd":4353}},{"type":"Feature","geometry":{"type":"Point","coordinates":[136.623888889,36.5225]},"properties":{"id":304353023,"name":"県央土木　高橋川　馬替","name_kana":"たかはしがわ　まがえ","ofc_cd":17,"sys_id":3,"sys_cam_id":"4353023","pause":0,"date_type":1,"cam_kind":2,"own_cd":4353}},{"type":"Feature","geometry":{"type":"Point","coordinates":[136.6271111,36.554722222]},"properties":{"id":304353024,"name":"県央土木　伏見川　米泉","name_kana":"ふしみがわ　よねいずみ","ofc_cd":17,"sys_id":3,"sys_cam_id":"4353024","pause":0,"date_type":1,"cam_kind":2,"own_cd":4353}},{"type":"Feature","geometry":{"type":"Point","coordinates":[136.6818333,36.583888889]},"properties":{"id":304353025,"name":"県央土木　金腐川　御所通学橋","name_kana":"かなくさりがわ　ごしょつうがくばし","ofc_cd":17,"sys_id":3,"sys_cam_id":"4353025","pause":0,"date_type":1,"cam_kind":2,"own_cd":4353}},{"type":"Feature","geometry":{"type":"Point","coordinates":[136.7137778,36.603055556]},"properties":{"id":304353026,"name":"県央土木　森下川　薬師","name_kana":"もりもとがわ　やくしばし","ofc_cd":17,"sys_id":3,"sys_cam_id":"4353026","pause":0,"date_type":1,"cam_kind":2,"own_cd":4353}},{"type":"Feature","geometry":{"type":"Point","coordinates":[136.5885,36.561111111]},"properties":{"id":304353027,"name":"県央土木　安原川　安原大橋","name_kana":"やすはらがわ　やすはらおおはし","ofc_cd":17,"sys_id":3,"sys_cam_id":"4353027","pause":0,"date_type":1,"cam_kind":2,"own_cd":4353}},{"type":"Feature","geometry":{"type":"Point","coordinates":[136.661388889,36.576944444]},"properties":{"id":304353071,"name":"県央土木　浅野川　小橋可倒堰","name_kana":"あさのがわこばしかとうぜき","ofc_cd":17,"sys_id":3,"sys_cam_id":"4353071","pause":0,"date_type":1,"cam_kind":2,"own_cd":4353}},{"type":"Feature","geometry":{"type":"Point","coordinates":[136.695833333,36.530833333]},"properties":{"id":304353072,"name":"県庁　浅野川放水路","name_kana":"あさのがわほうすいろ","ofc_cd":17,"sys_id":3,"sys_cam_id":"4353072","pause":0,"date_type":1,"cam_kind":2,"own_cd":4353}},{"type":"Feature","geometry":{"type":"Point","coordinates":[136.678608,36.601336]},"properties":{"id":11701201001,"name":"柳橋川　かがやき橋","name_kana":"やなぎばしがわかがやきばし","ofc_cd":84,"sys_id":1,"sys_cam_id":"1701201001","pause":0,"date_type":2,"cam_kind":4,"own_cd":1701201}},{"type":"Feature","geometry":{"type":"Point","coordinates":[136.622971,36.581975]},"properties":{"id":11701201002,"name":"木曳川　若藤橋","name_kana":"きびきがわわかふじばし","ofc_cd":84,"sys_id":1,"sys_cam_id":"1701201002","pause":0,"date_type":2,"cam_kind":4,"own_cd":1701201}},{"type":"Feature","geometry":{"type":"Point","coordinates":[136.652924,36.612765]},"properties":{"id":11701201003,"name":"大宮川　大浦町地内","name_kana":"おおみやがわおおうらまちちない","ofc_cd":84,"sys_id":1,"sys_cam_id":"1701201003","pause":0,"date_type":2,"cam_kind":4,"own_cd":1701201}},{"type":"Feature","geometry":{"type":"Point","coordinates":[136.604795,36.605404]},"properties":{"id":11701201004,"name":"要川　桂町地内","name_kana":"かなめがわかつらまちちない","ofc_cd":84,"sys_id":1,"sys_cam_id":"1701201004","pause":0,"date_type":2,"cam_kind":4,"own_cd":1701201}},{"type":"Feature","geometry":{"type":"Point","coordinates":[136.680619,36.623366]},"properties":{"id":11701201005,"name":"柳瀬川　大場町地内","name_kana":"やなせがわおおばまちちない","ofc_cd":84,"sys_id":1,"sys_cam_id":"1701201005","pause":0,"date_type":2,"cam_kind":4,"own_cd":1701201}},{"type":"Feature","geometry":{"type":"Point","coordinates":[136.582627,36.56968]},"properties":{"id":11701201006,"name":"四十九本川　みどり小橋","name_kana":"しじゅうくほんがわ　みどりこばし","ofc_cd":84,"sys_id":1,"sys_cam_id":"1701201006","pause":0,"date_type":2,"cam_kind":4,"own_cd":1701201}}]}