{"type":"FeatureCollection","crs":{"type":"name","properties":{"name":"EPSG:4326"}},"features":[{"type":"Feature","geometry":{"type":"Point","coordinates":[138.5356501,35.6817341]},"properties":{"id":104865001,"name":"荒川　千松橋","name_kana":"","ofc_cd":83,"sys_id":1,"sys_cam_id":"4865001","pause":0,"date_type":2,"cam_kind":4,"own_cd":4865}},{"type":"Feature","geometry":{"type":"Point","coordinates":[138.573221,35.602393]},"properties":{"id":104865002,"name":"荒川　新二川橋","name_kana":"","ofc_cd":83,"sys_id":1,"sys_cam_id":"4865002","pause":0,"date_type":2,"cam_kind":4,"own_cd":4865}},{"type":"Feature","geometry":{"type":"Point","coordinates":[138.5240821,35.6992141]},"properties":{"id":104865003,"name":"荒川　金石橋","name_kana":"","ofc_cd":83,"sys_id":1,"sys_cam_id":"4865003","pause":0,"date_type":2,"cam_kind":4,"own_cd":4865}},{"type":"Feature","geometry":{"type":"Point","coordinates":[138.5636781,35.6402001]},"properties":{"id":104865004,"name":"荒川　新平和橋","name_kana":"","ofc_cd":83,"sys_id":1,"sys_cam_id":"4865004","pause":0,"date_type":2,"cam_kind":4,"own_cd":4865}},{"type":"Feature","geometry":{"type":"Point","coordinates":[138.5606991,35.6673071]},"properties":{"id":104865011,"name":"相川　相川一之橋","name_kana":"","ofc_cd":83,"sys_id":1,"sys_cam_id":"4865011","pause":0,"date_type":2,"cam_kind":4,"own_cd":4865}},{"type":"Feature","geometry":{"type":"Point","coordinates":[138.5657721,35.6853591]},"properties":{"id":104865012,"name":"相川　大橋","name_kana":"","ofc_cd":83,"sys_id":1,"sys_cam_id":"4865012","pause":0,"date_type":2,"cam_kind":4,"own_cd":4865}},{"type":"Feature","geometry":{"type":"Point","coordinates":[138.5945491,35.6558601]},"properties":{"id":104865013,"name":"濁川　大円川橋","name_kana":"","ofc_cd":83,"sys_id":1,"sys_cam_id":"4865013","pause":0,"date_type":2,"cam_kind":4,"own_cd":4865}},{"type":"Feature","geometry":{"type":"Point","coordinates":[138.5962281,35.6371311]},"properties":{"id":104865014,"name":"濁川　水門：玉諸左岸排水機場","name_kana":"","ofc_cd":83,"sys_id":1,"sys_cam_id":"4865014","pause":0,"date_type":2,"cam_kind":4,"own_cd":4865}},{"type":"Feature","geometry":{"type":"Point","coordinates":[138.5691701,35.6566411]},"properties":{"id":104865015,"name":"濁川　春日本通り線","name_kana":"","ofc_cd":83,"sys_id":1,"sys_cam_id":"4865015","pause":0,"date_type":2,"cam_kind":4,"own_cd":4865}},{"type":"Feature","geometry":{"type":"Point","coordinates":[138.6062921,35.6374821]},"properties":{"id":104865020,"name":"平等川　梅之木橋","name_kana":"","ofc_cd":83,"sys_id":1,"sys_cam_id":"4865020","pause":0,"date_type":2,"cam_kind":4,"own_cd":4865}},{"type":"Feature","geometry":{"type":"Point","coordinates":[138.5659011,35.5882151]},"properties":{"id":104865021,"name":"滝戸川　白山橋","name_kana":"","ofc_cd":83,"sys_id":1,"sys_cam_id":"4865021","pause":0,"date_type":2,"cam_kind":4,"own_cd":4865}},{"type":"Feature","geometry":{"type":"Point","coordinates":[138.5928331,35.5754851]},"properties":{"id":104865022,"name":"滝戸川　滝川橋","name_kana":"","ofc_cd":83,"sys_id":1,"sys_cam_id":"4865022","pause":0,"date_type":2,"cam_kind":4,"own_cd":4865}},{"type":"Feature","geometry":{"type":"Point","coordinates":[138.5392777,35.6621666]},"properties":{"id":104865032,"name":"西河原橋","name_kana":"","ofc_cd":83,"sys_id":1,"sys_cam_id":"4865032","pause":0,"date_type":2,"cam_kind":4,"own_cd":4865}},{"type":"Feature","geometry":{"type":"Point","coordinates":[138.5480289,35.6816139]},"properties":{"id":104865043,"name":"湯川","name_kana":"","ofc_cd":83,"sys_id":1,"sys_cam_id":"4865043","pause":0,"date_type":2,"cam_kind":4,"own_cd":4865}},{"type":"Feature","geometry":{"type":"Point","coordinates":[138.5730444,35.5966222]},"properties":{"id":104865044,"name":"間門川　新大堀川橋","name_kana":"","ofc_cd":83,"sys_id":1,"sys_cam_id":"4865044","pause":0,"date_type":2,"cam_kind":4,"own_cd":4865}},{"type":"Feature","geometry":{"type":"Point","coordinates":[138.59956,35.655119]},"properties":{"id":104865049,"name":"十郎川　十郎橋","name_kana":"","ofc_cd":83,"sys_id":1,"sys_cam_id":"4865049","pause":0,"date_type":2,"cam_kind":4,"own_cd":4865}},{"type":"Feature","geometry":{"type":"Point","coordinates":[138.5811815,35.6611814]},"properties":{"id":104865054,"name":"藤川　琴平橋","name_kana":"","ofc_cd":83,"sys_id":1,"sys_cam_id":"4865054","pause":0,"date_type":2,"cam_kind":4,"own_cd":4865}},{"type":"Feature","geometry":{"type":"Point","coordinates":[138.576393,35.597848]},"properties":{"id":121335222,"name":"笛吹川左岸 F97","name_kana":"","ofc_cd":83,"sys_id":1,"sys_cam_id":"21335222","pause":0,"date_type":2,"cam_kind":4,"own_cd":21335}},{"type":"Feature","geometry":{"type":"Point","coordinates":[138.5640167,35.5974306]},"properties":{"id":221335014,"name":"甲府市浄化センター前","name_kana":"","ofc_cd":83,"sys_id":2,"sys_cam_id":"19010014","pause":0,"date_type":0,"cam_kind":2,"own_cd":21335}},{"type":"Feature","geometry":{"type":"Point","coordinates":[138.5780472,35.6002389]},"properties":{"id":221335015,"name":"穏池排水機場前","name_kana":"","ofc_cd":83,"sys_id":2,"sys_cam_id":"19010015","pause":0,"date_type":0,"cam_kind":2,"own_cd":21335}},{"type":"Feature","geometry":{"type":"Point","coordinates":[138.5866528,35.6068056]},"properties":{"id":221335016,"name":"中道橋下流","name_kana":"","ofc_cd":83,"sys_id":2,"sys_cam_id":"19010016","pause":0,"date_type":0,"cam_kind":2,"own_cd":21335}},{"type":"Feature","geometry":{"type":"Point","coordinates":[138.5924917,35.6116944]},"properties":{"id":221335017,"name":"中道橋上流","name_kana":"","ofc_cd":83,"sys_id":2,"sys_cam_id":"19010017","pause":0,"date_type":0,"cam_kind":2,"own_cd":21335}}]}