{"type":"FeatureCollection","crs":{"type":"name","properties":{"name":"EPSG:4326"}},"features":[{"type":"Feature","geometry":{"type":"Point","coordinates":[136.195735,35.097042]},"properties":{"id":106401021,"name":"萬石橋","name_kana":"まんごくばし","ofc_cd":86,"sys_id":1,"sys_cam_id":"6401021","pause":0,"date_type":2,"cam_kind":4,"own_cd":6401}},{"type":"Feature","geometry":{"type":"Point","coordinates":[136.162264,35.065335]},"properties":{"id":106401024,"name":"横山橋","name_kana":"よこやまばし","ofc_cd":86,"sys_id":1,"sys_cam_id":"6401024","pause":0,"date_type":2,"cam_kind":4,"own_cd":6401}},{"type":"Feature","geometry":{"type":"Point","coordinates":[136.153354,35.062058]},"properties":{"id":106401025,"name":"日野川橋","name_kana":"ひのがわばし","ofc_cd":86,"sys_id":1,"sys_cam_id":"6401025","pause":0,"date_type":2,"cam_kind":4,"own_cd":6401}},{"type":"Feature","geometry":{"type":"Point","coordinates":[136.178602,35.193553]},"properties":{"id":106401028,"name":"八幡橋","name_kana":"やわたばし","ofc_cd":86,"sys_id":1,"sys_cam_id":"6401028","pause":0,"date_type":2,"cam_kind":4,"own_cd":6401}},{"type":"Feature","geometry":{"type":"Point","coordinates":[136.292494,35.153814]},"properties":{"id":106401030,"name":"宇曽川ダム","name_kana":"うそがわだむ","ofc_cd":86,"sys_id":1,"sys_cam_id":"6401030","pause":0,"date_type":2,"cam_kind":4,"own_cd":6401}}]}