{"type":"FeatureCollection","crs":{"type":"name","properties":{"name":"EPSG:4326"}},"features":[{"type":"Feature","geometry":{"type":"Point","coordinates":[140.311267,37.064496]},"properties":{"id":101793059,"name":"社川（流総中寺）","name_kana":"やしろかわ（りゅうそうなかでら）","ofc_cd":82,"sys_id":1,"sys_cam_id":"1793059","pause":0,"date_type":2,"cam_kind":4,"own_cd":1793}},{"type":"Feature","geometry":{"type":"Point","coordinates":[140.235264,37.119191]},"properties":{"id":101793060,"name":"阿武隈川（流総白河）","name_kana":"あぶくまかわ（りゅうそうしらかわ）","ofc_cd":82,"sys_id":1,"sys_cam_id":"1793060","pause":0,"date_type":2,"cam_kind":4,"own_cd":1793}},{"type":"Feature","geometry":{"type":"Point","coordinates":[140.294724,37.200119]},"properties":{"id":101793118,"name":"隈戸川　(流総大信)","name_kana":"くまとがわ（りゅうそうたいしん）","ofc_cd":82,"sys_id":1,"sys_cam_id":"1793118","pause":0,"date_type":2,"cam_kind":4,"own_cd":1793}},{"type":"Feature","geometry":{"type":"Point","coordinates":[140.209617,37.124433]},"properties":{"id":101793119,"name":"谷津田川　(流総乙姫橋）","name_kana":"やんたがわ（りゅうそうおとひめばし）","ofc_cd":82,"sys_id":1,"sys_cam_id":"1793119","pause":0,"date_type":2,"cam_kind":4,"own_cd":1793}},{"type":"Feature","geometry":{"type":"Point","coordinates":[140.18176,37.127889]},"properties":{"id":101793120,"name":"堀川　(新田橋）","name_kana":"ほっかわ（にいだばし）","ofc_cd":82,"sys_id":1,"sys_cam_id":"1793120","pause":0,"date_type":2,"cam_kind":4,"own_cd":1793}},{"type":"Feature","geometry":{"type":"Point","coordinates":[140.298859,37.069759]},"properties":{"id":101793221,"name":"藤野川　（八幡橋）","name_kana":"ふじのがわ（やはたばし）","ofc_cd":82,"sys_id":1,"sys_cam_id":"1793221","pause":0,"date_type":2,"cam_kind":4,"own_cd":1793}},{"type":"Feature","geometry":{"type":"Point","coordinates":[140.244732,37.063099]},"properties":{"id":101793222,"name":"社川　（柳橋）","name_kana":"やしろがわ（やなぎはし）","ofc_cd":82,"sys_id":1,"sys_cam_id":"1793222","pause":0,"date_type":2,"cam_kind":4,"own_cd":1793}},{"type":"Feature","geometry":{"type":"Point","coordinates":[140.251697,37.06721]},"properties":{"id":101793275,"name":"社川　内松橋　","name_kana":"","ofc_cd":82,"sys_id":1,"sys_cam_id":"1793275","pause":0,"date_type":1,"cam_kind":4,"own_cd":1793}}]}