{"type":"FeatureCollection","crs":{"type":"name","properties":{"name":"EPSG:4326"}},"features":[{"type":"Feature","geometry":{"type":"Point","coordinates":[140.691116667,41.839444444]},"properties":{"id":100257270,"name":"久根別川  2.2Kp","name_kana":"","ofc_cd":81,"sys_id":1,"sys_cam_id":"257270","pause":0,"date_type":2,"cam_kind":4,"own_cd":257}},{"type":"Feature","geometry":{"type":"Point","coordinates":[140.646111111,41.858055556]},"properties":{"id":100257272,"name":"大野川  4.4Kp","name_kana":"","ofc_cd":81,"sys_id":1,"sys_cam_id":"257272","pause":0,"date_type":2,"cam_kind":4,"own_cd":257}},{"type":"Feature","geometry":{"type":"Point","coordinates":[140.621666667,41.815277778]},"properties":{"id":100257273,"name":"流渓川  0.9Kp","name_kana":"","ofc_cd":81,"sys_id":1,"sys_cam_id":"257273","pause":0,"date_type":2,"cam_kind":4,"own_cd":257}},{"type":"Feature","geometry":{"type":"Point","coordinates":[140.602783333,41.769722222]},"properties":{"id":100257274,"name":"茂辺地川  0.7Kp","name_kana":"","ofc_cd":81,"sys_id":1,"sys_cam_id":"257274","pause":0,"date_type":2,"cam_kind":4,"own_cd":257}},{"type":"Feature","geometry":{"type":"Point","coordinates":[140.628305556,41.844422222]},"properties":{"id":100257293,"name":"戸切地川  3.9Kp","name_kana":"","ofc_cd":81,"sys_id":1,"sys_cam_id":"257293","pause":0,"date_type":2,"cam_kind":4,"own_cd":257}},{"type":"Feature","geometry":{"type":"Point","coordinates":[140.661827778,41.827558333]},"properties":{"id":100257301,"name":"旧久根別川  1.2Kp","name_kana":"","ofc_cd":81,"sys_id":1,"sys_cam_id":"257301","pause":0,"date_type":2,"cam_kind":4,"own_cd":257}}]}