{"type":"FeatureCollection","crs":{"type":"name","properties":{"name":"EPSG:4326"}},"features":[{"type":"Feature","geometry":{"type":"Point","coordinates":[136.5975268,35.3650745]},"properties":{"id":105377013,"name":"源氏橋堤防付近","name_kana":"","ofc_cd":85,"sys_id":1,"sys_cam_id":"5377013","pause":0,"date_type":1,"cam_kind":4,"own_cd":5377}},{"type":"Feature","geometry":{"type":"Point","coordinates":[136.5857533,35.3970302]},"properties":{"id":105377048,"name":"杭瀬川久太橋","name_kana":"","ofc_cd":85,"sys_id":1,"sys_cam_id":"5377048","pause":0,"date_type":1,"cam_kind":4,"own_cd":5377}},{"type":"Feature","geometry":{"type":"Point","coordinates":[136.5920283,35.3836115]},"properties":{"id":105377049,"name":"杭瀬川赤坂新田","name_kana":"","ofc_cd":85,"sys_id":1,"sys_cam_id":"5377049","pause":0,"date_type":1,"cam_kind":4,"own_cd":5377}},{"type":"Feature","geometry":{"type":"Point","coordinates":[136.5640011,35.3473613]},"properties":{"id":105377050,"name":"相川荒崎新橋","name_kana":"","ofc_cd":85,"sys_id":1,"sys_cam_id":"5377050","pause":0,"date_type":1,"cam_kind":4,"own_cd":5377}},{"type":"Feature","geometry":{"type":"Point","coordinates":[136.6163065,35.2959722]},"properties":{"id":105377052,"name":"旧水門川排水機場（内）","name_kana":"","ofc_cd":85,"sys_id":1,"sys_cam_id":"5377052","pause":0,"date_type":1,"cam_kind":4,"own_cd":5377}},{"type":"Feature","geometry":{"type":"Point","coordinates":[136.654444,35.341722]},"properties":{"id":121811079,"name":"揖斐川　38k600　左岸","name_kana":"","ofc_cd":85,"sys_id":1,"sys_cam_id":"21811079","pause":0,"date_type":2,"cam_kind":4,"own_cd":21811}},{"type":"Feature","geometry":{"type":"Point","coordinates":[136.58794444,35.325]},"properties":{"id":121811089,"name":"杭瀬川　4k700　左岸","name_kana":"","ofc_cd":85,"sys_id":1,"sys_cam_id":"21811089","pause":0,"date_type":2,"cam_kind":4,"own_cd":21811}},{"type":"Feature","geometry":{"type":"Point","coordinates":[136.6426,35.40158]},"properties":{"id":221811002,"name":"揖斐川根尾川合流部","name_kana":"いびがわねおがわごうりゅうぶ","ofc_cd":85,"sys_id":2,"sys_cam_id":"21010002","pause":0,"date_type":0,"cam_kind":2,"own_cd":21811}},{"type":"Feature","geometry":{"type":"Point","coordinates":[136.655556,35.358333]},"properties":{"id":221811003,"name":"揖斐大橋","name_kana":"いびおおはし","ofc_cd":85,"sys_id":2,"sys_cam_id":"21010003","pause":0,"date_type":0,"cam_kind":2,"own_cd":21811}},{"type":"Feature","geometry":{"type":"Point","coordinates":[136.63646,35.32509]},"properties":{"id":221811004,"name":"揖斐川防災ステーション","name_kana":"いびがわぼうさいすてーしょん","ofc_cd":85,"sys_id":2,"sys_cam_id":"21010004","pause":0,"date_type":0,"cam_kind":2,"own_cd":21811}},{"type":"Feature","geometry":{"type":"Point","coordinates":[136.615,35.296389]},"properties":{"id":221811005,"name":"新水門川（排）","name_kana":"しんすいもんがわはいすいきじょう","ofc_cd":85,"sys_id":2,"sys_cam_id":"21010005","pause":0,"date_type":0,"cam_kind":2,"own_cd":21811}},{"type":"Feature","geometry":{"type":"Point","coordinates":[136.514444,35.334167]},"properties":{"id":221811006,"name":"広瀬橋","name_kana":"ひろせばし","ofc_cd":85,"sys_id":2,"sys_cam_id":"21010006","pause":0,"date_type":0,"cam_kind":2,"own_cd":21811}},{"type":"Feature","geometry":{"type":"Point","coordinates":[136.59729,35.35612]},"properties":{"id":221811007,"name":"塩田橋","name_kana":"しおだばし","ofc_cd":85,"sys_id":2,"sys_cam_id":"21010007","pause":0,"date_type":0,"cam_kind":2,"own_cd":21811}},{"type":"Feature","geometry":{"type":"Point","coordinates":[136.598056,35.333611]},"properties":{"id":221811008,"name":"多芸島","name_kana":"たぎしま","ofc_cd":85,"sys_id":2,"sys_cam_id":"21010008","pause":0,"date_type":0,"cam_kind":2,"own_cd":21811}},{"type":"Feature","geometry":{"type":"Point","coordinates":[136.595833,35.308611]},"properties":{"id":221811009,"name":"高渕橋","name_kana":"たかぶちばし","ofc_cd":85,"sys_id":2,"sys_cam_id":"21010009","pause":0,"date_type":0,"cam_kind":2,"own_cd":21811}},{"type":"Feature","geometry":{"type":"Point","coordinates":[136.655889,35.360389]},"properties":{"id":221811067,"name":"万石","name_kana":"まんごく","ofc_cd":85,"sys_id":2,"sys_cam_id":"21811011","pause":0,"date_type":0,"cam_kind":2,"own_cd":21811}},{"type":"Feature","geometry":{"type":"Point","coordinates":[136.623775,35.305112]},"properties":{"id":221811068,"name":"今福","name_kana":"いまふく","ofc_cd":85,"sys_id":2,"sys_cam_id":"21811012","pause":0,"date_type":0,"cam_kind":2,"own_cd":21811}},{"type":"Feature","geometry":{"type":"Point","coordinates":[136.594889,35.35475]},"properties":{"id":221811069,"name":"塩田橋水位観測所","name_kana":"しおだばしすいいかんそくじょ","ofc_cd":85,"sys_id":2,"sys_cam_id":"21811013","pause":0,"date_type":0,"cam_kind":2,"own_cd":21811}},{"type":"Feature","geometry":{"type":"Point","coordinates":[136.609494,35.297803]},"properties":{"id":221811072,"name":"杭瀬川牧田川合流点","name_kana":"くいせがわまきたがわごうりゅうてん","ofc_cd":85,"sys_id":2,"sys_cam_id":"21811016","pause":0,"date_type":0,"cam_kind":2,"own_cd":21811}}]}