{"type":"FeatureCollection","crs":{"type":"name","properties":{"name":"EPSG:4326"}},"features":[{"type":"Feature","geometry":{"type":"Point","coordinates":[136.92814999,36.99080555]},"properties":{"id":104353060,"name":"石塚川（桔梗橋）","name_kana":"いしづかがわ（ききょうばし）","ofc_cd":84,"sys_id":1,"sys_cam_id":"4353060","pause":0,"date_type":2,"cam_kind":4,"own_cd":4353}},{"type":"Feature","geometry":{"type":"Point","coordinates":[136.90637222,36.96261111]},"properties":{"id":104353061,"name":"熊野川（井田）","name_kana":"くまのがわ（いだ）","ofc_cd":84,"sys_id":1,"sys_cam_id":"4353061","pause":0,"date_type":2,"cam_kind":4,"own_cd":4353}},{"type":"Feature","geometry":{"type":"Point","coordinates":[136.88816666,36.94827777]},"properties":{"id":104353062,"name":"久江川（久江大橋）","name_kana":"くえがわ（くえおおはし）","ofc_cd":84,"sys_id":1,"sys_cam_id":"4353062","pause":0,"date_type":0,"cam_kind":4,"own_cd":4353}},{"type":"Feature","geometry":{"type":"Point","coordinates":[136.9225,36.972002778]},"properties":{"id":104353155,"name":"長曽川（濁川橋）","name_kana":"ながそがわ（にごりかわばし）","ofc_cd":84,"sys_id":1,"sys_cam_id":"4353155","pause":0,"date_type":0,"cam_kind":4,"own_cd":4353}},{"type":"Feature","geometry":{"type":"Point","coordinates":[136.865411111,36.936427778]},"properties":{"id":104353156,"name":"地獄谷川（地獄谷橋）","name_kana":"じごくたにがわ（じごくたにばし）","ofc_cd":84,"sys_id":1,"sys_cam_id":"4353156","pause":0,"date_type":0,"cam_kind":4,"own_cd":4353}},{"type":"Feature","geometry":{"type":"Point","coordinates":[136.9173333,36.982222222]},"properties":{"id":304353041,"name":"中能登土木　二宮川　二宮川橋","name_kana":"にのみやかわ　にのみやかわはし","ofc_cd":17,"sys_id":3,"sys_cam_id":"4353041","pause":0,"date_type":1,"cam_kind":2,"own_cd":4353}}]}