{"type":"FeatureCollection","crs":{"type":"name","properties":{"name":"EPSG:4326"}},"features":[{"type":"Feature","geometry":{"type":"Point","coordinates":[134.5107111,34.9384194]},"properties":{"id":107181005,"name":"福栖［福栖橋］","name_kana":"ふくす［ふくすはし］","ofc_cd":86,"sys_id":1,"sys_cam_id":"7181005","pause":0,"date_type":2,"cam_kind":4,"own_cd":7181}},{"type":"Feature","geometry":{"type":"Point","coordinates":[134.5630389,34.7777306]},"properties":{"id":107181006,"name":"富島川水門上流 ［新富島橋］","name_kana":"とみしまがわすいもんじょうりゅう［しんとみしまばし］","ofc_cd":86,"sys_id":1,"sys_cam_id":"7181006","pause":0,"date_type":2,"cam_kind":4,"own_cd":7181}},{"type":"Feature","geometry":{"type":"Point","coordinates":[134.5648694,34.77515]},"properties":{"id":107181007,"name":"富島川水門下流","name_kana":"とみしまがわすいもんかりゅう","ofc_cd":86,"sys_id":1,"sys_cam_id":"7181007","pause":0,"date_type":2,"cam_kind":4,"own_cd":7181}},{"type":"Feature","geometry":{"type":"Point","coordinates":[134.495320952,34.941010821]},"properties":{"id":107181020,"name":"千本","name_kana":"せんぼん","ofc_cd":86,"sys_id":1,"sys_cam_id":"7181020","pause":0,"date_type":1,"cam_kind":4,"own_cd":7181}},{"type":"Feature","geometry":{"type":"Point","coordinates":[134.565887207,34.865201158]},"properties":{"id":107181021,"name":"片山","name_kana":"かたやま","ofc_cd":86,"sys_id":1,"sys_cam_id":"7181021","pause":0,"date_type":1,"cam_kind":4,"own_cd":7181}},{"type":"Feature","geometry":{"type":"Point","coordinates":[134.535067811,34.84372625]},"properties":{"id":107181022,"name":"野田","name_kana":"のだ","ofc_cd":86,"sys_id":1,"sys_cam_id":"7181022","pause":0,"date_type":1,"cam_kind":4,"own_cd":7181}},{"type":"Feature","geometry":{"type":"Point","coordinates":[134.5548388,34.8115694]},"properties":{"id":122061021,"name":"揖保川 揖保町真砂","name_kana":"","ofc_cd":86,"sys_id":1,"sys_cam_id":"22061021","pause":0,"date_type":0,"cam_kind":4,"own_cd":22061}},{"type":"Feature","geometry":{"type":"Point","coordinates":[134.5484694,34.8121888]},"properties":{"id":122061022,"name":"揖保川 揖保町市場","name_kana":"","ofc_cd":86,"sys_id":1,"sys_cam_id":"22061022","pause":0,"date_type":0,"cam_kind":4,"own_cd":22061}},{"type":"Feature","geometry":{"type":"Point","coordinates":[134.5307805,34.8240388]},"properties":{"id":122061023,"name":"揖保川 揖保川町正條","name_kana":"","ofc_cd":86,"sys_id":1,"sys_cam_id":"22061023","pause":0,"date_type":0,"cam_kind":4,"own_cd":22061}},{"type":"Feature","geometry":{"type":"Point","coordinates":[134.5413027,34.8527527]},"properties":{"id":122061024,"name":"揖保川 龍野町富永","name_kana":"","ofc_cd":86,"sys_id":1,"sys_cam_id":"22061024","pause":0,"date_type":0,"cam_kind":4,"own_cd":22061}},{"type":"Feature","geometry":{"type":"Point","coordinates":[134.5494361,34.8687305]},"properties":{"id":122061025,"name":"揖保川 龍野町柳原","name_kana":"","ofc_cd":86,"sys_id":1,"sys_cam_id":"22061025","pause":0,"date_type":2,"cam_kind":4,"own_cd":22061}},{"type":"Feature","geometry":{"type":"Point","coordinates":[134.5513,34.8740861]},"properties":{"id":122061026,"name":"揖保川 龍野町島田","name_kana":"","ofc_cd":86,"sys_id":1,"sys_cam_id":"22061026","pause":0,"date_type":2,"cam_kind":4,"own_cd":22061}},{"type":"Feature","geometry":{"type":"Point","coordinates":[134.5539138,34.896675]},"properties":{"id":122061027,"name":"揖保川 新宮町北村","name_kana":"","ofc_cd":86,"sys_id":1,"sys_cam_id":"22061027","pause":0,"date_type":2,"cam_kind":4,"own_cd":22061}},{"type":"Feature","geometry":{"type":"Point","coordinates":[134.5513,34.9044833]},"properties":{"id":122061028,"name":"揖保川 新宮町井野原","name_kana":"","ofc_cd":86,"sys_id":1,"sys_cam_id":"22061028","pause":0,"date_type":2,"cam_kind":4,"own_cd":22061}},{"type":"Feature","geometry":{"type":"Point","coordinates":[134.5535333,34.9095083]},"properties":{"id":122061029,"name":"揖保川 新宮町曽我井","name_kana":"","ofc_cd":86,"sys_id":1,"sys_cam_id":"22061029","pause":0,"date_type":2,"cam_kind":4,"own_cd":22061}},{"type":"Feature","geometry":{"type":"Point","coordinates":[134.5516083,34.9164888]},"properties":{"id":122061030,"name":"揖保川 新宮町新宮１","name_kana":"","ofc_cd":86,"sys_id":1,"sys_cam_id":"22061030","pause":0,"date_type":2,"cam_kind":4,"own_cd":22061}},{"type":"Feature","geometry":{"type":"Point","coordinates":[134.5537083,34.9181833]},"properties":{"id":122061031,"name":"揖保川 新宮町新宮２","name_kana":"","ofc_cd":86,"sys_id":1,"sys_cam_id":"22061031","pause":0,"date_type":2,"cam_kind":4,"own_cd":22061}},{"type":"Feature","geometry":{"type":"Point","coordinates":[134.5530166,34.9296055]},"properties":{"id":122061032,"name":"揖保川 新宮町下野","name_kana":"","ofc_cd":86,"sys_id":1,"sys_cam_id":"22061032","pause":0,"date_type":2,"cam_kind":4,"own_cd":22061}},{"type":"Feature","geometry":{"type":"Point","coordinates":[134.5511722,34.9451916]},"properties":{"id":122061033,"name":"揖保川 新宮町吉島","name_kana":"","ofc_cd":86,"sys_id":1,"sys_cam_id":"22061033","pause":0,"date_type":2,"cam_kind":4,"own_cd":22061}},{"type":"Feature","geometry":{"type":"Point","coordinates":[134.5487027,34.9459694]},"properties":{"id":122061034,"name":"揖保川 新宮町香山１","name_kana":"","ofc_cd":86,"sys_id":1,"sys_cam_id":"22061034","pause":0,"date_type":2,"cam_kind":4,"own_cd":22061}},{"type":"Feature","geometry":{"type":"Point","coordinates":[134.5495027,34.9495444]},"properties":{"id":122061035,"name":"揖保川 新宮町上笹","name_kana":"","ofc_cd":86,"sys_id":1,"sys_cam_id":"22061035","pause":0,"date_type":2,"cam_kind":4,"own_cd":22061}},{"type":"Feature","geometry":{"type":"Point","coordinates":[134.5499611,34.9545861]},"properties":{"id":122061036,"name":"揖保川 山崎町下宇原","name_kana":"","ofc_cd":86,"sys_id":1,"sys_cam_id":"22061036","pause":0,"date_type":2,"cam_kind":4,"own_cd":22061}},{"type":"Feature","geometry":{"type":"Point","coordinates":[134.5479333,34.9580638]},"properties":{"id":122061037,"name":"揖保川 新宮町香山２","name_kana":"","ofc_cd":86,"sys_id":1,"sys_cam_id":"22061037","pause":0,"date_type":2,"cam_kind":4,"own_cd":22061}},{"type":"Feature","geometry":{"type":"Point","coordinates":[134.5571388,34.8248472]},"properties":{"id":122061055,"name":"林田川 揖保町松原","name_kana":"","ofc_cd":86,"sys_id":1,"sys_cam_id":"22061055","pause":0,"date_type":0,"cam_kind":4,"own_cd":22061}},{"type":"Feature","geometry":{"type":"Point","coordinates":[134.5677138,34.8617083]},"properties":{"id":122061058,"name":"林田川 龍野町中井","name_kana":"","ofc_cd":86,"sys_id":1,"sys_cam_id":"22061058","pause":0,"date_type":0,"cam_kind":4,"own_cd":22061}},{"type":"Feature","geometry":{"type":"Point","coordinates":[134.5676777,34.8632861]},"properties":{"id":122061059,"name":"林田川 龍野町片山","name_kana":"","ofc_cd":86,"sys_id":1,"sys_cam_id":"22061059","pause":0,"date_type":0,"cam_kind":4,"own_cd":22061}},{"type":"Feature","geometry":{"type":"Point","coordinates":[134.5467277,34.8844888]},"properties":{"id":122061060,"name":"栗栖川 新宮町佐野","name_kana":"","ofc_cd":86,"sys_id":1,"sys_cam_id":"22061060","pause":0,"date_type":2,"cam_kind":4,"own_cd":22061}},{"type":"Feature","geometry":{"type":"Point","coordinates":[134.5447972,34.9134833]},"properties":{"id":122061061,"name":"栗栖川 新宮町段之上１","name_kana":"","ofc_cd":86,"sys_id":1,"sys_cam_id":"22061061","pause":0,"date_type":2,"cam_kind":4,"own_cd":22061}},{"type":"Feature","geometry":{"type":"Point","coordinates":[134.5460694,34.9152916]},"properties":{"id":122061062,"name":"栗栖川 新宮町段之上２","name_kana":"","ofc_cd":86,"sys_id":1,"sys_cam_id":"22061062","pause":0,"date_type":2,"cam_kind":4,"own_cd":22061}},{"type":"Feature","geometry":{"type":"Point","coordinates":[134.5467861,34.9152027]},"properties":{"id":122061063,"name":"栗栖川 新宮町井野原","name_kana":"","ofc_cd":86,"sys_id":1,"sys_cam_id":"22061063","pause":0,"date_type":2,"cam_kind":4,"own_cd":22061}},{"type":"Feature","geometry":{"type":"Point","coordinates":[134.5364,34.9213888]},"properties":{"id":122061064,"name":"栗栖川 新宮町芝田","name_kana":"","ofc_cd":86,"sys_id":1,"sys_cam_id":"22061064","pause":0,"date_type":2,"cam_kind":4,"own_cd":22061}},{"type":"Feature","geometry":{"type":"Point","coordinates":[134.5298083,34.9250833]},"properties":{"id":122061065,"name":"栗栖川 新宮町大屋","name_kana":"","ofc_cd":86,"sys_id":1,"sys_cam_id":"22061065","pause":0,"date_type":2,"cam_kind":4,"own_cd":22061}},{"type":"Feature","geometry":{"type":"Point","coordinates":[134.57241111,34.7837833]},"properties":{"id":122061066,"name":"元川 御津町苅屋２","name_kana":"","ofc_cd":86,"sys_id":1,"sys_cam_id":"22061066","pause":0,"date_type":0,"cam_kind":4,"own_cd":22061}},{"type":"Feature","geometry":{"type":"Point","coordinates":[134.57291388,34.7837916]},"properties":{"id":122061067,"name":"中川 御津町苅屋１","name_kana":"","ofc_cd":86,"sys_id":1,"sys_cam_id":"22061067","pause":0,"date_type":0,"cam_kind":4,"own_cd":22061}},{"type":"Feature","geometry":{"type":"Point","coordinates":[134.5709222,34.7843583]},"properties":{"id":122061068,"name":"元川 御津町苅屋３","name_kana":"","ofc_cd":86,"sys_id":1,"sys_cam_id":"22061068","pause":0,"date_type":0,"cam_kind":4,"own_cd":22061}},{"type":"Feature","geometry":{"type":"Point","coordinates":[134.5427917,34.8575]},"properties":{"id":222061020,"name":"龍野出張所","name_kana":"たつのしゅっちょうじょ","ofc_cd":86,"sys_id":2,"sys_cam_id":"22061020","pause":0,"date_type":0,"cam_kind":2,"own_cd":22061}},{"type":"Feature","geometry":{"type":"Point","coordinates":[134.5472528,34.8833861]},"properties":{"id":222061021,"name":"佐野橋","name_kana":"さのばし","ofc_cd":86,"sys_id":2,"sys_cam_id":"22061021","pause":0,"date_type":0,"cam_kind":2,"own_cd":22061}},{"type":"Feature","geometry":{"type":"Point","coordinates":[134.5277778,34.9258333]},"properties":{"id":222061025,"name":"大屋橋","name_kana":"おおやばし","ofc_cd":86,"sys_id":2,"sys_cam_id":"22061025","pause":0,"date_type":0,"cam_kind":2,"own_cd":22061}},{"type":"Feature","geometry":{"type":"Point","coordinates":[134.5636111,34.8416667]},"properties":{"id":222061028,"name":"広山","name_kana":"ひろやま","ofc_cd":86,"sys_id":2,"sys_cam_id":"22061028","pause":0,"date_type":0,"cam_kind":2,"own_cd":22061}},{"type":"Feature","geometry":{"type":"Point","coordinates":[134.5672222,34.865]},"properties":{"id":222061029,"name":"中井橋","name_kana":"なかいばし","ofc_cd":86,"sys_id":2,"sys_cam_id":"22061029","pause":0,"date_type":0,"cam_kind":2,"own_cd":22061}},{"type":"Feature","geometry":{"type":"Point","coordinates":[134.540580556,34.921136111]},"properties":{"id":222061042,"name":"東栗栖","name_kana":"ひがしくりす","ofc_cd":86,"sys_id":2,"sys_cam_id":"28010011","pause":0,"date_type":0,"cam_kind":2,"own_cd":22061}},{"type":"Feature","geometry":{"type":"Point","coordinates":[134.548611111,34.866111111]},"properties":{"id":222061043,"name":"龍野","name_kana":"たつの","ofc_cd":86,"sys_id":2,"sys_cam_id":"28010012","pause":0,"date_type":0,"cam_kind":2,"own_cd":22061}},{"type":"Feature","geometry":{"type":"Point","coordinates":[134.564719444,34.849741667]},"properties":{"id":222061044,"name":"誉","name_kana":"ほまれ","ofc_cd":86,"sys_id":2,"sys_cam_id":"28010013","pause":0,"date_type":0,"cam_kind":2,"own_cd":22061}},{"type":"Feature","geometry":{"type":"Point","coordinates":[134.44136,34.9432]},"properties":{"id":307173003,"name":"長谷ダム上流","name_kana":"はせだむじょうりゅう","ofc_cd":28,"sys_id":3,"sys_cam_id":"7173005","pause":0,"date_type":1,"cam_kind":2,"own_cd":7173}},{"type":"Feature","geometry":{"type":"Point","coordinates":[134.44205,34.94319]},"properties":{"id":307173004,"name":"長谷ダム下流","name_kana":"はせだむかりゅう","ofc_cd":28,"sys_id":3,"sys_cam_id":"7173006","pause":0,"date_type":1,"cam_kind":2,"own_cd":7173}}]}