{"type":"FeatureCollection","crs":{"type":"name","properties":{"name":"EPSG:4326"}},"features":[{"type":"Feature","geometry":{"type":"Point","coordinates":[141.0782333,38.6531611]},"properties":{"id":101025049,"name":"瀬峰川","name_kana":"せみねがわ","ofc_cd":82,"sys_id":1,"sys_cam_id":"1025049","pause":0,"date_type":2,"cam_kind":4,"own_cd":1025}},{"type":"Feature","geometry":{"type":"Point","coordinates":[141.1245806,38.768325]},"properties":{"id":101025050,"name":"三間堀川","name_kana":"さんげんぼりがわ","ofc_cd":82,"sys_id":1,"sys_cam_id":"1025050","pause":0,"date_type":2,"cam_kind":4,"own_cd":1025}},{"type":"Feature","geometry":{"type":"Point","coordinates":[141.03855,38.7860056]},"properties":{"id":101025051,"name":"熊川","name_kana":"くまかわ","ofc_cd":82,"sys_id":1,"sys_cam_id":"1025051","pause":0,"date_type":2,"cam_kind":4,"own_cd":1025}},{"type":"Feature","geometry":{"type":"Point","coordinates":[140.9399444,38.8024444]},"properties":{"id":101025052,"name":"鉛川","name_kana":"なまりがわ","ofc_cd":82,"sys_id":1,"sys_cam_id":"1025052","pause":0,"date_type":2,"cam_kind":4,"own_cd":1025}},{"type":"Feature","geometry":{"type":"Point","coordinates":[141.0540833,38.7308639]},"properties":{"id":101025053,"name":"荒川（築館）","name_kana":"あらかわ（つきだて）","ofc_cd":82,"sys_id":1,"sys_cam_id":"1025053","pause":0,"date_type":2,"cam_kind":4,"own_cd":1025}},{"type":"Feature","geometry":{"type":"Point","coordinates":[140.9818361,38.733925]},"properties":{"id":101025054,"name":"昔川","name_kana":"いにしえがわ","ofc_cd":82,"sys_id":1,"sys_cam_id":"1025054","pause":0,"date_type":2,"cam_kind":4,"own_cd":1025}},{"type":"Feature","geometry":{"type":"Point","coordinates":[141.0772944,38.8152444]},"properties":{"id":101025055,"name":"夏川（金成）","name_kana":"なつかわ（かんなり）","ofc_cd":82,"sys_id":1,"sys_cam_id":"1025055","pause":0,"date_type":2,"cam_kind":4,"own_cd":1025}},{"type":"Feature","geometry":{"type":"Point","coordinates":[141.1193389,38.869575]},"properties":{"id":101025056,"name":"有馬川","name_kana":"ありまがわ","ofc_cd":82,"sys_id":1,"sys_cam_id":"1025056","pause":0,"date_type":2,"cam_kind":4,"own_cd":1025}},{"type":"Feature","geometry":{"type":"Point","coordinates":[141.1167111,38.7543806]},"properties":{"id":101025057,"name":"熊谷川","name_kana":"くまやがわ","ofc_cd":82,"sys_id":1,"sys_cam_id":"1025057","pause":0,"date_type":2,"cam_kind":4,"own_cd":1025}},{"type":"Feature","geometry":{"type":"Point","coordinates":[141.0156472,38.6480278]},"properties":{"id":101025058,"name":"小山田川","name_kana":"おやまだがわ","ofc_cd":82,"sys_id":1,"sys_cam_id":"1025058","pause":0,"date_type":2,"cam_kind":4,"own_cd":1025}},{"type":"Feature","geometry":{"type":"Point","coordinates":[141.0617784,38.651158]},"properties":{"id":101025073,"name":"小山田川（富橋）","name_kana":"おやまだがわ（とみばし）","ofc_cd":82,"sys_id":1,"sys_cam_id":"1025073","pause":0,"date_type":2,"cam_kind":4,"own_cd":1025}},{"type":"Feature","geometry":{"type":"Point","coordinates":[141.08728,38.750619]},"properties":{"id":101025109,"name":"熊谷川（志波姫新橋本）","name_kana":"くまやがわ（しわひめしんはしもと）","ofc_cd":82,"sys_id":1,"sys_cam_id":"1025109","pause":0,"date_type":2,"cam_kind":4,"own_cd":1025}},{"type":"Feature","geometry":{"type":"Point","coordinates":[141.075457,38.72117]},"properties":{"id":101025110,"name":"荒川（築館横須賀新曽内）","name_kana":"あらかわ（つきだてよこすかしんそない）","ofc_cd":82,"sys_id":1,"sys_cam_id":"1025110","pause":0,"date_type":2,"cam_kind":4,"own_cd":1025}},{"type":"Feature","geometry":{"type":"Point","coordinates":[141.145098,38.735937]},"properties":{"id":101025111,"name":"落堀川(若柳川南北谷地)","name_kana":"おとしぼりがわ（わかやなぎかわみなみきたやち）","ofc_cd":82,"sys_id":1,"sys_cam_id":"1025111","pause":0,"date_type":2,"cam_kind":4,"own_cd":1025}},{"type":"Feature","geometry":{"type":"Point","coordinates":[141.109679,38.759898]},"properties":{"id":101025112,"name":"落堀川(志波姫新間海)","name_kana":"おとしぼりがわ（しわひめしんまかい）","ofc_cd":82,"sys_id":1,"sys_cam_id":"1025112","pause":0,"date_type":2,"cam_kind":4,"own_cd":1025}},{"type":"Feature","geometry":{"type":"Point","coordinates":[141.009061,38.780582]},"properties":{"id":101025113,"name":"金生川","name_kana":"きんせいがわ","ofc_cd":82,"sys_id":1,"sys_cam_id":"1025113","pause":0,"date_type":2,"cam_kind":4,"own_cd":1025}},{"type":"Feature","geometry":{"type":"Point","coordinates":[141.148415,38.784254]},"properties":{"id":101025114,"name":"夏川（若柳武鎗）","name_kana":"なつかわ（わかやなぎむやり）","ofc_cd":82,"sys_id":1,"sys_cam_id":"1025114","pause":0,"date_type":2,"cam_kind":4,"own_cd":1025}},{"type":"Feature","geometry":{"type":"Point","coordinates":[140.950399,38.80316]},"properties":{"id":101025115,"name":"二迫川","name_kana":"にはさまがわ","ofc_cd":82,"sys_id":1,"sys_cam_id":"1025115","pause":0,"date_type":2,"cam_kind":4,"own_cd":1025}}]}