{"type":"FeatureCollection","crs":{"type":"name","properties":{"name":"EPSG:4326"}},"features":[{"type":"Feature","geometry":{"type":"Point","coordinates":[131.5969444,33.0408333]},"properties":{"id":111265038,"name":"新殿橋","name_kana":"","ofc_cd":89,"sys_id":1,"sys_cam_id":"11265038","pause":0,"date_type":2,"cam_kind":4,"own_cd":11265}},{"type":"Feature","geometry":{"type":"Point","coordinates":[131.5847222,32.9775]},"properties":{"id":111265039,"name":"平吹橋","name_kana":"","ofc_cd":89,"sys_id":1,"sys_cam_id":"11265039","pause":0,"date_type":2,"cam_kind":4,"own_cd":11265}},{"type":"Feature","geometry":{"type":"Point","coordinates":[131.5586633,32.9196799]},"properties":{"id":111265068,"name":"代橋","name_kana":"","ofc_cd":89,"sys_id":1,"sys_cam_id":"11265068","pause":0,"date_type":2,"cam_kind":4,"own_cd":11265}},{"type":"Feature","geometry":{"type":"Point","coordinates":[131.5822022,33.0650933]},"properties":{"id":111265069,"name":"新岩屋橋","name_kana":"","ofc_cd":89,"sys_id":1,"sys_cam_id":"11265069","pause":0,"date_type":2,"cam_kind":4,"own_cd":11265}},{"type":"Feature","geometry":{"type":"Point","coordinates":[131.6110833,32.96425]},"properties":{"id":111265097,"name":"小屋園橋","name_kana":"","ofc_cd":89,"sys_id":1,"sys_cam_id":"11265097","pause":0,"date_type":2,"cam_kind":4,"own_cd":11265}},{"type":"Feature","geometry":{"type":"Point","coordinates":[131.5316667,32.92919]},"properties":{"id":111265098,"name":"中津無礼橋","name_kana":"","ofc_cd":89,"sys_id":1,"sys_cam_id":"11265098","pause":0,"date_type":2,"cam_kind":4,"own_cd":11265}},{"type":"Feature","geometry":{"type":"Point","coordinates":[131.4846389,33.0387222]},"properties":{"id":111265099,"name":"門前橋","name_kana":"","ofc_cd":89,"sys_id":1,"sys_cam_id":"11265099","pause":0,"date_type":2,"cam_kind":4,"own_cd":11265}},{"type":"Feature","geometry":{"type":"Point","coordinates":[131.5686083,33.0024972]},"properties":{"id":311272001,"name":"向野橋","name_kana":"","ofc_cd":44,"sys_id":3,"sys_cam_id":"44010045","pause":0,"date_type":1,"cam_kind":2,"own_cd":11272}},{"type":"Feature","geometry":{"type":"Point","coordinates":[131.4319417,33.0044417]},"properties":{"id":311272002,"name":"朝地橋","name_kana":"","ofc_cd":44,"sys_id":3,"sys_cam_id":"44010046","pause":0,"date_type":1,"cam_kind":2,"own_cd":11272}}]}