{"type":"FeatureCollection","crs":{"type":"name","properties":{"name":"EPSG:4326"}},"features":[{"type":"Feature","geometry":{"type":"Point","coordinates":[135.64387777,34.6992]},"properties":{"id":106913082,"name":"東高野街道","name_kana":"ひがしこうやかいどう","ofc_cd":86,"sys_id":1,"sys_cam_id":"6913082","pause":0,"date_type":2,"cam_kind":4,"own_cd":6913}},{"type":"Feature","geometry":{"type":"Point","coordinates":[135.63514999,34.69376944]},"properties":{"id":106913083,"name":"宮前橋","name_kana":"","ofc_cd":86,"sys_id":1,"sys_cam_id":"6913083","pause":0,"date_type":2,"cam_kind":4,"own_cd":6913}},{"type":"Feature","geometry":{"type":"Point","coordinates":[135.63293333,34.67159166]},"properties":{"id":106913084,"name":"花園遊水地","name_kana":"はなぞのゆうすいち","ofc_cd":86,"sys_id":1,"sys_cam_id":"6913084","pause":0,"date_type":2,"cam_kind":4,"own_cd":6913}},{"type":"Feature","geometry":{"type":"Point","coordinates":[135.56703055,34.68760277]},"properties":{"id":106913087,"name":"昭明橋","name_kana":"","ofc_cd":86,"sys_id":1,"sys_cam_id":"6913087","pause":0,"date_type":2,"cam_kind":4,"own_cd":6913}},{"type":"Feature","geometry":{"type":"Point","coordinates":[135.62568055,34.64995]},"properties":{"id":106913089,"name":"恩智川治水緑地","name_kana":"おんちがわちすいりょくち","ofc_cd":86,"sys_id":1,"sys_cam_id":"6913089","pause":0,"date_type":2,"cam_kind":4,"own_cd":6913}},{"type":"Feature","geometry":{"type":"Point","coordinates":[135.63362777,34.68979722]},"properties":{"id":106913101,"name":"芝大橋","name_kana":"","ofc_cd":86,"sys_id":1,"sys_cam_id":"6913101","pause":0,"date_type":2,"cam_kind":4,"own_cd":6913}},{"type":"Feature","geometry":{"type":"Point","coordinates":[135.5932536,34.66575668]},"properties":{"id":106913124,"name":"新田大橋","name_kana":"しんでんおおはし","ofc_cd":86,"sys_id":1,"sys_cam_id":"6913124","pause":0,"date_type":2,"cam_kind":4,"own_cd":6913}}]}