{"type":"FeatureCollection","crs":{"type":"name","properties":{"name":"EPSG:4326"}},"features":[{"type":"Feature","geometry":{"type":"Point","coordinates":[134.33415007,34.970835419]},"properties":{"id":107173008,"name":"円光寺","name_kana":"えんこうじ","ofc_cd":86,"sys_id":1,"sys_cam_id":"7173008","pause":0,"date_type":1,"cam_kind":4,"own_cd":7173}},{"type":"Feature","geometry":{"type":"Point","coordinates":[134.342715604,34.980660189]},"properties":{"id":107173009,"name":"山脇","name_kana":"やまわき","ofc_cd":86,"sys_id":1,"sys_cam_id":"7173009","pause":0,"date_type":1,"cam_kind":4,"own_cd":7173}},{"type":"Feature","geometry":{"type":"Point","coordinates":[134.367177275,35.011110416]},"properties":{"id":107173010,"name":"佐用","name_kana":"さよう","ofc_cd":86,"sys_id":1,"sys_cam_id":"7173010","pause":0,"date_type":1,"cam_kind":4,"own_cd":7173}},{"type":"Feature","geometry":{"type":"Point","coordinates":[134.370701157,35.044194369]},"properties":{"id":107173011,"name":"平福","name_kana":"ひらふく","ofc_cd":86,"sys_id":1,"sys_cam_id":"7173011","pause":0,"date_type":1,"cam_kind":4,"own_cd":7173}},{"type":"Feature","geometry":{"type":"Point","coordinates":[134.30697315,35.012650103]},"properties":{"id":107173012,"name":"本郷","name_kana":"ほんごう","ofc_cd":86,"sys_id":1,"sys_cam_id":"7173012","pause":0,"date_type":1,"cam_kind":4,"own_cd":7173}},{"type":"Feature","geometry":{"type":"Point","coordinates":[134.35535364,34.900119872]},"properties":{"id":107173013,"name":"苔縄","name_kana":"こけなわ","ofc_cd":86,"sys_id":1,"sys_cam_id":"7173013","pause":0,"date_type":1,"cam_kind":4,"own_cd":7173}},{"type":"Feature","geometry":{"type":"Point","coordinates":[134.395345376,34.994913979]},"properties":{"id":107173014,"name":"下徳久","name_kana":"しもとくさ","ofc_cd":86,"sys_id":1,"sys_cam_id":"7173014","pause":0,"date_type":1,"cam_kind":4,"own_cd":7173}},{"type":"Feature","geometry":{"type":"Point","coordinates":[134.344962762,34.961746009]},"properties":{"id":107173015,"name":"久崎2","name_kana":"くざき２","ofc_cd":86,"sys_id":1,"sys_cam_id":"7173015","pause":0,"date_type":1,"cam_kind":4,"own_cd":7173}},{"type":"Feature","geometry":{"type":"Point","coordinates":[134.310866521,34.989544765]},"properties":{"id":107173016,"name":"力万","name_kana":"りきまん","ofc_cd":86,"sys_id":1,"sys_cam_id":"7173016","pause":0,"date_type":1,"cam_kind":4,"own_cd":7173}},{"type":"Feature","geometry":{"type":"Point","coordinates":[134.434550518,34.987889501]},"properties":{"id":107173017,"name":"田此","name_kana":"たこの","ofc_cd":86,"sys_id":1,"sys_cam_id":"7173017","pause":0,"date_type":1,"cam_kind":4,"own_cd":7173}},{"type":"Feature","geometry":{"type":"Point","coordinates":[134.444515632,34.977188852]},"properties":{"id":107173018,"name":"三日月","name_kana":"みかづき","ofc_cd":86,"sys_id":1,"sys_cam_id":"7173018","pause":0,"date_type":1,"cam_kind":4,"own_cd":7173}},{"type":"Feature","geometry":{"type":"Point","coordinates":[134.428075867,35.089021795]},"properties":{"id":107173019,"name":"船越","name_kana":"ふなこし","ofc_cd":86,"sys_id":1,"sys_cam_id":"7173019","pause":0,"date_type":1,"cam_kind":4,"own_cd":7173}},{"type":"Feature","geometry":{"type":"Point","coordinates":[134.361403229,35.105959841]},"properties":{"id":107173027,"name":"上石井","name_kana":"かみいしい","ofc_cd":86,"sys_id":1,"sys_cam_id":"7173027","pause":0,"date_type":1,"cam_kind":4,"own_cd":7173}},{"type":"Feature","geometry":{"type":"Point","coordinates":[134.340701816,35.05049654]},"properties":{"id":107173028,"name":"豊福","name_kana":"とよふく","ofc_cd":86,"sys_id":1,"sys_cam_id":"7173028","pause":0,"date_type":1,"cam_kind":4,"own_cd":7173}},{"type":"Feature","geometry":{"type":"Point","coordinates":[134.3447222,34.9605556]},"properties":{"id":207173001,"name":"久崎","name_kana":"くざき","ofc_cd":28,"sys_id":3,"sys_cam_id":"7173001","pause":0,"date_type":1,"cam_kind":2,"own_cd":7173}}]}