{"type":"FeatureCollection","crs":{"type":"name","properties":{"name":"EPSG:4326"}},"features":[{"type":"Feature","geometry":{"type":"Point","coordinates":[133.34782,35.381112]},"properties":{"id":122293007,"name":"境　法勝寺川 4k800 左岸","name_kana":"","ofc_cd":87,"sys_id":1,"sys_cam_id":"22293007","pause":0,"date_type":2,"cam_kind":4,"own_cd":22293}},{"type":"Feature","geometry":{"type":"Point","coordinates":[133.342556,35.37254]},"properties":{"id":122293008,"name":"福成　法勝寺川 5k800 左岸","name_kana":"","ofc_cd":87,"sys_id":1,"sys_cam_id":"22293008","pause":0,"date_type":2,"cam_kind":4,"own_cd":22293}},{"type":"Feature","geometry":{"type":"Point","coordinates":[133.328063,35.357007]},"properties":{"id":122293009,"name":"阿賀　法勝寺川 8k120 右岸","name_kana":"","ofc_cd":87,"sys_id":1,"sys_cam_id":"22293009","pause":0,"date_type":2,"cam_kind":4,"own_cd":22293}},{"type":"Feature","geometry":{"type":"Point","coordinates":[133.32368,35.341407]},"properties":{"id":122293010,"name":"清水　法勝寺川 9k906 左岸","name_kana":"","ofc_cd":87,"sys_id":1,"sys_cam_id":"22293010","pause":0,"date_type":2,"cam_kind":4,"own_cd":22293}},{"type":"Feature","geometry":{"type":"Point","coordinates":[133.323552,35.341037]},"properties":{"id":122293011,"name":"橘　法勝寺川 9k955 左岸","name_kana":"","ofc_cd":87,"sys_id":1,"sys_cam_id":"22293011","pause":0,"date_type":2,"cam_kind":4,"own_cd":22293}},{"type":"Feature","geometry":{"type":"Point","coordinates":[133.322887,35.338954]},"properties":{"id":122293012,"name":"馬場　法勝寺川 10k150 左岸","name_kana":"","ofc_cd":87,"sys_id":1,"sys_cam_id":"22293012","pause":0,"date_type":2,"cam_kind":4,"own_cd":22293}},{"type":"Feature","geometry":{"type":"Point","coordinates":[133.326686,35.337168]},"properties":{"id":122293013,"name":"城山　法勝寺川 10k540 左岸","name_kana":"","ofc_cd":87,"sys_id":1,"sys_cam_id":"22293013","pause":0,"date_type":2,"cam_kind":4,"own_cd":22293}},{"type":"Feature","geometry":{"type":"Point","coordinates":[133.34,35.3697222]},"properties":{"id":222293007,"name":"天津橋下流","name_kana":"","ofc_cd":87,"sys_id":2,"sys_cam_id":"22293007","pause":0,"date_type":0,"cam_kind":2,"own_cd":22293}},{"type":"Feature","geometry":{"type":"Point","coordinates":[133.3244444,35.3386111]},"properties":{"id":222293008,"name":"法勝寺水位観測所","name_kana":"","ofc_cd":87,"sys_id":2,"sys_cam_id":"22293008","pause":0,"date_type":0,"cam_kind":2,"own_cd":22293}},{"type":"Feature","geometry":{"type":"Point","coordinates":[133.3288889,35.3366667]},"properties":{"id":222293009,"name":"新法勝寺橋","name_kana":"","ofc_cd":87,"sys_id":2,"sys_cam_id":"22293009","pause":0,"date_type":0,"cam_kind":2,"own_cd":22293}}]}