{"type":"FeatureCollection","crs":{"type":"name","properties":{"name":"EPSG:4326"}},"features":[{"type":"Feature","geometry":{"type":"Point","coordinates":[140.12061111,40.73977777]},"properties":{"id":100513042,"name":"大童子川（大童子橋）","name_kana":"","ofc_cd":82,"sys_id":1,"sys_cam_id":"513042","pause":0,"date_type":2,"cam_kind":4,"own_cd":513}},{"type":"Feature","geometry":{"type":"Point","coordinates":[139.92422222,40.64116666]},"properties":{"id":100513043,"name":"磯崎川（磯崎橋）","name_kana":"","ofc_cd":82,"sys_id":1,"sys_cam_id":"513043","pause":0,"date_type":2,"cam_kind":4,"own_cd":513}},{"type":"Feature","geometry":{"type":"Point","coordinates":[139.92763888,40.58069444]},"properties":{"id":100513044,"name":"泥川（泥川橋）","name_kana":"","ofc_cd":82,"sys_id":1,"sys_cam_id":"513044","pause":0,"date_type":2,"cam_kind":4,"own_cd":513}},{"type":"Feature","geometry":{"type":"Point","coordinates":[139.938634,40.654897]},"properties":{"id":100513084,"name":"吾妻川 (吾妻橋)","name_kana":"","ofc_cd":82,"sys_id":1,"sys_cam_id":"513084","pause":0,"date_type":2,"cam_kind":4,"own_cd":513}},{"type":"Feature","geometry":{"type":"Point","coordinates":[139.94982,40.487343]},"properties":{"id":100513085,"name":"津梅川 (津梅川橋上流農道橋)","name_kana":"","ofc_cd":82,"sys_id":1,"sys_cam_id":"513085","pause":0,"date_type":2,"cam_kind":4,"own_cd":513}}]}