{"type":"FeatureCollection","crs":{"type":"name","properties":{"name":"EPSG:4326"}},"features":[{"type":"Feature","geometry":{"type":"Point","coordinates":[139.71583333,36.75861111]},"properties":{"id":102305009,"name":"川室橋（古大谷川）　日光市川室","name_kana":"","ofc_cd":83,"sys_id":1,"sys_cam_id":"2305009","pause":0,"date_type":2,"cam_kind":4,"own_cd":2305}},{"type":"Feature","geometry":{"type":"Point","coordinates":[139.740348,36.687628]},"properties":{"id":102305027,"name":"田川橋（田川）日光市木和田島","name_kana":"","ofc_cd":83,"sys_id":1,"sys_cam_id":"2305027","pause":0,"date_type":2,"cam_kind":4,"own_cd":2305}},{"type":"Feature","geometry":{"type":"Point","coordinates":[139.714797,36.645154]},"properties":{"id":102305028,"name":"赤行橋（行川）日光市小代","name_kana":"","ofc_cd":83,"sys_id":1,"sys_cam_id":"2305028","pause":0,"date_type":2,"cam_kind":4,"own_cd":2305}},{"type":"Feature","geometry":{"type":"Point","coordinates":[139.7063888,36.9027777]},"properties":{"id":221309001,"name":"ダム上流１カメラ（クレストゲート室）","name_kana":"だむじょうりゅう１かめら（くれすとげーとしつ）","ofc_cd":83,"sys_id":2,"sys_cam_id":"21309001","pause":0,"date_type":0,"cam_kind":2,"own_cd":21309}},{"type":"Feature","geometry":{"type":"Point","coordinates":[139.7061111,36.9027777]},"properties":{"id":221309002,"name":"ダム上流２カメラ（インクラインカメラ）","name_kana":"だむじょうりゅう２かめら（いんくらいんかめら）","ofc_cd":83,"sys_id":2,"sys_cam_id":"21309002","pause":0,"date_type":0,"cam_kind":2,"own_cd":21309}},{"type":"Feature","geometry":{"type":"Point","coordinates":[139.7061111,36.9047222]},"properties":{"id":221309003,"name":"ダム上流３カメラ（ダム上流左岸カメラ）","name_kana":"だむじょうりゅう３かめら（だむじょうりゅうさがんかめら）","ofc_cd":83,"sys_id":2,"sys_cam_id":"21309003","pause":0,"date_type":0,"cam_kind":2,"own_cd":21309}},{"type":"Feature","geometry":{"type":"Point","coordinates":[139.7038888,36.9025]},"properties":{"id":221309004,"name":"ダム堤体カメラ（無線室屋上）","name_kana":"だむていたいかめら（むせんしつおくじょう）","ofc_cd":83,"sys_id":2,"sys_cam_id":"21309004","pause":0,"date_type":0,"cam_kind":2,"own_cd":21309}},{"type":"Feature","geometry":{"type":"Point","coordinates":[139.7066666,36.9027777]},"properties":{"id":221309005,"name":"ダム下流１カメラ（天端左岸カメラ）","name_kana":"だむかりゅう１かめら（てんたんさがんかめら）","ofc_cd":83,"sys_id":2,"sys_cam_id":"21309005","pause":0,"date_type":0,"cam_kind":2,"own_cd":21309}},{"type":"Feature","geometry":{"type":"Point","coordinates":[139.7052777,36.9013888]},"properties":{"id":221309006,"name":"ダム下流２カメラ（ダム下流右岸カメラ）","name_kana":"だむかりゅう２かめら（だむかりゅううがんかめら）","ofc_cd":83,"sys_id":2,"sys_cam_id":"21309006","pause":0,"date_type":0,"cam_kind":2,"own_cd":21309}},{"type":"Feature","geometry":{"type":"Point","coordinates":[139.7058333,36.9011111]},"properties":{"id":221309007,"name":"ダム下流３カメラ（ダム下流左岸カメラ）","name_kana":"だむかりゅう３かめら（だむかりゅうさがんかめら）","ofc_cd":83,"sys_id":2,"sys_cam_id":"21309007","pause":0,"date_type":0,"cam_kind":2,"own_cd":21309}},{"type":"Feature","geometry":{"type":"Point","coordinates":[139.7075,36.8997222]},"properties":{"id":221309008,"name":"ダム下流４カメラ（副ダム下流カメラ）","name_kana":"だむかりゅう４かめら（ふくだむかりゅうかめら）","ofc_cd":83,"sys_id":2,"sys_cam_id":"21309008","pause":0,"date_type":0,"cam_kind":2,"own_cd":21309}},{"type":"Feature","geometry":{"type":"Point","coordinates":[139.7097222,36.8983333]},"properties":{"id":221309009,"name":"坂本沢カメラ","name_kana":"さかもとざわかめら","ofc_cd":83,"sys_id":2,"sys_cam_id":"21309009","pause":0,"date_type":0,"cam_kind":2,"own_cd":21309}},{"type":"Feature","geometry":{"type":"Point","coordinates":[139.7122222,36.8952777]},"properties":{"id":221309010,"name":"川治橋上流カメラ","name_kana":"かわじばしじょうりゅうかめら","ofc_cd":83,"sys_id":2,"sys_cam_id":"21309010","pause":0,"date_type":0,"cam_kind":2,"own_cd":21309}},{"type":"Feature","geometry":{"type":"Point","coordinates":[139.7083333,36.895]},"properties":{"id":221309011,"name":"川治橋下流カメラ","name_kana":"かわじばしかりゅうかめら","ofc_cd":83,"sys_id":2,"sys_cam_id":"21309011","pause":0,"date_type":0,"cam_kind":2,"own_cd":21309}},{"type":"Feature","geometry":{"type":"Point","coordinates":[139.7055555,36.8933333]},"properties":{"id":221309012,"name":"薬師橋カメラ","name_kana":"やくしばしかめら","ofc_cd":83,"sys_id":2,"sys_cam_id":"21309012","pause":0,"date_type":0,"cam_kind":2,"own_cd":21309}},{"type":"Feature","geometry":{"type":"Point","coordinates":[139.5194444,36.8777777]},"properties":{"id":221309013,"name":"ダム上流１カメラ（上流カメラ）","name_kana":"だむじょうりゅう１かめら（じょうりゅうかめら）","ofc_cd":83,"sys_id":2,"sys_cam_id":"21309013","pause":0,"date_type":0,"cam_kind":2,"own_cd":21309}},{"type":"Feature","geometry":{"type":"Point","coordinates":[139.5197222,36.8775]},"properties":{"id":221309014,"name":"ダム上流２カメラ（係船小屋カメラ）","name_kana":"だむじょうりゅう２かめら（けいせんごやかめら）","ofc_cd":83,"sys_id":2,"sys_cam_id":"21309014","pause":0,"date_type":0,"cam_kind":2,"own_cd":21309}},{"type":"Feature","geometry":{"type":"Point","coordinates":[139.5208333,36.8777777]},"properties":{"id":221309015,"name":"ダム堤体カメラ(展望台デッキカメラ)","name_kana":"だむていたいかめら（てんぼうだいでっきかめら）","ofc_cd":83,"sys_id":2,"sys_cam_id":"21309015","pause":0,"date_type":0,"cam_kind":2,"own_cd":21309}},{"type":"Feature","geometry":{"type":"Point","coordinates":[139.5202777,36.8777777]},"properties":{"id":221309016,"name":"ダム下流１カメラ（堤体カメラ）","name_kana":"だむかりゅう１かめら（ていたいかめら）","ofc_cd":83,"sys_id":2,"sys_cam_id":"21309016","pause":0,"date_type":0,"cam_kind":2,"own_cd":21309}},{"type":"Feature","geometry":{"type":"Point","coordinates":[139.52,36.8775]},"properties":{"id":221309017,"name":"ダム下流２カメラ(下流カメラ)","name_kana":"だむかりゅう２かめら（かりゅうかめら）","ofc_cd":83,"sys_id":2,"sys_cam_id":"21309017","pause":0,"date_type":0,"cam_kind":2,"own_cd":21309}},{"type":"Feature","geometry":{"type":"Point","coordinates":[139.5211111,36.8769444]},"properties":{"id":221309018,"name":"ダム下流３カメラ（横断蓋渠カメラ）","name_kana":"だむかりゅう３かめら（おうだんがいきょうかめら）","ofc_cd":83,"sys_id":2,"sys_cam_id":"21309018","pause":0,"date_type":0,"cam_kind":2,"own_cd":21309}},{"type":"Feature","geometry":{"type":"Point","coordinates":[139.5308333,36.8647222]},"properties":{"id":221309019,"name":"大事沢カメラ","name_kana":"おおごとさわかめら","ofc_cd":83,"sys_id":2,"sys_cam_id":"21309019","pause":0,"date_type":0,"cam_kind":2,"own_cd":21309}},{"type":"Feature","geometry":{"type":"Point","coordinates":[139.5325,36.8627777]},"properties":{"id":221309020,"name":"野門カメラ","name_kana":"のかどかめら","ofc_cd":83,"sys_id":2,"sys_cam_id":"21309020","pause":0,"date_type":0,"cam_kind":2,"own_cd":21309}},{"type":"Feature","geometry":{"type":"Point","coordinates":[139.5497222,36.8647222]},"properties":{"id":221309021,"name":"大川筑カメラ","name_kana":"おおかわちくかめら","ofc_cd":83,"sys_id":2,"sys_cam_id":"21309021","pause":0,"date_type":0,"cam_kind":2,"own_cd":21309}},{"type":"Feature","geometry":{"type":"Point","coordinates":[139.6925,36.8986111]},"properties":{"id":221309022,"name":"ダム上流１カメラ（クレストゲート）","name_kana":"だむじょうりゅう１かめら（くれすとげーと）","ofc_cd":83,"sys_id":2,"sys_cam_id":"21309022","pause":0,"date_type":0,"cam_kind":2,"own_cd":21309}},{"type":"Feature","geometry":{"type":"Point","coordinates":[139.6919444,36.9008333]},"properties":{"id":221309023,"name":"ダム上流２カメラ（船着場）","name_kana":"だむじょうりゅう２かめら（ふなつきば）","ofc_cd":83,"sys_id":2,"sys_cam_id":"21309023","pause":0,"date_type":0,"cam_kind":2,"own_cd":21309}},{"type":"Feature","geometry":{"type":"Point","coordinates":[139.6877777,36.8980555]},"properties":{"id":221309024,"name":"ダム上流３カメラ（湖面Ｒ0.3）","name_kana":"だむじょうりゅう３かめら（こめんＲ０．３）","ofc_cd":83,"sys_id":2,"sys_cam_id":"21309024","pause":0,"date_type":0,"cam_kind":2,"own_cd":21309}},{"type":"Feature","geometry":{"type":"Point","coordinates":[139.6888888,36.9025]},"properties":{"id":221309025,"name":"ダム上流４カメラ（湖面Ｒ0.9）","name_kana":"だむじょうりゅう４かめら（こめんＲ０．９）","ofc_cd":83,"sys_id":2,"sys_cam_id":"21309025","pause":0,"date_type":0,"cam_kind":2,"own_cd":21309}},{"type":"Feature","geometry":{"type":"Point","coordinates":[139.6761111,36.8969444]},"properties":{"id":221309026,"name":"ダム上流５カメラ（湖面Ｒ4.7）","name_kana":"だむじょうりゅう５かめら（こめんＲ４．７）","ofc_cd":83,"sys_id":2,"sys_cam_id":"21309026","pause":0,"date_type":0,"cam_kind":2,"own_cd":21309}},{"type":"Feature","geometry":{"type":"Point","coordinates":[139.7011111,36.8944444]},"properties":{"id":221309030,"name":"ダム下流３カメラ（元湯水位観測所カメラ）","name_kana":"だむかりゅう３かめら（もとゆすいいかんそくじょかめら）","ofc_cd":83,"sys_id":2,"sys_cam_id":"21309030","pause":0,"date_type":0,"cam_kind":2,"own_cd":21309}},{"type":"Feature","geometry":{"type":"Point","coordinates":[139.6622222,36.9377777]},"properties":{"id":221309031,"name":"ダム上流１カメラ（ダム天端左岸カメラ）","name_kana":"だむじょうりゅう１かめら（だむてんたんさがんかめら）","ofc_cd":83,"sys_id":2,"sys_cam_id":"21309031","pause":0,"date_type":0,"cam_kind":2,"own_cd":21309}},{"type":"Feature","geometry":{"type":"Point","coordinates":[139.6619444,36.9344444]},"properties":{"id":221309032,"name":"ダム上流２カメラ（ダム上流右岸カメラ）","name_kana":"だむじょうりゅう２かめら（だむじょうりゅううがんかめら）","ofc_cd":83,"sys_id":2,"sys_cam_id":"21309032","pause":0,"date_type":0,"cam_kind":2,"own_cd":21309}},{"type":"Feature","geometry":{"type":"Point","coordinates":[139.6211111,36.9633333]},"properties":{"id":221309033,"name":"ダム上流３カメラ（清水バイパス取水施設カメラ）","name_kana":"だむじょうりゅう３かめら（せいすいばいぱすしゅすいしせつかめら）","ofc_cd":83,"sys_id":2,"sys_cam_id":"21309033","pause":0,"date_type":0,"cam_kind":2,"own_cd":21309}},{"type":"Feature","geometry":{"type":"Point","coordinates":[139.6647222,36.9347222]},"properties":{"id":221309034,"name":"ダム堤体カメラ（展望台カメラ）","name_kana":"だむていたいかめら（てんぼうだいかめら）","ofc_cd":83,"sys_id":2,"sys_cam_id":"21309034","pause":0,"date_type":0,"cam_kind":2,"own_cd":21309}},{"type":"Feature","geometry":{"type":"Point","coordinates":[139.6644444,36.9363888]},"properties":{"id":221309035,"name":"ダム下流１カメラ（ダム下流右岸カメラ）","name_kana":"だむかりゅう１かめら（だむかりゅううがんかめら）","ofc_cd":83,"sys_id":2,"sys_cam_id":"21309035","pause":0,"date_type":0,"cam_kind":2,"own_cd":21309}},{"type":"Feature","geometry":{"type":"Point","coordinates":[139.6658333,36.9369444]},"properties":{"id":221309036,"name":"ダム下流２カメラ（ダム下流左岸２カメラ）","name_kana":"だむかりゅう２かめら（だむかりゅうさがん２かめら）","ofc_cd":83,"sys_id":2,"sys_cam_id":"21309036","pause":0,"date_type":0,"cam_kind":2,"own_cd":21309}}]}