{"type":"FeatureCollection","crs":{"type":"name","properties":{"name":"EPSG:4326"}},"features":[{"type":"Feature","geometry":{"type":"Point","coordinates":[135.9498611,33.7318333]},"properties":{"id":106145044,"name":"熊野川(瀬原)","name_kana":"くまのがわ(せばら)","ofc_cd":86,"sys_id":1,"sys_cam_id":"6145044","pause":0,"date_type":1,"cam_kind":4,"own_cd":6145}},{"type":"Feature","geometry":{"type":"Point","coordinates":[136.007829,33.738623]},"properties":{"id":106145071,"name":"神内川(日高橋下流側)","name_kana":"こうのうちがわ(ひだかばしかりゅうがわ)","ofc_cd":85,"sys_id":1,"sys_cam_id":"6145071","pause":0,"date_type":1,"cam_kind":4,"own_cd":6145}},{"type":"Feature","geometry":{"type":"Point","coordinates":[135.973075,33.7288111]},"properties":{"id":122088002,"name":"熊野川 北檜杖","name_kana":"くまのがわ きたひづえ","ofc_cd":86,"sys_id":1,"sys_cam_id":"22088002","pause":0,"date_type":0,"cam_kind":4,"own_cd":22088}},{"type":"Feature","geometry":{"type":"Point","coordinates":[135.9819444,33.7338889]},"properties":{"id":222088001,"name":"相筋第3樋門","name_kana":"あいすじだい３ひもん","ofc_cd":86,"sys_id":2,"sys_cam_id":"22088103","pause":0,"date_type":0,"cam_kind":2,"own_cd":22088}},{"type":"Feature","geometry":{"type":"Point","coordinates":[135.979444444,33.763888889]},"properties":{"id":222088002,"name":"高岡橋上流左岸","name_kana":"たかおかばしじょうりゅうさがん","ofc_cd":86,"sys_id":2,"sys_cam_id":"22088104","pause":0,"date_type":0,"cam_kind":2,"own_cd":22088}},{"type":"Feature","geometry":{"type":"Point","coordinates":[136.0116667,33.7305556]},"properties":{"id":222088003,"name":"熊野川０．０左岸","name_kana":"くまのがわ０．０さがん","ofc_cd":86,"sys_id":2,"sys_cam_id":"22088105","pause":0,"date_type":0,"cam_kind":2,"own_cd":22088}},{"type":"Feature","geometry":{"type":"Point","coordinates":[136.0046417,33.732675]},"properties":{"id":222088004,"name":"熊野川０．８左岸","name_kana":"くまのがわ０．８さがん","ofc_cd":86,"sys_id":2,"sys_cam_id":"22088106","pause":0,"date_type":0,"cam_kind":2,"own_cd":22088}},{"type":"Feature","geometry":{"type":"Point","coordinates":[135.9961222,33.7346528]},"properties":{"id":222088006,"name":"熊野川１．６左岸","name_kana":"くまのがわ１．６さがん","ofc_cd":86,"sys_id":2,"sys_cam_id":"22088108","pause":0,"date_type":0,"cam_kind":2,"own_cd":22088}},{"type":"Feature","geometry":{"type":"Point","coordinates":[135.9805556,33.7384556]},"properties":{"id":222088023,"name":"相野谷川排水機場１","name_kana":"おのだにがわはいすいきじょう１","ofc_cd":86,"sys_id":2,"sys_cam_id":"22088125","pause":0,"date_type":0,"cam_kind":2,"own_cd":22088}},{"type":"Feature","geometry":{"type":"Point","coordinates":[135.9771944,33.7437222]},"properties":{"id":222088026,"name":"弁慶橋陸閘","name_kana":"べんけいばしりっこう","ofc_cd":86,"sys_id":2,"sys_cam_id":"22088128","pause":0,"date_type":0,"cam_kind":2,"own_cd":22088}},{"type":"Feature","geometry":{"type":"Point","coordinates":[135.9727139,33.7433056]},"properties":{"id":222088027,"name":"鮒田西陸閘","name_kana":"ふなだにしりっこう","ofc_cd":86,"sys_id":2,"sys_cam_id":"22088129","pause":0,"date_type":0,"cam_kind":2,"own_cd":22088}},{"type":"Feature","geometry":{"type":"Point","coordinates":[135.9741333,33.7507028]},"properties":{"id":222088028,"name":"相野谷川1.4左岸","name_kana":"おのだにがわ１．４さがん","ofc_cd":86,"sys_id":2,"sys_cam_id":"22088130","pause":0,"date_type":0,"cam_kind":2,"own_cd":22088}},{"type":"Feature","geometry":{"type":"Point","coordinates":[135.9727778,33.7572639]},"properties":{"id":222088029,"name":"相野谷川2.1右岸","name_kana":"おのだにがわ２．１うがん","ofc_cd":86,"sys_id":2,"sys_cam_id":"22088131","pause":0,"date_type":0,"cam_kind":2,"own_cd":22088}},{"type":"Feature","geometry":{"type":"Point","coordinates":[135.97455,33.7570694]},"properties":{"id":222088030,"name":"高岡第2陸閘","name_kana":"たかおかばしだい２りっこう","ofc_cd":86,"sys_id":2,"sys_cam_id":"22088132","pause":0,"date_type":0,"cam_kind":2,"own_cd":22088}},{"type":"Feature","geometry":{"type":"Point","coordinates":[135.9803333,33.7383333]},"properties":{"id":222088031,"name":"鮒田水門01","name_kana":"ふなだすいもん０１","ofc_cd":86,"sys_id":2,"sys_cam_id":"22088134","pause":0,"date_type":0,"cam_kind":2,"own_cd":22088}},{"type":"Feature","geometry":{"type":"Point","coordinates":[135.9794444,33.7383333]},"properties":{"id":222088032,"name":"鮒田水門02","name_kana":"ふなだすいもん０２","ofc_cd":86,"sys_id":2,"sys_cam_id":"22088135","pause":0,"date_type":0,"cam_kind":2,"own_cd":22088}},{"type":"Feature","geometry":{"type":"Point","coordinates":[135.9802778,33.7384]},"properties":{"id":222088033,"name":"鮒田水門03","name_kana":"ふなだすいもん０３","ofc_cd":86,"sys_id":2,"sys_cam_id":"22088136","pause":0,"date_type":0,"cam_kind":2,"own_cd":22088}},{"type":"Feature","geometry":{"type":"Point","coordinates":[135.9829167,33.7675556]},"properties":{"id":222088034,"name":"相野谷川3.6右岸","name_kana":"おのだにがわ３．６うがん","ofc_cd":86,"sys_id":2,"sys_cam_id":"22088137","pause":0,"date_type":0,"cam_kind":2,"own_cd":22088}},{"type":"Feature","geometry":{"type":"Point","coordinates":[135.9822,33.7714861]},"properties":{"id":222088035,"name":"大里陸閘","name_kana":"おおさとりっこう","ofc_cd":86,"sys_id":2,"sys_cam_id":"22088138","pause":0,"date_type":0,"cam_kind":2,"own_cd":22088}},{"type":"Feature","geometry":{"type":"Point","coordinates":[135.9852778,33.7747222]},"properties":{"id":222088036,"name":"大里第３樋門","name_kana":"おおさとりっこうだい３ひもん","ofc_cd":86,"sys_id":2,"sys_cam_id":"22088139","pause":0,"date_type":0,"cam_kind":2,"own_cd":22088}},{"type":"Feature","geometry":{"type":"Point","coordinates":[135.9856944,33.7751111]},"properties":{"id":222088037,"name":"大里第４樋門","name_kana":"おおさとりっこうだい４ひもん","ofc_cd":86,"sys_id":2,"sys_cam_id":"22088140","pause":0,"date_type":0,"cam_kind":2,"own_cd":22088}},{"type":"Feature","geometry":{"type":"Point","coordinates":[135.9896389,33.7769167]},"properties":{"id":222088038,"name":"相野谷川4.8右岸","name_kana":"おのだにがわ４．８うがん","ofc_cd":86,"sys_id":2,"sys_cam_id":"22088141","pause":0,"date_type":0,"cam_kind":2,"own_cd":22088}},{"type":"Feature","geometry":{"type":"Point","coordinates":[135.9866389,33.7804444]},"properties":{"id":222088039,"name":"相野谷川5.3左岸","name_kana":"おのだにがわ５．３さがん","ofc_cd":86,"sys_id":2,"sys_cam_id":"22088142","pause":0,"date_type":0,"cam_kind":2,"own_cd":22088}}]}