{"type":"FeatureCollection","crs":{"type":"name","properties":{"name":"EPSG:4326"}},"features":[{"type":"Feature","geometry":{"type":"Point","coordinates":[142.0127017,44.8977227]},"properties":{"id":120736040,"name":"天塩川KP46.8右岸カメラ","name_kana":"てしおがわKP46.8さがんかめら","ofc_cd":81,"sys_id":1,"sys_cam_id":"20736040","pause":0,"date_type":2,"cam_kind":4,"own_cd":23317}},{"type":"Feature","geometry":{"type":"Point","coordinates":[142.0309496,44.9274417]},"properties":{"id":120736041,"name":"問寒別川KP1.6左岸カメラ","name_kana":"といかんべつがわKP1.6さがんかめら","ofc_cd":81,"sys_id":1,"sys_cam_id":"20736041","pause":0,"date_type":2,"cam_kind":4,"own_cd":23317}},{"type":"Feature","geometry":{"type":"Point","coordinates":[142.0430298,44.939885]},"properties":{"id":120736042,"name":"問寒別川KP3.4左岸カメラ","name_kana":"といかんべつがわKP3.4さがんかめら","ofc_cd":81,"sys_id":1,"sys_cam_id":"20736042","pause":0,"date_type":2,"cam_kind":4,"own_cd":23317}},{"type":"Feature","geometry":{"type":"Point","coordinates":[142.0830123,45.0453073]},"properties":{"id":120736043,"name":"問寒別川KP18.6右岸カメラ","name_kana":"といかんべつがわKP18.6うがんかめら","ofc_cd":81,"sys_id":1,"sys_cam_id":"20736043","pause":0,"date_type":2,"cam_kind":4,"own_cd":23317}},{"type":"Feature","geometry":{"type":"Point","coordinates":[142.045909,44.9431654]},"properties":{"id":120736044,"name":"問寒別川KP3.8右岸カメラ","name_kana":"といかんべつがわKP3.8うがんかめら","ofc_cd":81,"sys_id":1,"sys_cam_id":"20736044","pause":0,"date_type":2,"cam_kind":4,"own_cd":23317}},{"type":"Feature","geometry":{"type":"Point","coordinates":[142.0580344,44.9617823]},"properties":{"id":120736045,"name":"問寒別川KP6.6右岸カメラ","name_kana":"といかんべつがわKP6.6うがんかめら","ofc_cd":81,"sys_id":1,"sys_cam_id":"20736045","pause":0,"date_type":2,"cam_kind":4,"own_cd":23317}},{"type":"Feature","geometry":{"type":"Point","coordinates":[142.0759206,44.9774166]},"properties":{"id":120736122,"name":"問寒別川KP9.7左岸カメラ","name_kana":"といかんべつがわKP9.7さがんかめら","ofc_cd":81,"sys_id":1,"sys_cam_id":"20736122","pause":0,"date_type":2,"cam_kind":4,"own_cd":23317}},{"type":"Feature","geometry":{"type":"Point","coordinates":[142.0814911,44.9802191]},"properties":{"id":120736123,"name":"問寒別川KP10.2左岸カメラ","name_kana":"といかんべつがわKP10.2さがんかめら","ofc_cd":81,"sys_id":1,"sys_cam_id":"20736123","pause":0,"date_type":2,"cam_kind":4,"own_cd":23317}},{"type":"Feature","geometry":{"type":"Point","coordinates":[141.7443971,44.9720244]},"properties":{"id":120736124,"name":"天塩川KP11.8右岸カメラ","name_kana":"てしおがわKP11.8うがんかめら","ofc_cd":81,"sys_id":1,"sys_cam_id":"20736124","pause":0,"date_type":2,"cam_kind":4,"own_cd":23317}},{"type":"Feature","geometry":{"type":"Point","coordinates":[141.8700234,44.9747859]},"properties":{"id":120736125,"name":"天塩川KP24.4右岸カメラ","name_kana":"てしおがわKP24.4うがんかめら","ofc_cd":81,"sys_id":1,"sys_cam_id":"20736125","pause":0,"date_type":2,"cam_kind":4,"own_cd":23317}},{"type":"Feature","geometry":{"type":"Point","coordinates":[141.8994116,44.925142]},"properties":{"id":120736126,"name":"天塩川KP31.6右岸カメラ","name_kana":"てしおがわKP31.6うがんかめら","ofc_cd":81,"sys_id":1,"sys_cam_id":"20736126","pause":0,"date_type":2,"cam_kind":4,"own_cd":23317}},{"type":"Feature","geometry":{"type":"Point","coordinates":[141.9689041,44.907268]},"properties":{"id":120736127,"name":"天塩川KP41.6右岸カメラ","name_kana":"てしおがわKP41.6うがんかめら","ofc_cd":81,"sys_id":1,"sys_cam_id":"20736127","pause":0,"date_type":2,"cam_kind":4,"own_cd":23317}},{"type":"Feature","geometry":{"type":"Point","coordinates":[141.9933091,44.9156051]},"properties":{"id":120736130,"name":"天塩川KP43.8右岸カメラ","name_kana":"てしおがわKP43.8うがんかめら","ofc_cd":81,"sys_id":1,"sys_cam_id":"20736130","pause":0,"date_type":2,"cam_kind":4,"own_cd":23317}},{"type":"Feature","geometry":{"type":"Point","coordinates":[142.0364321,44.9346099]},"properties":{"id":120736131,"name":"問寒別川KP2.6左岸カメラ","name_kana":"といかんべつがわKP2.6さがんかめら","ofc_cd":81,"sys_id":1,"sys_cam_id":"20736131","pause":0,"date_type":2,"cam_kind":4,"own_cd":23317}},{"type":"Feature","geometry":{"type":"Point","coordinates":[142.0846266,45.0060489]},"properties":{"id":120736132,"name":"問寒別川KP13.2左岸カメラ","name_kana":"といかんべつがわKP13.2さがんかめら","ofc_cd":81,"sys_id":1,"sys_cam_id":"20736132","pause":0,"date_type":2,"cam_kind":4,"own_cd":23317}},{"type":"Feature","geometry":{"type":"Point","coordinates":[142.067509,44.967692]},"properties":{"id":120736467,"name":"問寒別川KP8.0右岸カメラ","name_kana":"といかんべつがわKP8.0うがんかめら","ofc_cd":81,"sys_id":1,"sys_cam_id":"20736467","pause":0,"date_type":2,"cam_kind":4,"own_cd":23317}},{"type":"Feature","geometry":{"type":"Point","coordinates":[142.0766798,45.0146309]},"properties":{"id":120736468,"name":"問寒別川KP14.4左岸上流カメラ","name_kana":"といかんべつがわKP14.4さがんじょうりゅうかめら","ofc_cd":81,"sys_id":1,"sys_cam_id":"20736468","pause":0,"date_type":2,"cam_kind":4,"own_cd":23317}},{"type":"Feature","geometry":{"type":"Point","coordinates":[142.0771142,45.014299]},"properties":{"id":120736469,"name":"問寒別川KP14.4左岸下流カメラ","name_kana":"といかんべつがわKP14.4さがんかりゅうかめら","ofc_cd":81,"sys_id":1,"sys_cam_id":"20736469","pause":0,"date_type":2,"cam_kind":4,"own_cd":23317}},{"type":"Feature","geometry":{"type":"Point","coordinates":[142.0792222,45.0206052]},"properties":{"id":120736470,"name":"問寒別川KP15.4左岸カメラ","name_kana":"といかんべつがわKP15.4さがんかめら","ofc_cd":81,"sys_id":1,"sys_cam_id":"20736470","pause":0,"date_type":2,"cam_kind":4,"own_cd":23317}},{"type":"Feature","geometry":{"type":"Point","coordinates":[141.8162667,44.9952028]},"properties":{"id":223317005,"name":"天塩川　19kp　天塩大橋観測所","name_kana":"てしおがわ１９ｋｐてしおおおはしかんそくじょ","ofc_cd":81,"sys_id":2,"sys_cam_id":"23317005","pause":0,"date_type":0,"cam_kind":3,"own_cd":23317}},{"type":"Feature","geometry":{"type":"Point","coordinates":[142.0181306,44.9187]},"properties":{"id":223317010,"name":"問寒別川　0kp　下問寒別観測所","name_kana":"といかんべつがわ０ｋｐしもといかんべつかんそくじょ","ofc_cd":81,"sys_id":2,"sys_cam_id":"23317010","pause":0,"date_type":0,"cam_kind":2,"own_cd":23317}},{"type":"Feature","geometry":{"type":"Point","coordinates":[142.0544889,44.9547139]},"properties":{"id":223317011,"name":"問寒別川　5kp　中問寒別観測所","name_kana":"といかんべつがわ５ｋｐなかといかんべつかんそくじょ","ofc_cd":81,"sys_id":2,"sys_cam_id":"23317011","pause":0,"date_type":0,"cam_kind":3,"own_cd":23317}},{"type":"Feature","geometry":{"type":"Point","coordinates":[142.0785806,45.0109861]},"properties":{"id":223317012,"name":"問寒別川　14kp　上問寒別観測所","name_kana":"といかんべつがわ１４ｋｐかみといかんべつかんそくじょ","ofc_cd":81,"sys_id":2,"sys_cam_id":"23317012","pause":0,"date_type":0,"cam_kind":2,"own_cd":23317}}]}