{"type":"FeatureCollection","crs":{"type":"name","properties":{"name":"EPSG:4326"}},"features":[{"type":"Feature","geometry":{"type":"Point","coordinates":[134.403127386,34.906713426]},"properties":{"id":107173022,"name":"野桑","name_kana":"のくわ","ofc_cd":86,"sys_id":1,"sys_cam_id":"7173022","pause":0,"date_type":1,"cam_kind":4,"own_cd":7173}},{"type":"Feature","geometry":{"type":"Point","coordinates":[134.316659426,34.870723786]},"properties":{"id":107173023,"name":"八保甲","name_kana":"やぼこう","ofc_cd":86,"sys_id":1,"sys_cam_id":"7173023","pause":0,"date_type":1,"cam_kind":4,"own_cd":7173}},{"type":"Feature","geometry":{"type":"Point","coordinates":[134.3565702,34.87510527]},"properties":{"id":207173002,"name":"上郡","name_kana":"かみごおり","ofc_cd":28,"sys_id":3,"sys_cam_id":"7173002","pause":0,"date_type":1,"cam_kind":2,"own_cd":7173}},{"type":"Feature","geometry":{"type":"Point","coordinates":[134.42252,34.92825]},"properties":{"id":307173005,"name":"金出地ダム上流","name_kana":"かなでじだむじょうりゅう","ofc_cd":28,"sys_id":3,"sys_cam_id":"7173007","pause":0,"date_type":1,"cam_kind":2,"own_cd":7173}},{"type":"Feature","geometry":{"type":"Point","coordinates":[134.4232,34.92716]},"properties":{"id":307173006,"name":"金出地ダム下流","name_kana":"かなでじだむかりゅう","ofc_cd":28,"sys_id":3,"sys_cam_id":"7173008","pause":0,"date_type":1,"cam_kind":2,"own_cd":7173}},{"type":"Feature","geometry":{"type":"Point","coordinates":[134.28175,34.87489]},"properties":{"id":307173007,"name":"安室ダム上流","name_kana":"やすむろだむじょうりゅう","ofc_cd":28,"sys_id":3,"sys_cam_id":"7173009","pause":0,"date_type":1,"cam_kind":2,"own_cd":7173}},{"type":"Feature","geometry":{"type":"Point","coordinates":[134.28127,34.8744]},"properties":{"id":307173008,"name":"安室ダム下流","name_kana":"やすむろだむかりゅう","ofc_cd":28,"sys_id":3,"sys_cam_id":"7173010","pause":0,"date_type":1,"cam_kind":2,"own_cd":7173}}]}