{"type":"FeatureCollection","crs":{"type":"name","properties":{"name":"EPSG:4326"}},"features":[{"type":"Feature","geometry":{"type":"Point","coordinates":[130.856973,32.416648]},"properties":{"id":111009101,"name":"梶原川","name_kana":"","ofc_cd":89,"sys_id":1,"sys_cam_id":"11009101","pause":0,"date_type":2,"cam_kind":4,"own_cd":11009}},{"type":"Feature","geometry":{"type":"Point","coordinates":[130.790973,32.413195]},"properties":{"id":111009124,"name":"五木小川（平瀬橋）","name_kana":"","ofc_cd":89,"sys_id":1,"sys_cam_id":"11009124","pause":0,"date_type":2,"cam_kind":4,"own_cd":11009}},{"type":"Feature","geometry":{"type":"Point","coordinates":[130.8569444,32.4263861]},"properties":{"id":311009038,"name":"川辺川(白水団地)","name_kana":"","ofc_cd":43,"sys_id":3,"sys_cam_id":"43010137","pause":0,"date_type":1,"cam_kind":2,"own_cd":11009}},{"type":"Feature","geometry":{"type":"Point","coordinates":[130.8602778,32.4333306]},"properties":{"id":311009039,"name":"川辺川(横手公園)","name_kana":"","ofc_cd":43,"sys_id":3,"sys_cam_id":"43010138","pause":0,"date_type":1,"cam_kind":2,"own_cd":11009}},{"type":"Feature","geometry":{"type":"Point","coordinates":[130.8563861,32.440275]},"properties":{"id":311009040,"name":"川辺川(宮園橋)","name_kana":"","ofc_cd":43,"sys_id":3,"sys_cam_id":"43010139","pause":0,"date_type":1,"cam_kind":2,"own_cd":11009}}]}