{"type":"FeatureCollection","crs":{"type":"name","properties":{"name":"EPSG:4326"}},"features":[{"type":"Feature","geometry":{"type":"Point","coordinates":[137.578941,36.817854]},"properties":{"id":121556077,"name":"宇奈月","name_kana":"","ofc_cd":84,"sys_id":1,"sys_cam_id":"21556077","pause":0,"date_type":0,"cam_kind":4,"own_cd":21556}},{"type":"Feature","geometry":{"type":"Point","coordinates":[137.554317,36.858372]},"properties":{"id":121556078,"name":"愛本上流","name_kana":"","ofc_cd":84,"sys_id":1,"sys_cam_id":"21556078","pause":0,"date_type":0,"cam_kind":4,"own_cd":21556}},{"type":"Feature","geometry":{"type":"Point","coordinates":[137.553925,36.859775]},"properties":{"id":121556079,"name":"愛本下流","name_kana":"","ofc_cd":84,"sys_id":1,"sys_cam_id":"21556079","pause":0,"date_type":0,"cam_kind":4,"own_cd":21556}},{"type":"Feature","geometry":{"type":"Point","coordinates":[137.4636083,36.8988889]},"properties":{"id":221556002,"name":"沓掛","name_kana":"","ofc_cd":84,"sys_id":2,"sys_cam_id":"16010062","pause":0,"date_type":0,"cam_kind":3,"own_cd":21556}},{"type":"Feature","geometry":{"type":"Point","coordinates":[137.4841639,36.8944444]},"properties":{"id":221556003,"name":"愛川","name_kana":"","ofc_cd":84,"sys_id":2,"sys_cam_id":"16010063","pause":0,"date_type":0,"cam_kind":3,"own_cd":21556}},{"type":"Feature","geometry":{"type":"Point","coordinates":[137.5211083,36.8738889]},"properties":{"id":221556004,"name":"浦山上流","name_kana":"","ofc_cd":84,"sys_id":2,"sys_cam_id":"16010064","pause":0,"date_type":0,"cam_kind":3,"own_cd":21556}},{"type":"Feature","geometry":{"type":"Point","coordinates":[137.5530556,36.8602778]},"properties":{"id":221556005,"name":"愛本左岸","name_kana":"","ofc_cd":84,"sys_id":2,"sys_cam_id":"16010065","pause":0,"date_type":0,"cam_kind":3,"own_cd":21556}},{"type":"Feature","geometry":{"type":"Point","coordinates":[137.5552778,36.8613889]},"properties":{"id":221556006,"name":"愛本右岸","name_kana":"","ofc_cd":84,"sys_id":2,"sys_cam_id":"16010066","pause":0,"date_type":0,"cam_kind":3,"own_cd":21556}},{"type":"Feature","geometry":{"type":"Point","coordinates":[137.5611111,36.8391667]},"properties":{"id":221556007,"name":"音沢橋","name_kana":"","ofc_cd":84,"sys_id":2,"sys_cam_id":"16010067","pause":0,"date_type":0,"cam_kind":3,"own_cd":21556}},{"type":"Feature","geometry":{"type":"Point","coordinates":[137.5394444,36.8672222]},"properties":{"id":221556008,"name":"下立","name_kana":"","ofc_cd":84,"sys_id":2,"sys_cam_id":"16010068","pause":0,"date_type":0,"cam_kind":3,"own_cd":21556}},{"type":"Feature","geometry":{"type":"Point","coordinates":[137.4194417,36.8797194]},"properties":{"id":221556009,"name":"下新川海岸 立野","name_kana":"","ofc_cd":84,"sys_id":2,"sys_cam_id":"16010069","pause":0,"date_type":0,"cam_kind":3,"own_cd":21556}},{"type":"Feature","geometry":{"type":"Point","coordinates":[137.4149972,36.8655556]},"properties":{"id":221556010,"name":"下新川海岸 石田","name_kana":"","ofc_cd":84,"sys_id":2,"sys_cam_id":"16010070","pause":0,"date_type":0,"cam_kind":3,"own_cd":21556}},{"type":"Feature","geometry":{"type":"Point","coordinates":[137.4166639,36.9080556]},"properties":{"id":221556011,"name":"下新川海岸 越湖","name_kana":"","ofc_cd":84,"sys_id":2,"sys_cam_id":"16010071","pause":0,"date_type":0,"cam_kind":3,"own_cd":21556}},{"type":"Feature","geometry":{"type":"Point","coordinates":[137.4097222,36.8963861]},"properties":{"id":221556012,"name":"下新川海岸 生地","name_kana":"","ofc_cd":84,"sys_id":2,"sys_cam_id":"16010072","pause":0,"date_type":0,"cam_kind":3,"own_cd":21556}},{"type":"Feature","geometry":{"type":"Point","coordinates":[137.5580556,36.8524972]},"properties":{"id":221556013,"name":"内山","name_kana":"","ofc_cd":84,"sys_id":2,"sys_cam_id":"16010073","pause":0,"date_type":0,"cam_kind":3,"own_cd":21556}},{"type":"Feature","geometry":{"type":"Point","coordinates":[137.5024972,36.8855528]},"properties":{"id":221556014,"name":"若栗","name_kana":"","ofc_cd":84,"sys_id":2,"sys_cam_id":"16010074","pause":0,"date_type":0,"cam_kind":3,"own_cd":21556}},{"type":"Feature","geometry":{"type":"Point","coordinates":[137.4424972,36.9061083]},"properties":{"id":221556015,"name":"飛騨","name_kana":"","ofc_cd":84,"sys_id":2,"sys_cam_id":"16010075","pause":0,"date_type":0,"cam_kind":3,"own_cd":21556}},{"type":"Feature","geometry":{"type":"Point","coordinates":[137.4216639,36.917775]},"properties":{"id":221556016,"name":"下新川海岸 荒俣東","name_kana":"","ofc_cd":84,"sys_id":2,"sys_cam_id":"16010076","pause":0,"date_type":0,"cam_kind":3,"own_cd":21556}},{"type":"Feature","geometry":{"type":"Point","coordinates":[137.4208306,36.912775]},"properties":{"id":221556017,"name":"下新川海岸 荒俣西","name_kana":"","ofc_cd":84,"sys_id":2,"sys_cam_id":"16010077","pause":0,"date_type":0,"cam_kind":3,"own_cd":21556}},{"type":"Feature","geometry":{"type":"Point","coordinates":[137.5147194,36.8766639]},"properties":{"id":221556018,"name":"浦山","name_kana":"","ofc_cd":84,"sys_id":2,"sys_cam_id":"16010078","pause":0,"date_type":0,"cam_kind":3,"own_cd":21556}},{"type":"Feature","geometry":{"type":"Point","coordinates":[137.5916667,36.8130528]},"properties":{"id":221556034,"name":"宇奈月ダム下流","name_kana":"","ofc_cd":84,"sys_id":2,"sys_cam_id":"16010094","pause":0,"date_type":0,"cam_kind":3,"own_cd":21556}},{"type":"Feature","geometry":{"type":"Point","coordinates":[137.5916667,36.8080528]},"properties":{"id":221556035,"name":"宇奈月ダム上流","name_kana":"","ofc_cd":84,"sys_id":2,"sys_cam_id":"16010095","pause":0,"date_type":0,"cam_kind":3,"own_cd":21556}},{"type":"Feature","geometry":{"type":"Point","coordinates":[137.5875,36.7974972]},"properties":{"id":221556036,"name":"尾の沼","name_kana":"","ofc_cd":84,"sys_id":2,"sys_cam_id":"16010096","pause":0,"date_type":0,"cam_kind":3,"own_cd":21556}},{"type":"Feature","geometry":{"type":"Point","coordinates":[137.6055528,36.790275]},"properties":{"id":221556037,"name":"嘉々堂","name_kana":"","ofc_cd":84,"sys_id":2,"sys_cam_id":"16010097","pause":0,"date_type":0,"cam_kind":3,"own_cd":21556}},{"type":"Feature","geometry":{"type":"Point","coordinates":[137.6183333,36.787775]},"properties":{"id":221556038,"name":"黒薙川合流点","name_kana":"","ofc_cd":84,"sys_id":2,"sys_cam_id":"16010098","pause":0,"date_type":0,"cam_kind":3,"own_cd":21556}},{"type":"Feature","geometry":{"type":"Point","coordinates":[137.6422222,36.7894444]},"properties":{"id":221556045,"name":"黒薙川１号堰堤","name_kana":"くろなぎがわ１ごうえんてい","ofc_cd":84,"sys_id":2,"sys_cam_id":"21556007","pause":0,"date_type":0,"cam_kind":3,"own_cd":21556}},{"type":"Feature","geometry":{"type":"Point","coordinates":[137.66,36.8044444]},"properties":{"id":221556046,"name":"黒薙川３号堰堤","name_kana":"くろなぎがわ３ごうえんてい","ofc_cd":84,"sys_id":2,"sys_cam_id":"21556008","pause":0,"date_type":0,"cam_kind":3,"own_cd":21556}},{"type":"Feature","geometry":{"type":"Point","coordinates":[137.6586111,36.6972222]},"properties":{"id":221556050,"name":"奥鐘橋","name_kana":"おくかねばし","ofc_cd":84,"sys_id":2,"sys_cam_id":"21556012","pause":0,"date_type":0,"cam_kind":3,"own_cd":21556}},{"type":"Feature","geometry":{"type":"Point","coordinates":[137.6494444,36.7363889]},"properties":{"id":221556051,"name":"不帰谷合流点","name_kana":"かえらずだにごうりゅうてん","ofc_cd":84,"sys_id":2,"sys_cam_id":"21556013","pause":0,"date_type":0,"cam_kind":3,"own_cd":21556}},{"type":"Feature","geometry":{"type":"Point","coordinates":[137.6508333,36.6969444]},"properties":{"id":221556052,"name":"小黒部谷１号堰堤","name_kana":"こくろべだに１ごうえんてい","ofc_cd":84,"sys_id":2,"sys_cam_id":"21556014","pause":0,"date_type":0,"cam_kind":3,"own_cd":21556}},{"type":"Feature","geometry":{"type":"Point","coordinates":[137.6449722,36.6943611]},"properties":{"id":221556056,"name":"小黒部谷２号堰堤","name_kana":"こくろべだに２ごうえんてい","ofc_cd":84,"sys_id":2,"sys_cam_id":"21556018","pause":0,"date_type":0,"cam_kind":3,"own_cd":21556}},{"type":"Feature","geometry":{"type":"Point","coordinates":[137.5072222,36.8244444]},"properties":{"id":304101007,"name":"田籾","name_kana":"","ofc_cd":16,"sys_id":3,"sys_cam_id":"4101007","pause":0,"date_type":1,"cam_kind":2,"own_cd":4101}},{"type":"Feature","geometry":{"type":"Point","coordinates":[137.4302778,36.8527778]},"properties":{"id":304101008,"name":"荒町","name_kana":"","ofc_cd":16,"sys_id":3,"sys_cam_id":"4101008","pause":0,"date_type":1,"cam_kind":2,"own_cd":4101}},{"type":"Feature","geometry":{"type":"Point","coordinates":[137.4230556,36.8622222]},"properties":{"id":304102001,"name":"新田橋","name_kana":"","ofc_cd":16,"sys_id":3,"sys_cam_id":"4102009","pause":0,"date_type":1,"cam_kind":2,"own_cd":4102}},{"type":"Feature","geometry":{"type":"Point","coordinates":[137.4236111,36.9033333]},"properties":{"id":304102006,"name":"舞亀橋","name_kana":"","ofc_cd":16,"sys_id":3,"sys_cam_id":"4102014","pause":0,"date_type":1,"cam_kind":2,"own_cd":4102}},{"type":"Feature","geometry":{"type":"Point","coordinates":[137.4325,36.8780556]},"properties":{"id":304102007,"name":"堀切橋","name_kana":"","ofc_cd":16,"sys_id":3,"sys_cam_id":"4102015","pause":0,"date_type":1,"cam_kind":2,"own_cd":4102}},{"type":"Feature","geometry":{"type":"Point","coordinates":[137.4418889,36.8530639]},"properties":{"id":304102010,"name":"神谷川","name_kana":"","ofc_cd":16,"sys_id":3,"sys_cam_id":"4102052","pause":0,"date_type":1,"cam_kind":2,"own_cd":4102}}]}