{"type":"FeatureCollection","crs":{"type":"name","properties":{"name":"EPSG:4326"}},"features":[{"type":"Feature","geometry":{"type":"Point","coordinates":[140.234342,38.748996]},"properties":{"id":101537035,"name":"升形川（八幡橋付近）","name_kana":"","ofc_cd":82,"sys_id":1,"sys_cam_id":"1537035","pause":0,"date_type":2,"cam_kind":4,"own_cd":1537}},{"type":"Feature","geometry":{"type":"Point","coordinates":[140.357552,38.814566]},"properties":{"id":101537036,"name":"大以良川（西宿橋付近）","name_kana":"","ofc_cd":82,"sys_id":1,"sys_cam_id":"1537036","pause":0,"date_type":2,"cam_kind":4,"own_cd":1537}},{"type":"Feature","geometry":{"type":"Point","coordinates":[140.290561,38.767904]},"properties":{"id":101537040,"name":"指首野川（西山橋付近）","name_kana":"","ofc_cd":82,"sys_id":1,"sys_cam_id":"1537040","pause":0,"date_type":2,"cam_kind":4,"own_cd":1537}},{"type":"Feature","geometry":{"type":"Point","coordinates":[140.3644978,38.8274104]},"properties":{"id":101537087,"name":"泉田川（仁田山橋付近）","name_kana":"","ofc_cd":82,"sys_id":1,"sys_cam_id":"1537087","pause":0,"date_type":2,"cam_kind":4,"own_cd":1537}},{"type":"Feature","geometry":{"type":"Point","coordinates":[140.20825833,38.72877222]},"properties":{"id":121054216,"name":"畑 (最上川 47.7k 左岸)","name_kana":"","ofc_cd":82,"sys_id":1,"sys_cam_id":"21054216","pause":0,"date_type":2,"cam_kind":4,"own_cd":21054}},{"type":"Feature","geometry":{"type":"Point","coordinates":[140.226688,38.728076]},"properties":{"id":221054014,"name":"本合海","name_kana":"","ofc_cd":82,"sys_id":2,"sys_cam_id":"21054021","pause":0,"date_type":0,"cam_kind":2,"own_cd":21054}}]}