{"type":"FeatureCollection","crs":{"type":"name","properties":{"name":"EPSG:4326"}},"features":[{"type":"Feature","geometry":{"type":"Point","coordinates":[138.8882331,35.0948066]},"properties":{"id":121826002,"name":"狩野川　5k800　左岸","name_kana":"","ofc_cd":85,"sys_id":1,"sys_cam_id":"21826002","pause":0,"date_type":2,"cam_kind":4,"own_cd":21826}},{"type":"Feature","geometry":{"type":"Point","coordinates":[138.893442,35.0958093]},"properties":{"id":121826003,"name":"狩野川　6k200　右岸","name_kana":"","ofc_cd":85,"sys_id":1,"sys_cam_id":"21826003","pause":0,"date_type":2,"cam_kind":4,"own_cd":21826}},{"type":"Feature","geometry":{"type":"Point","coordinates":[138.8997331,35.0974681]},"properties":{"id":121826004,"name":"狩野川　7k050　左岸","name_kana":"","ofc_cd":85,"sys_id":1,"sys_cam_id":"21826004","pause":0,"date_type":2,"cam_kind":4,"own_cd":21826}},{"type":"Feature","geometry":{"type":"Point","coordinates":[138.885275743,35.099029284]},"properties":{"id":121826022,"name":"狩野川　5.0k+0　右岸","name_kana":"","ofc_cd":85,"sys_id":1,"sys_cam_id":"21826022","pause":0,"date_type":1,"cam_kind":4,"own_cd":21826}},{"type":"Feature","geometry":{"type":"Point","coordinates":[138.904438341,35.086168173]},"properties":{"id":121826023,"name":"狩野川　8.6ｋ+17　左岸","name_kana":"","ofc_cd":85,"sys_id":1,"sys_cam_id":"21826023","pause":0,"date_type":2,"cam_kind":4,"own_cd":21826}}]}