{"type":"FeatureCollection","crs":{"type":"name","properties":{"name":"EPSG:4326"}},"features":[{"type":"Feature","geometry":{"type":"Point","coordinates":[138.551406,37.356238]},"properties":{"id":103841093,"name":"横山川合流点","name_kana":"","ofc_cd":84,"sys_id":1,"sys_cam_id":"3841093","pause":0,"date_type":1,"cam_kind":4,"own_cd":3841}},{"type":"Feature","geometry":{"type":"Point","coordinates":[138.608184,37.394174]},"properties":{"id":103841094,"name":"土合川合流点","name_kana":"","ofc_cd":84,"sys_id":1,"sys_cam_id":"3841094","pause":0,"date_type":1,"cam_kind":4,"own_cd":3841}},{"type":"Feature","geometry":{"type":"Point","coordinates":[138.551161,37.357764]},"properties":{"id":103841095,"name":"源太川合流点","name_kana":"","ofc_cd":84,"sys_id":1,"sys_cam_id":"3841095","pause":0,"date_type":1,"cam_kind":4,"own_cd":3841}},{"type":"Feature","geometry":{"type":"Point","coordinates":[138.573355,37.385279]},"properties":{"id":103841096,"name":"よしやぶ川合流点","name_kana":"","ofc_cd":84,"sys_id":1,"sys_cam_id":"3841096","pause":0,"date_type":1,"cam_kind":4,"own_cd":3841}},{"type":"Feature","geometry":{"type":"Point","coordinates":[138.625935,37.307354]},"properties":{"id":103841097,"name":"加納","name_kana":"","ofc_cd":84,"sys_id":1,"sys_cam_id":"3841097","pause":0,"date_type":1,"cam_kind":4,"own_cd":3841}},{"type":"Feature","geometry":{"type":"Point","coordinates":[138.570208,37.309222]},"properties":{"id":103841098,"name":"宮ノ窪","name_kana":"","ofc_cd":84,"sys_id":1,"sys_cam_id":"3841098","pause":0,"date_type":1,"cam_kind":4,"own_cd":3841}},{"type":"Feature","geometry":{"type":"Point","coordinates":[138.68799,37.486668]},"properties":{"id":103841100,"name":"別山","name_kana":"","ofc_cd":84,"sys_id":1,"sys_cam_id":"3841100","pause":0,"date_type":1,"cam_kind":4,"own_cd":3841}},{"type":"Feature","geometry":{"type":"Point","coordinates":[138.624826,37.334024]},"properties":{"id":103841101,"name":"下加納","name_kana":"","ofc_cd":84,"sys_id":1,"sys_cam_id":"3841101","pause":0,"date_type":1,"cam_kind":4,"own_cd":3841}},{"type":"Feature","geometry":{"type":"Point","coordinates":[138.605797,37.373787]},"properties":{"id":103841102,"name":"天保橋","name_kana":"","ofc_cd":84,"sys_id":1,"sys_cam_id":"3841102","pause":0,"date_type":1,"cam_kind":4,"own_cd":3841}}]}