{"type":"FeatureCollection","crs":{"type":"name","properties":{"name":"EPSG:4326"}},"features":[{"type":"Feature","geometry":{"type":"Point","coordinates":[143.357222222,44.289722222]},"properties":{"id":100257419,"name":"藻鼈川  5.3Kp","name_kana":"","ofc_cd":81,"sys_id":1,"sys_cam_id":"257419","pause":0,"date_type":2,"cam_kind":4,"own_cd":257}},{"type":"Feature","geometry":{"type":"Point","coordinates":[143.266393333,44.24]},"properties":{"id":100257439,"name":"清瀬川  2.8Kp","name_kana":"","ofc_cd":81,"sys_id":1,"sys_cam_id":"257439","pause":0,"date_type":2,"cam_kind":4,"own_cd":257}},{"type":"Feature","geometry":{"type":"Point","coordinates":[143.287181,44.377331]},"properties":{"id":120736449,"name":"渚滑川KP3.2左岸カメラ","name_kana":"","ofc_cd":81,"sys_id":1,"sys_cam_id":"20736449","pause":0,"date_type":2,"cam_kind":4,"own_cd":23337}},{"type":"Feature","geometry":{"type":"Point","coordinates":[143.278339,44.360653]},"properties":{"id":120736450,"name":"渚滑川KP5.4右岸カメラ","name_kana":"","ofc_cd":81,"sys_id":1,"sys_cam_id":"20736450","pause":0,"date_type":2,"cam_kind":4,"own_cd":23337}},{"type":"Feature","geometry":{"type":"Point","coordinates":[143.2869,44.322522]},"properties":{"id":120736451,"name":"渚滑川KP10.2右岸カメラ","name_kana":"","ofc_cd":81,"sys_id":1,"sys_cam_id":"20736451","pause":0,"date_type":2,"cam_kind":4,"own_cd":23337}},{"type":"Feature","geometry":{"type":"Point","coordinates":[143.278211,44.274164]},"properties":{"id":120736452,"name":"渚滑川KP16.0右岸カメラ","name_kana":"","ofc_cd":81,"sys_id":1,"sys_cam_id":"20736452","pause":0,"date_type":2,"cam_kind":4,"own_cd":23337}},{"type":"Feature","geometry":{"type":"Point","coordinates":[143.271883,44.268617]},"properties":{"id":120736453,"name":"渚滑川KP16.8右岸カメラ","name_kana":"","ofc_cd":81,"sys_id":1,"sys_cam_id":"20736453","pause":0,"date_type":2,"cam_kind":4,"own_cd":23337}},{"type":"Feature","geometry":{"type":"Point","coordinates":[143.257239,44.247311]},"properties":{"id":120736454,"name":"渚滑川KP19.6右岸カメラ","name_kana":"","ofc_cd":81,"sys_id":1,"sys_cam_id":"20736454","pause":0,"date_type":2,"cam_kind":4,"own_cd":23337}},{"type":"Feature","geometry":{"type":"Point","coordinates":[143.247506,44.237146]},"properties":{"id":120736465,"name":"渚滑川KP21.0右岸堤内カメラ","name_kana":"","ofc_cd":81,"sys_id":1,"sys_cam_id":"20736465","pause":0,"date_type":2,"cam_kind":4,"own_cd":23337}},{"type":"Feature","geometry":{"type":"Point","coordinates":[143.246321,44.237384]},"properties":{"id":120736466,"name":"渚滑川KP21.0右岸堤外カメラ","name_kana":"","ofc_cd":81,"sys_id":1,"sys_cam_id":"20736466","pause":0,"date_type":2,"cam_kind":4,"own_cd":23337}},{"type":"Feature","geometry":{"type":"Point","coordinates":[143.309353,44.383741]},"properties":{"id":123337507,"name":"渚滑川渚滑左岸樋門（堤内）カメラ","name_kana":"","ofc_cd":81,"sys_id":1,"sys_cam_id":"23337507","pause":0,"date_type":0,"cam_kind":4,"own_cd":23337}},{"type":"Feature","geometry":{"type":"Point","coordinates":[143.309071,44.383687]},"properties":{"id":123337508,"name":"渚滑川渚滑左岸樋門（堤外）カメラ","name_kana":"","ofc_cd":81,"sys_id":1,"sys_cam_id":"23337508","pause":0,"date_type":0,"cam_kind":4,"own_cd":23337}},{"type":"Feature","geometry":{"type":"Point","coordinates":[143.262869,44.260294]},"properties":{"id":123337509,"name":"渚滑川和訓辺樋門（上流）カメラ","name_kana":"","ofc_cd":81,"sys_id":1,"sys_cam_id":"23337509","pause":0,"date_type":0,"cam_kind":4,"own_cd":23337}},{"type":"Feature","geometry":{"type":"Point","coordinates":[143.262993,44.260624]},"properties":{"id":123337510,"name":"渚滑川和訓辺樋門（下流）カメラ","name_kana":"","ofc_cd":81,"sys_id":1,"sys_cam_id":"23337510","pause":0,"date_type":0,"cam_kind":4,"own_cd":23337}},{"type":"Feature","geometry":{"type":"Point","coordinates":[143.262858,44.260488]},"properties":{"id":123337511,"name":"渚滑川和訓辺樋門（堤内）カメラ","name_kana":"","ofc_cd":81,"sys_id":1,"sys_cam_id":"23337511","pause":0,"date_type":0,"cam_kind":4,"own_cd":23337}},{"type":"Feature","geometry":{"type":"Point","coordinates":[143.3002444,44.3797528]},"properties":{"id":223337001,"name":"渚滑川　1.9kp　渚滑橋","name_kana":"しょこつがわ　1.9kp　しょこつばし","ofc_cd":81,"sys_id":2,"sys_cam_id":"23337001","pause":0,"date_type":0,"cam_kind":3,"own_cd":23337}},{"type":"Feature","geometry":{"type":"Point","coordinates":[143.2565944,44.2472028]},"properties":{"id":223337002,"name":"渚滑川　19.0kp　上渚滑右岸","name_kana":"しょこつがわ　19.0kp　かみしょこつかんそくじょ","ofc_cd":81,"sys_id":2,"sys_cam_id":"23337002","pause":0,"date_type":0,"cam_kind":3,"own_cd":23337}},{"type":"Feature","geometry":{"type":"Point","coordinates":[143.271925,44.349175]},"properties":{"id":223337018,"name":"渚滑川　7.0kp　宇津々橋","name_kana":"しょこつがわ　7.0kp　うつつばし","ofc_cd":81,"sys_id":2,"sys_cam_id":"23337018","pause":0,"date_type":0,"cam_kind":2,"own_cd":23337}},{"type":"Feature","geometry":{"type":"Point","coordinates":[143.320028,44.378]},"properties":{"id":223337025,"name":"渚滑川　0.3kp　渚滑河口","name_kana":"しょこつがわ　0.3kp　しょこつかこう","ofc_cd":81,"sys_id":2,"sys_cam_id":"23337025","pause":0,"date_type":0,"cam_kind":2,"own_cd":23337}},{"type":"Feature","geometry":{"type":"Point","coordinates":[143.320194,44.378222]},"properties":{"id":223337026,"name":"渚滑川　0.3kp　渚滑右岸樋門","name_kana":"しょこつがわ　0.3kp　しょこつうがんひもん","ofc_cd":81,"sys_id":2,"sys_cam_id":"23337026","pause":0,"date_type":0,"cam_kind":2,"own_cd":23337}},{"type":"Feature","geometry":{"type":"Point","coordinates":[143.286444,44.373361]},"properties":{"id":223337027,"name":"渚滑川　3.9kp　渚滑６線樋門","name_kana":"しょこつがわ　3.9kp　しょこつ6せんひもん","ofc_cd":81,"sys_id":2,"sys_cam_id":"23337027","pause":0,"date_type":0,"cam_kind":2,"own_cd":23337}},{"type":"Feature","geometry":{"type":"Point","coordinates":[143.285139,44.306278]},"properties":{"id":223337028,"name":"渚滑川　12.0kp　中渚滑２０線橋","name_kana":"しょこつがわ　12.0kp　なかしょこつ20せんばし","ofc_cd":81,"sys_id":2,"sys_cam_id":"23337028","pause":0,"date_type":0,"cam_kind":2,"own_cd":23337}}]}