{"type":"FeatureCollection","crs":{"type":"name","properties":{"name":"EPSG:4326"}},"features":[{"type":"Feature","geometry":{"type":"Point","coordinates":[135.374722222,34.760833333]},"properties":{"id":107183001,"name":"甲武橋","name_kana":"こうぶばし","ofc_cd":86,"sys_id":1,"sys_cam_id":"7183001","pause":0,"date_type":1,"cam_kind":4,"own_cd":7183}},{"type":"Feature","geometry":{"type":"Point","coordinates":[135.411222222,34.744527778]},"properties":{"id":107183010,"name":"庄下川新庄下橋","name_kana":"しょうげがわしんしょうげばし","ofc_cd":86,"sys_id":1,"sys_cam_id":"7183010","pause":0,"date_type":1,"cam_kind":4,"own_cd":7183}},{"type":"Feature","geometry":{"type":"Point","coordinates":[135.446111111,34.734722222]},"properties":{"id":107183011,"name":"神崎川神崎橋","name_kana":"かんざきがわかんざきばし","ofc_cd":86,"sys_id":1,"sys_cam_id":"7183011","pause":0,"date_type":1,"cam_kind":4,"own_cd":7183}},{"type":"Feature","geometry":{"type":"Point","coordinates":[135.402222222,34.725277778]},"properties":{"id":107183012,"name":"蓬川入江橋","name_kana":"よもがわいりえばし","ofc_cd":86,"sys_id":1,"sys_cam_id":"7183012","pause":0,"date_type":1,"cam_kind":4,"own_cd":7183}},{"type":"Feature","geometry":{"type":"Point","coordinates":[135.4582,34.749811111]},"properties":{"id":122070001,"name":"猪名川 名神猪名川橋上流","name_kana":"","ofc_cd":86,"sys_id":1,"sys_cam_id":"22070001","pause":0,"date_type":0,"cam_kind":4,"own_cd":22070}},{"type":"Feature","geometry":{"type":"Point","coordinates":[135.453436111,34.744280556]},"properties":{"id":122070003,"name":"藻川 山手幹線藻川橋上流","name_kana":"","ofc_cd":86,"sys_id":1,"sys_cam_id":"22070003","pause":0,"date_type":0,"cam_kind":4,"own_cd":22070}},{"type":"Feature","geometry":{"type":"Point","coordinates":[135.385008,34.72168]},"properties":{"id":207183001,"name":"武庫川南部","name_kana":"むこがわなんぶ","ofc_cd":28,"sys_id":3,"sys_cam_id":"7183001","pause":0,"date_type":1,"cam_kind":2,"own_cd":7183}},{"type":"Feature","geometry":{"type":"Point","coordinates":[135.4409389,34.7539056]},"properties":{"id":222070006,"name":"阪急藻川橋","name_kana":"","ofc_cd":86,"sys_id":2,"sys_cam_id":"22070048","pause":0,"date_type":0,"cam_kind":2,"own_cd":22070}},{"type":"Feature","geometry":{"type":"Point","coordinates":[135.452638889,34.737283333]},"properties":{"id":222070007,"name":"戸ノ内","name_kana":"","ofc_cd":86,"sys_id":2,"sys_cam_id":"22070043","pause":0,"date_type":0,"cam_kind":2,"own_cd":22070}},{"type":"Feature","geometry":{"type":"Point","coordinates":[135.4583306,34.747275]},"properties":{"id":222070008,"name":"阪急猪名川橋","name_kana":"","ofc_cd":86,"sys_id":2,"sys_cam_id":"22070041","pause":0,"date_type":0,"cam_kind":2,"own_cd":22070}},{"type":"Feature","geometry":{"type":"Point","coordinates":[135.45609444,34.75827222]},"properties":{"id":222070022,"name":"新南園橋","name_kana":"","ofc_cd":86,"sys_id":2,"sys_cam_id":"22070040","pause":0,"date_type":0,"cam_kind":2,"own_cd":22070}},{"type":"Feature","geometry":{"type":"Point","coordinates":[135.45711944,34.74650556]},"properties":{"id":222070023,"name":"園田東","name_kana":"","ofc_cd":86,"sys_id":2,"sys_cam_id":"22070042","pause":0,"date_type":0,"cam_kind":2,"own_cd":22070}},{"type":"Feature","geometry":{"type":"Point","coordinates":[135.42711944,34.76899167]},"properties":{"id":222070024,"name":"藻川水管橋","name_kana":"","ofc_cd":86,"sys_id":2,"sys_cam_id":"22070044","pause":0,"date_type":0,"cam_kind":2,"own_cd":22070}},{"type":"Feature","geometry":{"type":"Point","coordinates":[135.43306389,34.76543611]},"properties":{"id":222070025,"name":"田能西","name_kana":"","ofc_cd":86,"sys_id":2,"sys_cam_id":"22070045","pause":0,"date_type":0,"cam_kind":2,"own_cd":22070}},{"type":"Feature","geometry":{"type":"Point","coordinates":[135.43162778,34.76423611]},"properties":{"id":222070026,"name":"上園橋","name_kana":"","ofc_cd":86,"sys_id":2,"sys_cam_id":"22070046","pause":0,"date_type":0,"cam_kind":2,"own_cd":22070}},{"type":"Feature","geometry":{"type":"Point","coordinates":[135.4375,34.76222222]},"properties":{"id":222070027,"name":"中園橋","name_kana":"","ofc_cd":86,"sys_id":2,"sys_cam_id":"22070047","pause":0,"date_type":0,"cam_kind":2,"own_cd":22070}},{"type":"Feature","geometry":{"type":"Point","coordinates":[135.44249444,34.75392222]},"properties":{"id":222070028,"name":"宮園橋","name_kana":"","ofc_cd":86,"sys_id":2,"sys_cam_id":"22070049","pause":0,"date_type":0,"cam_kind":2,"own_cd":22070}},{"type":"Feature","geometry":{"type":"Point","coordinates":[135.45083333,34.74833333]},"properties":{"id":222070029,"name":"東園田橋","name_kana":"","ofc_cd":86,"sys_id":2,"sys_cam_id":"22070050","pause":0,"date_type":0,"cam_kind":2,"own_cd":22070}},{"type":"Feature","geometry":{"type":"Point","coordinates":[135.45183333,34.74578889]},"properties":{"id":222070030,"name":"名神藻川橋","name_kana":"","ofc_cd":86,"sys_id":2,"sys_cam_id":"22070051","pause":0,"date_type":0,"cam_kind":2,"own_cd":22070}},{"type":"Feature","geometry":{"type":"Point","coordinates":[135.42846,34.76724]},"properties":{"id":307183001,"name":"昆陽川捷水路排水機場","name_kana":"こやがわしょうすいろはいすいきじょう","ofc_cd":28,"sys_id":3,"sys_cam_id":"7183003","pause":0,"date_type":1,"cam_kind":2,"own_cd":7183}},{"type":"Feature","geometry":{"type":"Point","coordinates":[135.41567,34.71307]},"properties":{"id":307185001,"name":"庄下川水門","name_kana":"しょうげがわすいもん","ofc_cd":28,"sys_id":3,"sys_cam_id":"7185001","pause":0,"date_type":1,"cam_kind":2,"own_cd":7185}}]}