{"type":"FeatureCollection","crs":{"type":"name","properties":{"name":"EPSG:4326"}},"features":[{"type":"Feature","geometry":{"type":"Point","coordinates":[136.966058,35.191656]},"properties":{"id":105889011,"name":"長栄八反","name_kana":"","ofc_cd":85,"sys_id":1,"sys_cam_id":"5889011","pause":0,"date_type":0,"cam_kind":4,"own_cd":5889}},{"type":"Feature","geometry":{"type":"Point","coordinates":[136.991107,35.188796]},"properties":{"id":105889012,"name":"猪子石","name_kana":"","ofc_cd":85,"sys_id":1,"sys_cam_id":"5889012","pause":0,"date_type":0,"cam_kind":4,"own_cd":5889}},{"type":"Feature","geometry":{"type":"Point","coordinates":[136.948809,35.106581]},"properties":{"id":105889013,"name":"天白川","name_kana":"","ofc_cd":85,"sys_id":1,"sys_cam_id":"5889013","pause":0,"date_type":0,"cam_kind":4,"own_cd":5889}},{"type":"Feature","geometry":{"type":"Point","coordinates":[136.969735,35.121686]},"properties":{"id":105889014,"name":"天白島田","name_kana":"","ofc_cd":85,"sys_id":1,"sys_cam_id":"5889014","pause":0,"date_type":0,"cam_kind":4,"own_cd":5889}},{"type":"Feature","geometry":{"type":"Point","coordinates":[136.951244,35.078805]},"properties":{"id":105889015,"name":"鳴海","name_kana":"","ofc_cd":85,"sys_id":1,"sys_cam_id":"5889015","pause":0,"date_type":0,"cam_kind":4,"own_cd":5889}},{"type":"Feature","geometry":{"type":"Point","coordinates":[136.941615,35.121917]},"properties":{"id":105889016,"name":"瑞穂","name_kana":"","ofc_cd":85,"sys_id":1,"sys_cam_id":"5889016","pause":0,"date_type":0,"cam_kind":4,"own_cd":5889}},{"type":"Feature","geometry":{"type":"Point","coordinates":[136.953936,35.21513333]},"properties":{"id":121782038,"name":"庄内川　23k800　左岸","name_kana":"","ofc_cd":85,"sys_id":1,"sys_cam_id":"21782038","pause":0,"date_type":2,"cam_kind":4,"own_cd":21782}},{"type":"Feature","geometry":{"type":"Point","coordinates":[137.01204,35.245013]},"properties":{"id":121782039,"name":"庄内川　31k400　左岸","name_kana":"","ofc_cd":85,"sys_id":1,"sys_cam_id":"21782039","pause":0,"date_type":2,"cam_kind":4,"own_cd":21782}},{"type":"Feature","geometry":{"type":"Point","coordinates":[137.0179889,35.2513556]},"properties":{"id":221782007,"name":"志段味水位観測所","name_kana":"","ofc_cd":85,"sys_id":2,"sys_cam_id":"23010001","pause":0,"date_type":0,"cam_kind":2,"own_cd":21782}},{"type":"Feature","geometry":{"type":"Point","coordinates":[137.0248139,35.2539333]},"properties":{"id":221782014,"name":"野添川合流点","name_kana":"","ofc_cd":85,"sys_id":2,"sys_cam_id":"23010069","pause":0,"date_type":0,"cam_kind":2,"own_cd":21782}},{"type":"Feature","geometry":{"type":"Point","coordinates":[136.9351139,35.2168417]},"properties":{"id":221782015,"name":"八田川合流点","name_kana":"","ofc_cd":85,"sys_id":2,"sys_cam_id":"23010070","pause":0,"date_type":0,"cam_kind":2,"own_cd":21782}},{"type":"Feature","geometry":{"type":"Point","coordinates":[136.9238167,35.212575]},"properties":{"id":221782016,"name":"水分橋緑地","name_kana":"","ofc_cd":85,"sys_id":2,"sys_cam_id":"23010071","pause":0,"date_type":0,"cam_kind":2,"own_cd":21782}},{"type":"Feature","geometry":{"type":"Point","coordinates":[136.9080556,35.2216667]},"properties":{"id":221782017,"name":"洗堰","name_kana":"","ofc_cd":85,"sys_id":2,"sys_cam_id":"23010072","pause":0,"date_type":0,"cam_kind":2,"own_cd":21782}},{"type":"Feature","geometry":{"type":"Point","coordinates":[136.9009111,35.2129417]},"properties":{"id":221782018,"name":"庄内川事務所","name_kana":"","ofc_cd":85,"sys_id":2,"sys_cam_id":"23010073","pause":0,"date_type":0,"cam_kind":2,"own_cd":21782}},{"type":"Feature","geometry":{"type":"Point","coordinates":[136.8790889,35.2083444]},"properties":{"id":221782019,"name":"小田井遊水池","name_kana":"","ofc_cd":85,"sys_id":2,"sys_cam_id":"23010074","pause":0,"date_type":0,"cam_kind":2,"own_cd":21782}},{"type":"Feature","geometry":{"type":"Point","coordinates":[136.869575,35.1921111]},"properties":{"id":221782020,"name":"枇杷島橋上流","name_kana":"","ofc_cd":85,"sys_id":2,"sys_cam_id":"23010075","pause":0,"date_type":0,"cam_kind":2,"own_cd":21782}},{"type":"Feature","geometry":{"type":"Point","coordinates":[136.867275,35.1912167]},"properties":{"id":221782021,"name":"新幹線上流","name_kana":"","ofc_cd":85,"sys_id":2,"sys_cam_id":"23010076","pause":0,"date_type":0,"cam_kind":2,"own_cd":21782}},{"type":"Feature","geometry":{"type":"Point","coordinates":[136.8355556,35.1652778]},"properties":{"id":221782022,"name":"大正橋緑地","name_kana":"","ofc_cd":85,"sys_id":2,"sys_cam_id":"23010077","pause":0,"date_type":0,"cam_kind":2,"own_cd":21782}},{"type":"Feature","geometry":{"type":"Point","coordinates":[136.8372667,35.1515111]},"properties":{"id":221782023,"name":"第一出張所","name_kana":"","ofc_cd":85,"sys_id":2,"sys_cam_id":"23010078","pause":0,"date_type":0,"cam_kind":2,"own_cd":21782}},{"type":"Feature","geometry":{"type":"Point","coordinates":[136.8327778,35.145]},"properties":{"id":221782024,"name":"JR関西線上流","name_kana":"","ofc_cd":85,"sys_id":2,"sys_cam_id":"23010079","pause":0,"date_type":0,"cam_kind":2,"own_cd":21782}},{"type":"Feature","geometry":{"type":"Point","coordinates":[136.8361111,35.1261111]},"properties":{"id":221782025,"name":"一色大橋上流","name_kana":"","ofc_cd":85,"sys_id":2,"sys_cam_id":"23010080","pause":0,"date_type":0,"cam_kind":2,"own_cd":21782}},{"type":"Feature","geometry":{"type":"Point","coordinates":[136.8386389,35.12125]},"properties":{"id":221782026,"name":"一色大橋下流","name_kana":"","ofc_cd":85,"sys_id":2,"sys_cam_id":"23010081","pause":0,"date_type":0,"cam_kind":2,"own_cd":21782}},{"type":"Feature","geometry":{"type":"Point","coordinates":[136.8358333,35.1161111]},"properties":{"id":221782027,"name":"下之一色水防拠点","name_kana":"","ofc_cd":85,"sys_id":2,"sys_cam_id":"23010082","pause":0,"date_type":0,"cam_kind":2,"own_cd":21782}},{"type":"Feature","geometry":{"type":"Point","coordinates":[136.8357944,35.1091667]},"properties":{"id":221782028,"name":"当知観測所","name_kana":"","ofc_cd":85,"sys_id":2,"sys_cam_id":"23010083","pause":0,"date_type":0,"cam_kind":2,"own_cd":21782}},{"type":"Feature","geometry":{"type":"Point","coordinates":[136.8441667,35.0913889]},"properties":{"id":221782029,"name":"庄内新川橋下流","name_kana":"","ofc_cd":85,"sys_id":2,"sys_cam_id":"23010084","pause":0,"date_type":0,"cam_kind":2,"own_cd":21782}},{"type":"Feature","geometry":{"type":"Point","coordinates":[136.8491,35.0791222]},"properties":{"id":221782030,"name":"河口稲永公園","name_kana":"","ofc_cd":85,"sys_id":2,"sys_cam_id":"23010085","pause":0,"date_type":0,"cam_kind":2,"own_cd":21782}},{"type":"Feature","geometry":{"type":"Point","coordinates":[136.9547611,35.194025]},"properties":{"id":221782031,"name":"守山排水樋門","name_kana":"","ofc_cd":85,"sys_id":2,"sys_cam_id":"23010086","pause":0,"date_type":0,"cam_kind":2,"own_cd":21782}},{"type":"Feature","geometry":{"type":"Point","coordinates":[136.9437361,35.1984583]},"properties":{"id":221782032,"name":"JR中央線上流","name_kana":"","ofc_cd":85,"sys_id":2,"sys_cam_id":"23010087","pause":0,"date_type":0,"cam_kind":2,"own_cd":21782}},{"type":"Feature","geometry":{"type":"Point","coordinates":[136.9308694,35.2080444]},"properties":{"id":221782033,"name":"三階橋上流","name_kana":"","ofc_cd":85,"sys_id":2,"sys_cam_id":"23010088","pause":0,"date_type":0,"cam_kind":2,"own_cd":21782}},{"type":"Feature","geometry":{"type":"Point","coordinates":[136.9144667,35.216225]},"properties":{"id":221782034,"name":"新川中橋上流","name_kana":"","ofc_cd":85,"sys_id":2,"sys_cam_id":"23010089","pause":0,"date_type":0,"cam_kind":2,"own_cd":21782}},{"type":"Feature","geometry":{"type":"Point","coordinates":[136.9286139,35.2088194]},"properties":{"id":221782035,"name":"三階橋下流","name_kana":"","ofc_cd":85,"sys_id":2,"sys_cam_id":"23010095","pause":0,"date_type":0,"cam_kind":2,"own_cd":21782}}]}