{"type":"FeatureCollection","crs":{"type":"name","properties":{"name":"EPSG:4326"}},"features":[{"type":"Feature","geometry":{"type":"Point","coordinates":[134.572864,35.501781]},"properties":{"id":107178001,"name":"村岡","name_kana":"むらおか","ofc_cd":86,"sys_id":1,"sys_cam_id":"7178001","pause":0,"date_type":1,"cam_kind":4,"own_cd":7178}},{"type":"Feature","geometry":{"type":"Point","coordinates":[134.685196,35.647121]},"properties":{"id":107178002,"name":"佐津","name_kana":"さづ","ofc_cd":86,"sys_id":1,"sys_cam_id":"7178002","pause":0,"date_type":1,"cam_kind":4,"own_cd":7178}},{"type":"Feature","geometry":{"type":"Point","coordinates":[134.553198,35.471453]},"properties":{"id":107178010,"name":"石寺","name_kana":"いしでら","ofc_cd":86,"sys_id":1,"sys_cam_id":"7178010","pause":0,"date_type":1,"cam_kind":4,"own_cd":7178}},{"type":"Feature","geometry":{"type":"Point","coordinates":[134.597583,35.469373]},"properties":{"id":107178011,"name":"湯舟","name_kana":"ゆふね","ofc_cd":86,"sys_id":1,"sys_cam_id":"7178011","pause":0,"date_type":1,"cam_kind":4,"own_cd":7178}},{"type":"Feature","geometry":{"type":"Point","coordinates":[134.620786,35.629349]},"properties":{"id":207178001,"name":"矢田川油良","name_kana":"やたがわゆら","ofc_cd":28,"sys_id":3,"sys_cam_id":"7178001","pause":0,"date_type":1,"cam_kind":2,"own_cd":7178}}]}