{"type":"FeatureCollection","crs":{"type":"name","properties":{"name":"EPSG:4326"}},"features":[{"type":"Feature","geometry":{"type":"Point","coordinates":[132.7088888,33.8052777]},"properties":{"id":122569002,"name":"重信川左岸1k6松前町大新田床止","name_kana":"","ofc_cd":88,"sys_id":1,"sys_cam_id":"22569002","pause":0,"date_type":0,"cam_kind":4,"own_cd":22569}},{"type":"Feature","geometry":{"type":"Point","coordinates":[132.7578583,33.8014417]},"properties":{"id":222569009,"name":"重信川 左 6Ｋ0松前町 中川原橋","name_kana":"","ofc_cd":88,"sys_id":2,"sys_cam_id":"22569045","pause":0,"date_type":0,"cam_kind":2,"own_cd":22569}},{"type":"Feature","geometry":{"type":"Point","coordinates":[132.7281667,33.8039722]},"properties":{"id":222569011,"name":"重信川 左 3k4 松前町 出合基準点","name_kana":"しげのぶがわ　ひだり　３ｋ４　まさきちょう　であいきじゅんてん","ofc_cd":88,"sys_id":2,"sys_cam_id":"22569022","pause":0,"date_type":0,"cam_kind":2,"own_cd":22569}},{"type":"Feature","geometry":{"type":"Point","coordinates":[132.692638888,33.803083333]},"properties":{"id":222569016,"name":"重信川 左 0k2 松前町 塩屋樋門","name_kana":"","ofc_cd":88,"sys_id":2,"sys_cam_id":"22569027","pause":0,"date_type":0,"cam_kind":2,"own_cd":22569}},{"type":"Feature","geometry":{"type":"Point","coordinates":[132.728305555,33.804111111]},"properties":{"id":222569019,"name":"重信川 左 3k4 松前町 出合大橋","name_kana":"","ofc_cd":88,"sys_id":2,"sys_cam_id":"22569030","pause":0,"date_type":0,"cam_kind":2,"own_cd":22569}},{"type":"Feature","geometry":{"type":"Point","coordinates":[132.740972222,33.804694444]},"properties":{"id":222569020,"name":"重信川 左 4k6 松前町 大間","name_kana":"","ofc_cd":88,"sys_id":2,"sys_cam_id":"22569031","pause":0,"date_type":0,"cam_kind":2,"own_cd":22569}}]}