{"type":"FeatureCollection","crs":{"type":"name","properties":{"name":"EPSG:4326"}},"features":[{"type":"Feature","geometry":{"type":"Point","coordinates":[130.50865277,33.18310555]},"properties":{"id":222816014,"name":"矢部川15Ｋ650右岸北長田","name_kana":"やべがわ15k650うがんきたながた","ofc_cd":89,"sys_id":2,"sys_cam_id":"22816024","pause":0,"date_type":0,"cam_kind":2,"own_cd":22816}},{"type":"Feature","geometry":{"type":"Point","coordinates":[130.5043056,33.1826667]},"properties":{"id":222816081,"name":"矢部川右岸15K300船小屋","name_kana":"","ofc_cd":89,"sys_id":2,"sys_cam_id":"22816091","pause":0,"date_type":0,"cam_kind":2,"own_cd":22816}},{"type":"Feature","geometry":{"type":"Point","coordinates":[130.482536448,33.233253401]},"properties":{"id":14001211001,"name":"西牟田町(県道久留米瀬高線)倉目川／平成橋","name_kana":"","ofc_cd":89,"sys_id":1,"sys_cam_id":"4001211001","pause":0,"date_type":2,"cam_kind":4,"own_cd":4001211}},{"type":"Feature","geometry":{"type":"Point","coordinates":[130.47757034,33.204952338]},"properties":{"id":14001211002,"name":"島田(県道富久瀬高線上流)花宗川/花宗川橋","name_kana":"","ofc_cd":89,"sys_id":1,"sys_cam_id":"4001211002","pause":0,"date_type":2,"cam_kind":4,"own_cd":4001211}},{"type":"Feature","geometry":{"type":"Point","coordinates":[130.5025,33.242222222]},"properties":{"id":14001211003,"name":"井原堤(大和)","name_kana":"","ofc_cd":89,"sys_id":1,"sys_cam_id":"4001211003","pause":0,"date_type":2,"cam_kind":4,"own_cd":4001211}},{"type":"Feature","geometry":{"type":"Point","coordinates":[130.498055555,33.243333333]},"properties":{"id":14001211004,"name":"天堤(野中)","name_kana":"","ofc_cd":89,"sys_id":1,"sys_cam_id":"4001211004","pause":0,"date_type":2,"cam_kind":4,"own_cd":4001211}},{"type":"Feature","geometry":{"type":"Point","coordinates":[130.509166666,33.229722222]},"properties":{"id":14001211005,"name":"長須ため池(上原々北)","name_kana":"","ofc_cd":89,"sys_id":1,"sys_cam_id":"4001211005","pause":0,"date_type":2,"cam_kind":4,"own_cd":4001211}},{"type":"Feature","geometry":{"type":"Point","coordinates":[130.505,33.233333333]},"properties":{"id":14001211006,"name":"河原ため池(上原々北)","name_kana":"","ofc_cd":89,"sys_id":1,"sys_cam_id":"4001211006","pause":0,"date_type":2,"cam_kind":4,"own_cd":4001211}},{"type":"Feature","geometry":{"type":"Point","coordinates":[130.523055555,33.228055555]},"properties":{"id":14001211007,"name":"昭和ため池(欠塚)","name_kana":"","ofc_cd":89,"sys_id":1,"sys_cam_id":"4001211007","pause":0,"date_type":2,"cam_kind":4,"own_cd":4001211}},{"type":"Feature","geometry":{"type":"Point","coordinates":[130.522777777,33.22583333]},"properties":{"id":14001211008,"name":"坂田ため池(欠塚)","name_kana":"","ofc_cd":89,"sys_id":1,"sys_cam_id":"4001211008","pause":0,"date_type":2,"cam_kind":4,"own_cd":4001211}},{"type":"Feature","geometry":{"type":"Point","coordinates":[130.504444444,33.237222222]},"properties":{"id":14001211009,"name":"中ノ堤(赤坂)","name_kana":"","ofc_cd":89,"sys_id":1,"sys_cam_id":"4001211009","pause":0,"date_type":2,"cam_kind":4,"own_cd":4001211}},{"type":"Feature","geometry":{"type":"Point","coordinates":[130.504166666,33.235277777]},"properties":{"id":14001211010,"name":"大堤(赤坂)","name_kana":"","ofc_cd":89,"sys_id":1,"sys_cam_id":"4001211010","pause":0,"date_type":2,"cam_kind":4,"own_cd":4001211}}]}