{"type":"FeatureCollection","crs":{"type":"name","properties":{"name":"EPSG:4326"}},"features":[{"type":"Feature","geometry":{"type":"Point","coordinates":[130.42839,31.866973]},"properties":{"id":122856113,"name":"川内川 31k900 運床川樋門","name_kana":"","ofc_cd":89,"sys_id":1,"sys_cam_id":"22856113","pause":0,"date_type":0,"cam_kind":4,"own_cd":22856}},{"type":"Feature","geometry":{"type":"Point","coordinates":[130.464944,31.925754]},"properties":{"id":122856114,"name":"川内川 39k800 夜星川","name_kana":"","ofc_cd":89,"sys_id":1,"sys_cam_id":"22856114","pause":0,"date_type":0,"cam_kind":4,"own_cd":22856}},{"type":"Feature","geometry":{"type":"Point","coordinates":[130.480293,31.956762]},"properties":{"id":122856115,"name":"川内川 45k200 神子橋","name_kana":"","ofc_cd":89,"sys_id":1,"sys_cam_id":"22856115","pause":0,"date_type":0,"cam_kind":4,"own_cd":22856}},{"type":"Feature","geometry":{"type":"Point","coordinates":[130.4558306,31.907775]},"properties":{"id":222856006,"name":"宮之城","name_kana":"","ofc_cd":89,"sys_id":2,"sys_cam_id":"46010004","pause":0,"date_type":0,"cam_kind":2,"own_cd":22856}},{"type":"Feature","geometry":{"type":"Point","coordinates":[130.4663861,31.9354611]},"properties":{"id":222856009,"name":"柏原橋","name_kana":"","ofc_cd":89,"sys_id":2,"sys_cam_id":"46010007","pause":0,"date_type":0,"cam_kind":2,"own_cd":22856}}]}