{"type":"FeatureCollection","crs":{"type":"name","properties":{"name":"EPSG:4326"}},"features":[{"type":"Feature","geometry":{"type":"Point","coordinates":[136.896436,37.245599]},"properties":{"id":104353032,"name":"小又川（宮坂橋）","name_kana":"おまたかわ（みやさかばし）","ofc_cd":84,"sys_id":1,"sys_cam_id":"4353032","pause":0,"date_type":2,"cam_kind":4,"own_cd":4353}},{"type":"Feature","geometry":{"type":"Point","coordinates":[136.885928,37.229066]},"properties":{"id":104353034,"name":"山王川（極生寺橋）","name_kana":"さんのうかわ（ごくしょうじばし）","ofc_cd":84,"sys_id":1,"sys_cam_id":"4353034","pause":0,"date_type":2,"cam_kind":4,"own_cd":4353}},{"type":"Feature","geometry":{"type":"Point","coordinates":[137.0761322,37.2468289]},"properties":{"id":104353039,"name":"太田川（竹太）","name_kana":"おおたがわ（たけだ）","ofc_cd":84,"sys_id":1,"sys_cam_id":"4353039","pause":0,"date_type":1,"cam_kind":4,"own_cd":4353}},{"type":"Feature","geometry":{"type":"Point","coordinates":[137.0679961,37.2191704]},"properties":{"id":104353040,"name":"諸橋川（本神出橋）","name_kana":"もろはしかわ（ほんかみでばし）","ofc_cd":84,"sys_id":1,"sys_cam_id":"4353040","pause":0,"date_type":1,"cam_kind":4,"own_cd":4353}},{"type":"Feature","geometry":{"type":"Point","coordinates":[136.9422917,37.2398579]},"properties":{"id":104353041,"name":"日詰川（梶川橋）","name_kana":"ひづめかわ（かじかわばし）","ofc_cd":84,"sys_id":1,"sys_cam_id":"4353041","pause":0,"date_type":1,"cam_kind":4,"own_cd":4353}},{"type":"Feature","geometry":{"type":"Point","coordinates":[136.918941,37.235997]},"properties":{"id":104353102,"name":"七海川（舟渡橋）","name_kana":"しつみがわ（ふなわたりばし）","ofc_cd":84,"sys_id":1,"sys_cam_id":"4353102","pause":0,"date_type":1,"cam_kind":4,"own_cd":4353}},{"type":"Feature","geometry":{"type":"Point","coordinates":[136.903990847,37.231516429]},"properties":{"id":104353149,"name":"真名井川（新町橋）","name_kana":"まないがわ（しんまちばし）","ofc_cd":84,"sys_id":1,"sys_cam_id":"4353149","pause":0,"date_type":1,"cam_kind":4,"own_cd":4353}},{"type":"Feature","geometry":{"type":"Point","coordinates":[136.90683333,37.23083333]},"properties":{"id":104353150,"name":"善右衛門川（大島橋）","name_kana":"ぜんうえもんがわ（おおしまばし）","ofc_cd":84,"sys_id":1,"sys_cam_id":"4353150","pause":0,"date_type":1,"cam_kind":4,"own_cd":4353}},{"type":"Feature","geometry":{"type":"Point","coordinates":[136.905969705,37.230641689]},"properties":{"id":104353151,"name":"中ノ橋川（中ノ橋）","name_kana":"なかのはしがわ（なかのはし）","ofc_cd":84,"sys_id":1,"sys_cam_id":"4353151","pause":0,"date_type":1,"cam_kind":4,"own_cd":4353}},{"type":"Feature","geometry":{"type":"Point","coordinates":[137.06001,37.22145]},"properties":{"id":104353161,"name":"前波川（恵光寺橋）","name_kana":"まえなみがわ（けいこうじはし）","ofc_cd":84,"sys_id":1,"sys_cam_id":"4353161","pause":0,"date_type":2,"cam_kind":4,"own_cd":4353}},{"type":"Feature","geometry":{"type":"Point","coordinates":[136.901,37.238888889]},"properties":{"id":304353051,"name":"奥能登土木　小又川　上野橋","name_kana":"おまたかわ　うわのばし","ofc_cd":17,"sys_id":3,"sys_cam_id":"4353051","pause":0,"date_type":1,"cam_kind":2,"own_cd":4353}},{"type":"Feature","geometry":{"type":"Point","coordinates":[137.016666667,37.188055556]},"properties":{"id":304353052,"name":"奥能登土木　穴水海岸　曽良","name_kana":"あなみずかいがん　そら","ofc_cd":17,"sys_id":3,"sys_cam_id":"4353052","pause":0,"date_type":1,"cam_kind":2,"own_cd":4353}}]}