{"type":"FeatureCollection","crs":{"type":"name","properties":{"name":"EPSG:4326"}},"features":[{"type":"Feature","geometry":{"type":"Point","coordinates":[142.851948889,42.175833333]},"properties":{"id":100257347,"name":"日高幌別川  4.2Kp","name_kana":"","ofc_cd":81,"sys_id":1,"sys_cam_id":"257347","pause":0,"date_type":2,"cam_kind":4,"own_cd":257}},{"type":"Feature","geometry":{"type":"Point","coordinates":[142.791394444,42.1625]},"properties":{"id":100257348,"name":"乳呑川  0.8Kp","name_kana":"","ofc_cd":81,"sys_id":1,"sys_cam_id":"257348","pause":0,"date_type":2,"cam_kind":4,"own_cd":257}},{"type":"Feature","geometry":{"type":"Point","coordinates":[142.763893333,42.260833333]},"properties":{"id":100257349,"name":"元浦川  12.1Kp","name_kana":"","ofc_cd":81,"sys_id":1,"sys_cam_id":"257349","pause":0,"date_type":2,"cam_kind":4,"own_cd":257}},{"type":"Feature","geometry":{"type":"Point","coordinates":[142.77195,42.186666667]},"properties":{"id":100257361,"name":"向別川  1.5Kp","name_kana":"","ofc_cd":81,"sys_id":1,"sys_cam_id":"257361","pause":0,"date_type":2,"cam_kind":4,"own_cd":257}},{"type":"Feature","geometry":{"type":"Point","coordinates":[142.740711111,42.203044444]},"properties":{"id":100257384,"name":"絵笛川  2.8Kp","name_kana":"","ofc_cd":81,"sys_id":1,"sys_cam_id":"257384","pause":0,"date_type":2,"cam_kind":4,"own_cd":257}},{"type":"Feature","geometry":{"type":"Point","coordinates":[142.826991667,42.141522222]},"properties":{"id":100257387,"name":"赤川  0.2Kp","name_kana":"","ofc_cd":81,"sys_id":1,"sys_cam_id":"257387","pause":0,"date_type":2,"cam_kind":4,"own_cd":257}},{"type":"Feature","geometry":{"type":"Point","coordinates":[142.695,42.216388889]},"properties":{"id":100257389,"name":"元浦川  3.8Kp","name_kana":"","ofc_cd":81,"sys_id":1,"sys_cam_id":"257389","pause":0,"date_type":2,"cam_kind":4,"own_cd":257}}]}