{"type":"FeatureCollection","crs":{"type":"name","properties":{"name":"EPSG:4326"}},"features":[{"type":"Feature","geometry":{"type":"Point","coordinates":[133.756644,35.017141]},"properties":{"id":108449013,"name":"旭川／真庭市向津矢","name_kana":"","ofc_cd":87,"sys_id":1,"sys_cam_id":"8449013","pause":0,"date_type":1,"cam_kind":4,"own_cd":8449}},{"type":"Feature","geometry":{"type":"Point","coordinates":[133.75308,35.074071]},"properties":{"id":108449014,"name":"旭川／真庭市中島（いずみ橋）","name_kana":"","ofc_cd":87,"sys_id":1,"sys_cam_id":"8449014","pause":0,"date_type":1,"cam_kind":4,"own_cd":8449}},{"type":"Feature","geometry":{"type":"Point","coordinates":[133.732838,35.206301]},"properties":{"id":108449015,"name":"旭川／真庭市湯原温泉（湯原ダム）","name_kana":"","ofc_cd":87,"sys_id":1,"sys_cam_id":"8449015","pause":0,"date_type":1,"cam_kind":4,"own_cd":8449}},{"type":"Feature","geometry":{"type":"Point","coordinates":[133.70781,35.081722]},"properties":{"id":108449052,"name":"旭川／真庭市草加部（大上橋）","name_kana":"","ofc_cd":87,"sys_id":1,"sys_cam_id":"8449052","pause":0,"date_type":1,"cam_kind":4,"own_cd":8449}},{"type":"Feature","geometry":{"type":"Point","coordinates":[133.729806,35.174778]},"properties":{"id":108449053,"name":"旭川／真庭市久見（加佐見橋）","name_kana":"","ofc_cd":87,"sys_id":1,"sys_cam_id":"8449053","pause":0,"date_type":1,"cam_kind":4,"own_cd":8449}},{"type":"Feature","geometry":{"type":"Point","coordinates":[133.702611,35.2875]},"properties":{"id":108449054,"name":"旭川／真庭市蒜山上長田（龍頭橋）","name_kana":"","ofc_cd":87,"sys_id":1,"sys_cam_id":"8449054","pause":0,"date_type":1,"cam_kind":4,"own_cd":8449}},{"type":"Feature","geometry":{"type":"Point","coordinates":[133.645694,34.966222]},"properties":{"id":108449055,"name":"備中川／真庭市上水田（上水田橋）","name_kana":"","ofc_cd":87,"sys_id":1,"sys_cam_id":"8449055","pause":0,"date_type":1,"cam_kind":4,"own_cd":8449}},{"type":"Feature","geometry":{"type":"Point","coordinates":[133.73541,35.004034]},"properties":{"id":108449072,"name":"備中川／真庭市下方（紙屋橋）","name_kana":"","ofc_cd":87,"sys_id":1,"sys_cam_id":"8449072","pause":0,"date_type":1,"cam_kind":4,"own_cd":8449}}]}