{"type":"FeatureCollection","crs":{"type":"name","properties":{"name":"EPSG:4326"}},"features":[{"type":"Feature","geometry":{"type":"Point","coordinates":[140.2922259,35.4229631]},"properties":{"id":103073019,"name":"早野","name_kana":"","ofc_cd":83,"sys_id":1,"sys_cam_id":"3073019","pause":0,"date_type":2,"cam_kind":4,"own_cd":3073}},{"type":"Feature","geometry":{"type":"Point","coordinates":[140.27242,35.42122]},"properties":{"id":103073037,"name":"第2調節池(外)","name_kana":"","ofc_cd":83,"sys_id":1,"sys_cam_id":"3073037","pause":0,"date_type":2,"cam_kind":4,"own_cd":3073}},{"type":"Feature","geometry":{"type":"Point","coordinates":[140.312264413,35.489666666]},"properties":{"id":103073067,"name":"法目","name_kana":"","ofc_cd":83,"sys_id":1,"sys_cam_id":"3073067","pause":0,"date_type":2,"cam_kind":4,"own_cd":3073}},{"type":"Feature","geometry":{"type":"Point","coordinates":[140.303942,35.396324]},"properties":{"id":103073068,"name":"三ケ谷","name_kana":"","ofc_cd":83,"sys_id":1,"sys_cam_id":"3073068","pause":0,"date_type":2,"cam_kind":4,"own_cd":3073}},{"type":"Feature","geometry":{"type":"Point","coordinates":[140.288507,35.427979]},"properties":{"id":103073069,"name":"昌平橋","name_kana":"","ofc_cd":83,"sys_id":1,"sys_cam_id":"3073069","pause":0,"date_type":2,"cam_kind":4,"own_cd":3073}},{"type":"Feature","geometry":{"type":"Point","coordinates":[140.28063,35.438373]},"properties":{"id":103073070,"name":"備橋","name_kana":"","ofc_cd":83,"sys_id":1,"sys_cam_id":"3073070","pause":0,"date_type":2,"cam_kind":4,"own_cd":3073}},{"type":"Feature","geometry":{"type":"Point","coordinates":[140.297945059,35.452783856]},"properties":{"id":103073071,"name":"豊田橋","name_kana":"","ofc_cd":83,"sys_id":1,"sys_cam_id":"3073071","pause":0,"date_type":2,"cam_kind":4,"own_cd":3073}},{"type":"Feature","geometry":{"type":"Point","coordinates":[140.30557866,35.450173149]},"properties":{"id":103073072,"name":"阿久川調節池（外）","name_kana":"","ofc_cd":83,"sys_id":1,"sys_cam_id":"3073072","pause":0,"date_type":2,"cam_kind":4,"own_cd":3073}},{"type":"Feature","geometry":{"type":"Point","coordinates":[140.310712008,35.420564067]},"properties":{"id":103073073,"name":"落合橋","name_kana":"","ofc_cd":83,"sys_id":1,"sys_cam_id":"3073073","pause":0,"date_type":2,"cam_kind":4,"own_cd":3073}},{"type":"Feature","geometry":{"type":"Point","coordinates":[140.307921,35.415681]},"properties":{"id":103073074,"name":"旭橋","name_kana":"","ofc_cd":83,"sys_id":1,"sys_cam_id":"3073074","pause":0,"date_type":2,"cam_kind":4,"own_cd":3073}},{"type":"Feature","geometry":{"type":"Point","coordinates":[140.318623026,35.396998712]},"properties":{"id":103073075,"name":"第１調節池（外）","name_kana":"","ofc_cd":83,"sys_id":1,"sys_cam_id":"3073075","pause":0,"date_type":2,"cam_kind":4,"own_cd":3073}},{"type":"Feature","geometry":{"type":"Point","coordinates":[140.299989,35.421582]},"properties":{"id":103073088,"name":"明光橋","name_kana":"","ofc_cd":83,"sys_id":1,"sys_cam_id":"3073088","pause":0,"date_type":2,"cam_kind":4,"own_cd":3073}}]}