{"type":"FeatureCollection","crs":{"type":"name","properties":{"name":"EPSG:4326"}},"features":[{"type":"Feature","geometry":{"type":"Point","coordinates":[141.9991694,43.5729833]},"properties":{"id":120736208,"name":"空知川KP12.0右岸上流カメラ","name_kana":"そらちがわKP12.0うがんじょうりゅうかめら","ofc_cd":81,"sys_id":1,"sys_cam_id":"20736208","pause":0,"date_type":2,"cam_kind":4,"own_cd":20737}},{"type":"Feature","geometry":{"type":"Point","coordinates":[141.9983833,43.5732638]},"properties":{"id":120736209,"name":"空知川KP12.0右岸下流カメラ","name_kana":"そらちがわKP12.0うがんかりゅうかめら","ofc_cd":81,"sys_id":1,"sys_cam_id":"20736209","pause":0,"date_type":2,"cam_kind":4,"own_cd":20737}},{"type":"Feature","geometry":{"type":"Point","coordinates":[142.0413777,43.5672277]},"properties":{"id":120736210,"name":"空知川KP16.0右岸カメラ","name_kana":"そらちがわKP16.0うがんかめら","ofc_cd":81,"sys_id":1,"sys_cam_id":"20736210","pause":0,"date_type":2,"cam_kind":4,"own_cd":20737}},{"type":"Feature","geometry":{"type":"Point","coordinates":[142.0601777,43.5535055]},"properties":{"id":120736211,"name":"空知川KP19.0右岸カメラ","name_kana":"そらちがわKP19.0うがんかめら","ofc_cd":81,"sys_id":1,"sys_cam_id":"20736211","pause":0,"date_type":2,"cam_kind":4,"own_cd":20737}},{"type":"Feature","geometry":{"type":"Point","coordinates":[142.0743166,43.5400166]},"properties":{"id":120736212,"name":"空知川KP22.5左岸上流カメラ","name_kana":"そらちがわKP22.5さがんじょうりゅうかめら","ofc_cd":81,"sys_id":1,"sys_cam_id":"20736212","pause":0,"date_type":2,"cam_kind":4,"own_cd":20737}},{"type":"Feature","geometry":{"type":"Point","coordinates":[142.0732666,43.5399694]},"properties":{"id":120736213,"name":"空知川KP22.5左岸下流カメラ","name_kana":"そらちがわKP22.5さがんかりゅうかめら","ofc_cd":81,"sys_id":1,"sys_cam_id":"20736213","pause":0,"date_type":2,"cam_kind":4,"own_cd":20737}},{"type":"Feature","geometry":{"type":"Point","coordinates":[142.0857916,43.5412527]},"properties":{"id":120736214,"name":"空知川KP23.75左岸上流カメラ","name_kana":"そらちがわKP23.75さがんじょうりゅうかめら","ofc_cd":81,"sys_id":1,"sys_cam_id":"20736214","pause":0,"date_type":2,"cam_kind":4,"own_cd":20737}},{"type":"Feature","geometry":{"type":"Point","coordinates":[142.0847666,43.5411222]},"properties":{"id":120736215,"name":"空知川KP23.75左岸下流カメラ","name_kana":"そらちがわKP23.75さがんかりゅうかめら","ofc_cd":81,"sys_id":1,"sys_cam_id":"20736215","pause":0,"date_type":2,"cam_kind":4,"own_cd":20737}},{"type":"Feature","geometry":{"type":"Point","coordinates":[142.1154277,43.5444472]},"properties":{"id":120736216,"name":"空知川KP26.5左岸上流カメラ","name_kana":"そらちがわKP26.5さがんじょうりゅうかめら","ofc_cd":81,"sys_id":1,"sys_cam_id":"20736216","pause":0,"date_type":2,"cam_kind":4,"own_cd":20737}},{"type":"Feature","geometry":{"type":"Point","coordinates":[142.1142416,43.5446611]},"properties":{"id":120736217,"name":"空知川KP26.5左岸下流カメラ","name_kana":"そらちがわKP26.5さがんかりゅうかめら","ofc_cd":81,"sys_id":1,"sys_cam_id":"20736217","pause":0,"date_type":2,"cam_kind":4,"own_cd":20737}},{"type":"Feature","geometry":{"type":"Point","coordinates":[142.043625,43.5606528]},"properties":{"id":220737046,"name":"空知川　17.4kp　赤平排水機場　外水位","name_kana":"そらちがわ　17.4kp　あかびらはいすいきじょう　がいすいい","ofc_cd":81,"sys_id":2,"sys_cam_id":"20737046","pause":0,"date_type":0,"cam_kind":2,"own_cd":20737}},{"type":"Feature","geometry":{"type":"Point","coordinates":[142.0464722,43.5608889]},"properties":{"id":220737233,"name":"空知川　17.6kp　赤平水防拠点","name_kana":"そらちがわ　17.6kp　あかびらすいぼうきょてん","ofc_cd":81,"sys_id":2,"sys_cam_id":"20737233","pause":0,"date_type":0,"cam_kind":2,"own_cd":20737}},{"type":"Feature","geometry":{"type":"Point","coordinates":[142.0460833,43.5596944]},"properties":{"id":220737235,"name":"空知川　17.5kp　泉町樋門","name_kana":"そらちがわ　17.5kp　いずみまちひもん","ofc_cd":81,"sys_id":2,"sys_cam_id":"20737235","pause":0,"date_type":0,"cam_kind":2,"own_cd":20737}},{"type":"Feature","geometry":{"type":"Point","coordinates":[142.0401667,43.5640833]},"properties":{"id":220737236,"name":"空知川　16.3kp　豊橋上流樋門","name_kana":"そらちがわ　16.3kp　とよはしじょうりゅうひもん","ofc_cd":81,"sys_id":2,"sys_cam_id":"20737236","pause":0,"date_type":0,"cam_kind":2,"own_cd":20737}}]}