{"type":"FeatureCollection","crs":{"type":"name","properties":{"name":"EPSG:4326"}},"features":[{"type":"Feature","geometry":{"type":"Point","coordinates":[140.849722222,42.489722222]},"properties":{"id":100257352,"name":"長流川  2.5Kp","name_kana":"","ofc_cd":81,"sys_id":1,"sys_cam_id":"257352","pause":0,"date_type":2,"cam_kind":4,"own_cd":257}},{"type":"Feature","geometry":{"type":"Point","coordinates":[140.859727778,42.474166667]},"properties":{"id":100257353,"name":"気門別川  0.9Kp","name_kana":"","ofc_cd":81,"sys_id":1,"sys_cam_id":"257353","pause":0,"date_type":2,"cam_kind":4,"own_cd":257}},{"type":"Feature","geometry":{"type":"Point","coordinates":[141.034448889,42.633611111]},"properties":{"id":100257354,"name":"長流川  30.8Kp","name_kana":"","ofc_cd":81,"sys_id":1,"sys_cam_id":"257354","pause":0,"date_type":2,"cam_kind":4,"own_cd":257}},{"type":"Feature","geometry":{"type":"Point","coordinates":[140.909844444,42.39635]},"properties":{"id":100257363,"name":"気仙川  0.4Kp","name_kana":"","ofc_cd":81,"sys_id":1,"sys_cam_id":"257363","pause":0,"date_type":2,"cam_kind":4,"own_cd":257}},{"type":"Feature","geometry":{"type":"Point","coordinates":[140.884166667,42.481666667]},"properties":{"id":100257373,"name":"シャミチセ川  2.5Kp","name_kana":"","ofc_cd":81,"sys_id":1,"sys_cam_id":"257373","pause":0,"date_type":2,"cam_kind":4,"own_cd":257}},{"type":"Feature","geometry":{"type":"Point","coordinates":[141.022313889,42.624555556]},"properties":{"id":100257380,"name":"カバユサンナイ川  0.4Kp","name_kana":"","ofc_cd":81,"sys_id":1,"sys_cam_id":"257380","pause":0,"date_type":2,"cam_kind":4,"own_cd":257}}]}