{"type":"FeatureCollection","crs":{"type":"name","properties":{"name":"EPSG:4326"}},"features":[{"type":"Feature","geometry":{"type":"Point","coordinates":[137.2841627,35.3997982]},"properties":{"id":105377031,"name":"白狐橋","name_kana":"","ofc_cd":85,"sys_id":1,"sys_cam_id":"5377031","pause":0,"date_type":1,"cam_kind":4,"own_cd":5377}},{"type":"Feature","geometry":{"type":"Point","coordinates":[137.2855002,35.3999726]},"properties":{"id":105377065,"name":"土岐川釜戸町公文垣内","name_kana":"","ofc_cd":85,"sys_id":1,"sys_cam_id":"5377065","pause":0,"date_type":1,"cam_kind":4,"own_cd":5377}},{"type":"Feature","geometry":{"type":"Point","coordinates":[137.2300286,35.3616113]},"properties":{"id":105377066,"name":"土岐川西小田","name_kana":"","ofc_cd":85,"sys_id":1,"sys_cam_id":"5377066","pause":0,"date_type":1,"cam_kind":4,"own_cd":5377}},{"type":"Feature","geometry":{"type":"Point","coordinates":[137.2604028,35.3671833]},"properties":{"id":221794001,"name":"土岐川合流点","name_kana":"ときがわごうりゅうてん","ofc_cd":85,"sys_id":2,"sys_cam_id":"21794001","pause":0,"date_type":0,"cam_kind":2,"own_cd":21794}},{"type":"Feature","geometry":{"type":"Point","coordinates":[137.2666806,35.3609194]},"properties":{"id":221794002,"name":"井口","name_kana":"いぐち","ofc_cd":85,"sys_id":2,"sys_cam_id":"21794002","pause":0,"date_type":0,"cam_kind":2,"own_cd":21794}},{"type":"Feature","geometry":{"type":"Point","coordinates":[137.2925917,35.32635]},"properties":{"id":221794003,"name":"馬道ヶ峰","name_kana":"ばどうがみね","ofc_cd":85,"sys_id":2,"sys_cam_id":"21794003","pause":0,"date_type":0,"cam_kind":2,"own_cd":21794}},{"type":"Feature","geometry":{"type":"Point","coordinates":[137.3003528,35.3289694]},"properties":{"id":221794004,"name":"下流右岸","name_kana":"かりゅううがん","ofc_cd":85,"sys_id":2,"sys_cam_id":"21794004","pause":0,"date_type":0,"cam_kind":2,"own_cd":21794}}]}