{"type":"FeatureCollection","crs":{"type":"name","properties":{"name":"EPSG:4326"}},"features":[{"type":"Feature","geometry":{"type":"Point","coordinates":[130.2347416,33.2713166]},"properties":{"id":122865032,"name":"祇園川1k600R深町水位観測所","name_kana":"","ofc_cd":89,"sys_id":1,"sys_cam_id":"22865032","pause":0,"date_type":2,"cam_kind":4,"own_cd":22865}},{"type":"Feature","geometry":{"type":"Point","coordinates":[130.180791,33.257575]},"properties":{"id":122865034,"name":"牛津川9k500左岸","name_kana":"","ofc_cd":89,"sys_id":1,"sys_cam_id":"22865034","pause":0,"date_type":2,"cam_kind":4,"own_cd":22865}},{"type":"Feature","geometry":{"type":"Point","coordinates":[130.1661111,33.2766639]},"properties":{"id":222819025,"name":"船津","name_kana":"","ofc_cd":89,"sys_id":2,"sys_cam_id":"22865034","pause":0,"date_type":0,"cam_kind":2,"own_cd":22865}},{"type":"Feature","geometry":{"type":"Point","coordinates":[130.1905556,33.2461111]},"properties":{"id":222819028,"name":"牛津出張所屋上","name_kana":"","ofc_cd":89,"sys_id":2,"sys_cam_id":"22865037","pause":0,"date_type":0,"cam_kind":2,"own_cd":22865}},{"type":"Feature","geometry":{"type":"Point","coordinates":[130.1949972,33.2463861]},"properties":{"id":222819029,"name":"牛津江排水機場屋上","name_kana":"","ofc_cd":89,"sys_id":2,"sys_cam_id":"22865038","pause":0,"date_type":0,"cam_kind":2,"own_cd":22865}},{"type":"Feature","geometry":{"type":"Point","coordinates":[130.1949972,33.2463861]},"properties":{"id":222819030,"name":"牛津江（排）水門対岸","name_kana":"","ofc_cd":89,"sys_id":2,"sys_cam_id":"22865039","pause":0,"date_type":0,"cam_kind":2,"own_cd":22865}},{"type":"Feature","geometry":{"type":"Point","coordinates":[130.1858333,33.2288889]},"properties":{"id":222819032,"name":"水管橋","name_kana":"","ofc_cd":89,"sys_id":2,"sys_cam_id":"22865041","pause":0,"date_type":0,"cam_kind":2,"own_cd":22865}},{"type":"Feature","geometry":{"type":"Point","coordinates":[130.1886111,33.2352778]},"properties":{"id":222819033,"name":"満神","name_kana":"","ofc_cd":89,"sys_id":2,"sys_cam_id":"22865042","pause":0,"date_type":0,"cam_kind":2,"own_cd":22865}},{"type":"Feature","geometry":{"type":"Point","coordinates":[130.1905556,33.2361111]},"properties":{"id":222819034,"name":"虎坊","name_kana":"","ofc_cd":89,"sys_id":2,"sys_cam_id":"22865043","pause":0,"date_type":0,"cam_kind":2,"own_cd":22865}},{"type":"Feature","geometry":{"type":"Point","coordinates":[130.1963889,33.2416667]},"properties":{"id":222819035,"name":"友田","name_kana":"","ofc_cd":89,"sys_id":2,"sys_cam_id":"22865044","pause":0,"date_type":0,"cam_kind":2,"own_cd":22865}},{"type":"Feature","geometry":{"type":"Point","coordinates":[130.1955556,33.2233333]},"properties":{"id":222819040,"name":"三条川","name_kana":"","ofc_cd":89,"sys_id":2,"sys_cam_id":"22865049","pause":0,"date_type":0,"cam_kind":2,"own_cd":22865}},{"type":"Feature","geometry":{"type":"Point","coordinates":[130.1958306,33.2225]},"properties":{"id":222819042,"name":"三条（排）排水樋管","name_kana":"","ofc_cd":89,"sys_id":2,"sys_cam_id":"22865051","pause":0,"date_type":0,"cam_kind":2,"own_cd":22865}},{"type":"Feature","geometry":{"type":"Point","coordinates":[130.2016639,33.2055556]},"properties":{"id":222819043,"name":"弁財（排）空間監視","name_kana":"","ofc_cd":89,"sys_id":2,"sys_cam_id":"22865052","pause":0,"date_type":0,"cam_kind":2,"own_cd":22865}},{"type":"Feature","geometry":{"type":"Point","coordinates":[130.1972222,33.2002778]},"properties":{"id":222819061,"name":"住ノ江","name_kana":"","ofc_cd":89,"sys_id":2,"sys_cam_id":"22865070","pause":0,"date_type":0,"cam_kind":2,"own_cd":22865}},{"type":"Feature","geometry":{"type":"Point","coordinates":[130.19094444,33.23136111]},"properties":{"id":222819067,"name":"川越","name_kana":"","ofc_cd":89,"sys_id":2,"sys_cam_id":"22865075","pause":0,"date_type":0,"cam_kind":2,"own_cd":22865}},{"type":"Feature","geometry":{"type":"Point","coordinates":[130.203388888,33.303666666]},"properties":{"id":310497013,"name":"祇園","name_kana":"","ofc_cd":41,"sys_id":3,"sys_cam_id":"41010058","pause":0,"date_type":1,"cam_kind":2,"own_cd":10497}},{"type":"Feature","geometry":{"type":"Point","coordinates":[130.2,33.248333333]},"properties":{"id":310497015,"name":"牛津江","name_kana":"","ofc_cd":41,"sys_id":3,"sys_cam_id":"41010066","pause":0,"date_type":1,"cam_kind":2,"own_cd":10497}},{"type":"Feature","geometry":{"type":"Point","coordinates":[130.186944444,33.275]},"properties":{"id":310497016,"name":"船田橋","name_kana":"","ofc_cd":41,"sys_id":3,"sys_cam_id":"41010070","pause":0,"date_type":1,"cam_kind":2,"own_cd":10497}}]}