{"type":"FeatureCollection","crs":{"type":"name","properties":{"name":"EPSG:4326"}},"features":[{"type":"Feature","geometry":{"type":"Point","coordinates":[140.0070442,38.7147151]},"properties":{"id":101537059,"name":"立谷沢川（木ノ沢橋付近）","name_kana":"","ofc_cd":82,"sys_id":1,"sys_cam_id":"1537059","pause":0,"date_type":2,"cam_kind":4,"own_cd":1537}},{"type":"Feature","geometry":{"type":"Point","coordinates":[139.8688216,38.8274391]},"properties":{"id":101537062,"name":"京田川（落合橋上流付近）","name_kana":"","ofc_cd":82,"sys_id":1,"sys_cam_id":"1537062","pause":0,"date_type":2,"cam_kind":4,"own_cd":1537}},{"type":"Feature","geometry":{"type":"Point","coordinates":[139.934748,38.870511]},"properties":{"id":121055242,"name":"千河原（最上川 13.2k 左岸)","name_kana":"ちがわら","ofc_cd":82,"sys_id":1,"sys_cam_id":"21055242","pause":0,"date_type":2,"cam_kind":4,"own_cd":21055}},{"type":"Feature","geometry":{"type":"Point","coordinates":[139.940282,38.86504]},"properties":{"id":121055243,"name":"槇島（最上川 14.2k 左岸)","name_kana":"まぎしま","ofc_cd":82,"sys_id":1,"sys_cam_id":"21055243","pause":0,"date_type":2,"cam_kind":4,"own_cd":21055}},{"type":"Feature","geometry":{"type":"Point","coordinates":[139.962909,38.822311]},"properties":{"id":121055248,"name":"古関（最上川 19.4k 左岸)","name_kana":"ふるせき","ofc_cd":82,"sys_id":1,"sys_cam_id":"21055248","pause":0,"date_type":2,"cam_kind":4,"own_cd":21055}},{"type":"Feature","geometry":{"type":"Point","coordinates":[139.986769,38.808767]},"properties":{"id":121055249,"name":"狩川（最上川 21.8k 左岸)","name_kana":"かりかわ","ofc_cd":82,"sys_id":1,"sys_cam_id":"21055249","pause":0,"date_type":2,"cam_kind":4,"own_cd":21055}},{"type":"Feature","geometry":{"type":"Point","coordinates":[140.024624,38.78964]},"properties":{"id":121055252,"name":"清川（最上川 26.8k 左岸)","name_kana":"きよかわ","ofc_cd":82,"sys_id":1,"sys_cam_id":"21055252","pause":0,"date_type":2,"cam_kind":4,"own_cd":21055}},{"type":"Feature","geometry":{"type":"Point","coordinates":[140.033056,38.624729]},"properties":{"id":221054021,"name":"潜岩第２砂防堰堤　左岸","name_kana":"","ofc_cd":82,"sys_id":2,"sys_cam_id":"21054011","pause":0,"date_type":0,"cam_kind":2,"own_cd":21054}},{"type":"Feature","geometry":{"type":"Point","coordinates":[140.003625,38.634188]},"properties":{"id":221054045,"name":"玉川第７砂防堰堤","name_kana":"","ofc_cd":82,"sys_id":2,"sys_cam_id":"21054045","pause":0,"date_type":0,"cam_kind":2,"own_cd":21054}},{"type":"Feature","geometry":{"type":"Point","coordinates":[140.04586,38.622243]},"properties":{"id":221054046,"name":"本沢赤沢合流点","name_kana":"","ofc_cd":82,"sys_id":2,"sys_cam_id":"21054046","pause":0,"date_type":0,"cam_kind":2,"own_cd":21054}},{"type":"Feature","geometry":{"type":"Point","coordinates":[140.005578,38.648081]},"properties":{"id":221054047,"name":"瀬場","name_kana":"","ofc_cd":82,"sys_id":2,"sys_cam_id":"21054047","pause":0,"date_type":0,"cam_kind":2,"own_cd":21054}},{"type":"Feature","geometry":{"type":"Point","coordinates":[140.012222,38.735556]},"properties":{"id":221054048,"name":"板敷","name_kana":"","ofc_cd":82,"sys_id":2,"sys_cam_id":"21054048","pause":0,"date_type":0,"cam_kind":2,"own_cd":21054}},{"type":"Feature","geometry":{"type":"Point","coordinates":[140.04752,38.614738]},"properties":{"id":221054049,"name":"濁沢第１砂防堰堤","name_kana":"","ofc_cd":82,"sys_id":2,"sys_cam_id":"21054049","pause":0,"date_type":0,"cam_kind":2,"own_cd":21054}},{"type":"Feature","geometry":{"type":"Point","coordinates":[140.048631,38.606133]},"properties":{"id":221054050,"name":"濁沢第４砂防堰堤","name_kana":"","ofc_cd":82,"sys_id":2,"sys_cam_id":"21054050","pause":0,"date_type":0,"cam_kind":2,"own_cd":21054}},{"type":"Feature","geometry":{"type":"Point","coordinates":[140.008358,38.713894]},"properties":{"id":221054051,"name":"木の沢","name_kana":"","ofc_cd":82,"sys_id":2,"sys_cam_id":"21054051","pause":0,"date_type":0,"cam_kind":2,"own_cd":21054}},{"type":"Feature","geometry":{"type":"Point","coordinates":[139.999731,38.666965]},"properties":{"id":221054052,"name":"新田橋","name_kana":"","ofc_cd":82,"sys_id":2,"sys_cam_id":"21054052","pause":0,"date_type":0,"cam_kind":2,"own_cd":21054}},{"type":"Feature","geometry":{"type":"Point","coordinates":[140.064451,38.758359]},"properties":{"id":221055001,"name":"高屋","name_kana":"","ofc_cd":82,"sys_id":2,"sys_cam_id":"21055019","pause":0,"date_type":0,"cam_kind":2,"own_cd":21055}},{"type":"Feature","geometry":{"type":"Point","coordinates":[140.026519,38.784171]},"properties":{"id":221055002,"name":"立谷沢川合流点","name_kana":"","ofc_cd":82,"sys_id":2,"sys_cam_id":"21055018","pause":0,"date_type":0,"cam_kind":2,"own_cd":21055}},{"type":"Feature","geometry":{"type":"Point","coordinates":[139.997786,38.79057]},"properties":{"id":221055003,"name":"東興野","name_kana":"","ofc_cd":82,"sys_id":2,"sys_cam_id":"21055012","pause":0,"date_type":0,"cam_kind":2,"own_cd":21055}}]}