{"type":"FeatureCollection","crs":{"type":"name","properties":{"name":"EPSG:4326"}},"features":[{"type":"Feature","geometry":{"type":"Point","coordinates":[143.236491667,42.879558333]},"properties":{"id":100257529,"name":"途別川  5.1Kp","name_kana":"","ofc_cd":81,"sys_id":1,"sys_cam_id":"257529","pause":0,"date_type":2,"cam_kind":4,"own_cd":257}},{"type":"Feature","geometry":{"type":"Point","coordinates":[143.266966667,42.920594444]},"properties":{"id":100257553,"name":"千住川  2.8Kp","name_kana":"","ofc_cd":81,"sys_id":1,"sys_cam_id":"257553","pause":0,"date_type":2,"cam_kind":4,"own_cd":257}},{"type":"Feature","geometry":{"type":"Point","coordinates":[143.327126667,42.783144444]},"properties":{"id":100257556,"name":"糠内川  0.6Kp","name_kana":"","ofc_cd":81,"sys_id":1,"sys_cam_id":"257556","pause":0,"date_type":2,"cam_kind":4,"own_cd":257}},{"type":"Feature","geometry":{"type":"Point","coordinates":[143.279894444,42.925955556]},"properties":{"id":100257564,"name":"メン川  5.8Kp","name_kana":"","ofc_cd":81,"sys_id":1,"sys_cam_id":"257564","pause":0,"date_type":2,"cam_kind":4,"own_cd":257}},{"type":"Feature","geometry":{"type":"Point","coordinates":[143.255419444,42.905822222]},"properties":{"id":100257571,"name":"途別川  1.3Kp","name_kana":"","ofc_cd":81,"sys_id":1,"sys_cam_id":"257571","pause":0,"date_type":2,"cam_kind":4,"own_cd":257}},{"type":"Feature","geometry":{"type":"Point","coordinates":[143.241873889,42.813030556]},"properties":{"id":100257573,"name":"古舞川  4.0Kp","name_kana":"","ofc_cd":81,"sys_id":1,"sys_cam_id":"257573","pause":0,"date_type":2,"cam_kind":4,"own_cd":257}},{"type":"Feature","geometry":{"type":"Point","coordinates":[143.4221833,42.89615]},"properties":{"id":120736312,"name":"十勝川KP33.2右岸カメラ","name_kana":"とかちがわKP33.2うがんかめら","ofc_cd":81,"sys_id":1,"sys_cam_id":"20736312","pause":0,"date_type":2,"cam_kind":4,"own_cd":23357}},{"type":"Feature","geometry":{"type":"Point","coordinates":[143.3798833,42.9237833]},"properties":{"id":120736313,"name":"十勝川KP38.0右岸カメラ","name_kana":"とかちがわKP38.0うがんかめら","ofc_cd":81,"sys_id":1,"sys_cam_id":"20736313","pause":0,"date_type":2,"cam_kind":4,"own_cd":23357}},{"type":"Feature","geometry":{"type":"Point","coordinates":[143.31055,42.92155]},"properties":{"id":120736314,"name":"十勝川KP46.6右岸カメラ","name_kana":"とかちがわKP46.6うがんかめら","ofc_cd":81,"sys_id":1,"sys_cam_id":"20736314","pause":0,"date_type":2,"cam_kind":4,"own_cd":23357}},{"type":"Feature","geometry":{"type":"Point","coordinates":[143.2434333,42.9273333]},"properties":{"id":120736339,"name":"札内川KP2.8右岸カメラ","name_kana":"さつないがわKP2.8うがんかめら","ofc_cd":81,"sys_id":1,"sys_cam_id":"20736339","pause":0,"date_type":2,"cam_kind":4,"own_cd":23357}},{"type":"Feature","geometry":{"type":"Point","coordinates":[143.27465,42.9105167]},"properties":{"id":120736356,"name":"途別川KP3.2左岸カメラ","name_kana":"とべつがわKP3.2さがんかめら","ofc_cd":81,"sys_id":1,"sys_cam_id":"20736356","pause":0,"date_type":2,"cam_kind":4,"own_cd":23357}},{"type":"Feature","geometry":{"type":"Point","coordinates":[143.300857792,42.922362278]},"properties":{"id":123357003,"name":"十勝川KP47.4右岸カメラ","name_kana":"とかちがわKP47.4うがんかめら","ofc_cd":81,"sys_id":1,"sys_cam_id":"23357003","pause":0,"date_type":2,"cam_kind":4,"own_cd":23357}},{"type":"Feature","geometry":{"type":"Point","coordinates":[143.3429561,42.8998822]},"properties":{"id":123357015,"name":"猿別川KP4.4左岸カメラ","name_kana":"さるべつがわKP4.4さがんかめら","ofc_cd":81,"sys_id":1,"sys_cam_id":"23357015","pause":0,"date_type":2,"cam_kind":4,"own_cd":23357}},{"type":"Feature","geometry":{"type":"Point","coordinates":[143.275152467,42.909785868]},"properties":{"id":123357016,"name":"途別川KP3.2右岸カメラ","name_kana":"とべつがわKP3.2うがんかめら","ofc_cd":81,"sys_id":1,"sys_cam_id":"23357016","pause":0,"date_type":2,"cam_kind":4,"own_cd":23357}},{"type":"Feature","geometry":{"type":"Point","coordinates":[143.3565278,42.9101389]},"properties":{"id":223357009,"name":"猿別川　3.0kp　止若水位観測所","name_kana":"さるべつがわ　3.0kp　やむわっかすいいかんそくしょ","ofc_cd":81,"sys_id":2,"sys_cam_id":"23357009","pause":0,"date_type":0,"cam_kind":3,"own_cd":23357}},{"type":"Feature","geometry":{"type":"Point","coordinates":[143.2819972,42.9133917]},"properties":{"id":223357010,"name":"途別川　2.6kp　千住１２号橋水位観測所","name_kana":"とべつがわ　2.6kp　せんじゅう12ごうばしすいいかんそくしょ","ofc_cd":81,"sys_id":2,"sys_cam_id":"23357010","pause":0,"date_type":0,"cam_kind":3,"own_cd":23357}},{"type":"Feature","geometry":{"type":"Point","coordinates":[143.35197,42.9382211]},"properties":{"id":223357021,"name":"十勝川　４２．２ｋｐ　千代田新水路 合流点(右岸)","name_kana":"とかちがわ　４２．２ｋｐ　ちよだしんすいろ　ごうりゅうてん（うがん）","ofc_cd":81,"sys_id":2,"sys_cam_id":"23357021","pause":0,"date_type":0,"cam_kind":2,"own_cd":23357}},{"type":"Feature","geometry":{"type":"Point","coordinates":[143.3446961,42.939725]},"properties":{"id":223357022,"name":"十勝川　４３．０ｋｐ　千代田新水路 合流点(左岸)","name_kana":"とかちがわ　４３．０ｋｐ　ちよだしんすいろ　ごうりゅうてん（さがん）","ofc_cd":81,"sys_id":2,"sys_cam_id":"23357022","pause":0,"date_type":0,"cam_kind":2,"own_cd":23357}},{"type":"Feature","geometry":{"type":"Point","coordinates":[143.3413889,42.9403889]},"properties":{"id":223357024,"name":"十勝川　４３．２ｋｐ　千代田新水路千代田堰堤下流","name_kana":"とかちがわ　４３．２ｋｐ　ちよだしんすいろちよだえんていかりゅう","ofc_cd":81,"sys_id":2,"sys_cam_id":"23357024","pause":0,"date_type":0,"cam_kind":2,"own_cd":23357}},{"type":"Feature","geometry":{"type":"Point","coordinates":[143.3401669,42.9353331]},"properties":{"id":223357025,"name":"十勝川　４３．４ｋｐ　千代田新水路新水路（右岸）","name_kana":"とかちがわ　４３．４ｋｐ　ちよだしんすいろしんすいろ（うがん）","ofc_cd":81,"sys_id":2,"sys_cam_id":"23357025","pause":0,"date_type":0,"cam_kind":2,"own_cd":23357}},{"type":"Feature","geometry":{"type":"Point","coordinates":[143.33328,42.9366689]},"properties":{"id":223357026,"name":"十勝川　４４．０ｋｐ　千代田新水路新水路（左岸）","name_kana":"とかちがわ　４４．０ｋｐ　ちよだしんすいろしんすいろ（さがん）","ofc_cd":81,"sys_id":2,"sys_cam_id":"23357026","pause":0,"date_type":0,"cam_kind":2,"own_cd":23357}},{"type":"Feature","geometry":{"type":"Point","coordinates":[143.3293889,42.9318331]},"properties":{"id":223357027,"name":"十勝川　４４．７ｋｐ　千代田新水路　分流堰下流","name_kana":"とかちがわ　４４．７ｋｐ　ちよだしんすいろ　ぶんりゅうせきかりゅう","ofc_cd":81,"sys_id":2,"sys_cam_id":"23357027","pause":0,"date_type":0,"cam_kind":2,"own_cd":23357}},{"type":"Feature","geometry":{"type":"Point","coordinates":[143.3262419,42.93328]},"properties":{"id":223357028,"name":"十勝川　４４．８ｋｐ　千代田新水路　背割堤","name_kana":"とかちがわ　４４．８ｋｐ　ちよだしんすいろ　せわりてい","ofc_cd":81,"sys_id":2,"sys_cam_id":"23357028","pause":0,"date_type":0,"cam_kind":2,"own_cd":23357}},{"type":"Feature","geometry":{"type":"Point","coordinates":[143.3291119,42.9293639]},"properties":{"id":223357029,"name":"十勝川　４４．９ｋｐ　千代田新水路　管理棟屋上","name_kana":"とかちがわ　４４．９ｋｐ　ちよだしんすいろ　かんりとうおくじょう","ofc_cd":81,"sys_id":2,"sys_cam_id":"23357029","pause":0,"date_type":0,"cam_kind":2,"own_cd":23357}},{"type":"Feature","geometry":{"type":"Point","coordinates":[143.32525,42.9300281]},"properties":{"id":223357030,"name":"十勝川　４５．１ｋｐ　千代田新水路　分流堰上流","name_kana":"とかちがわ　４５．１ｋｐ　ちよだしんすいろ　ぶんりゅうせきじょうりゅう","ofc_cd":81,"sys_id":2,"sys_cam_id":"23357030","pause":0,"date_type":0,"cam_kind":2,"own_cd":23357}},{"type":"Feature","geometry":{"type":"Point","coordinates":[143.2921939,42.9268661]},"properties":{"id":223357031,"name":"十勝川　４８．１ｋｐ　白人樋門","name_kana":"とかちがわ　４８．１ｋｐ　ちろっとひもん","ofc_cd":81,"sys_id":2,"sys_cam_id":"23357031","pause":0,"date_type":0,"cam_kind":2,"own_cd":23357}},{"type":"Feature","geometry":{"type":"Point","coordinates":[143.2879169,42.9155561]},"properties":{"id":223357055,"name":"途別川　１．２ｋｐ　白鳥橋","name_kana":"とべつがわ　１．２ｋｐ　はくちょうばし","ofc_cd":81,"sys_id":2,"sys_cam_id":"23357055","pause":0,"date_type":0,"cam_kind":2,"own_cd":23357}},{"type":"Feature","geometry":{"type":"Point","coordinates":[143.2877789,42.9152539]},"properties":{"id":223357056,"name":"途別川　２．０ｋｐ　途別第１樋門","name_kana":"とべつがわ　２．０ｋｐ　とべつだい１ひもん","ofc_cd":81,"sys_id":2,"sys_cam_id":"23357056","pause":0,"date_type":0,"cam_kind":2,"own_cd":23357}},{"type":"Feature","geometry":{"type":"Point","coordinates":[143.2774439,42.9115831]},"properties":{"id":223357057,"name":"途別川　２．９ｋｐ　途別第２樋門　樋門","name_kana":"とべつがわ　２．９ｋｐ　とべつだい２ひもん　ひもん","ofc_cd":81,"sys_id":2,"sys_cam_id":"23357057","pause":0,"date_type":0,"cam_kind":2,"own_cd":23357}},{"type":"Feature","geometry":{"type":"Point","coordinates":[143.2698061,42.9083889]},"properties":{"id":223357058,"name":"途別川　３．４ｋｐ　途別第２樋門　上流","name_kana":"とべつがわ　３．４ｋｐ　とべつだい２ひもん　じょうりゅう","ofc_cd":81,"sys_id":2,"sys_cam_id":"23357058","pause":0,"date_type":0,"cam_kind":2,"own_cd":23357}},{"type":"Feature","geometry":{"type":"Point","coordinates":[143.22125,42.8996711]},"properties":{"id":223357065,"name":"札内川　７．０ｋｐ　札内清柳大橋","name_kana":"さつないがわ　７．０ｋｐ　さつないせいりゅうおおはし","ofc_cd":81,"sys_id":2,"sys_cam_id":"23357065","pause":0,"date_type":0,"cam_kind":2,"own_cd":23357}},{"type":"Feature","geometry":{"type":"Point","coordinates":[143.4369444,42.8761111]},"properties":{"id":223357104,"name":"十勝川　３０．７ｋｐ　上統内樋門　樋門","name_kana":"とかちがわ　３０．７ｋｐ　かみとうないひもん　ひもん","ofc_cd":81,"sys_id":2,"sys_cam_id":"23357104","pause":0,"date_type":0,"cam_kind":2,"own_cd":23357}},{"type":"Feature","geometry":{"type":"Point","coordinates":[143.4225556,42.8952778]},"properties":{"id":223357105,"name":"十勝川　３３．１ｋｐ　新川樋門（排水門）","name_kana":"とかちがわ　３３．１ｋｐ　しんかわひもん（はいすいもん）","ofc_cd":81,"sys_id":2,"sys_cam_id":"23357105","pause":0,"date_type":0,"cam_kind":2,"own_cd":23357}},{"type":"Feature","geometry":{"type":"Point","coordinates":[143.3929167,42.9158056]},"properties":{"id":223357106,"name":"十勝川　３６．６ｋｐ　明野樋門（排水門）　樋門","name_kana":"とかちがわ　３６．６ｋｐ　あけのひもん（はいすいもん）　ひもん","ofc_cd":81,"sys_id":2,"sys_cam_id":"23357106","pause":0,"date_type":0,"cam_kind":2,"own_cd":23357}},{"type":"Feature","geometry":{"type":"Point","coordinates":[143.3849444,42.9191111]},"properties":{"id":223357107,"name":"十勝川　３７．６ｋｐ　千代田大橋","name_kana":"とかちがわ　３７．６ｋｐ　ちよだおおはし","ofc_cd":81,"sys_id":2,"sys_cam_id":"23357107","pause":0,"date_type":0,"cam_kind":2,"own_cd":23357}},{"type":"Feature","geometry":{"type":"Point","coordinates":[143.3774444,42.9255556]},"properties":{"id":223357130,"name":"猿別川　０．３ｋｐ　武山樋門（排水門）","name_kana":"さるべつがわ　０．３ｋｐ　たけやまひもん（はいすいもん）","ofc_cd":81,"sys_id":2,"sys_cam_id":"23357130","pause":0,"date_type":0,"cam_kind":2,"own_cd":23357}},{"type":"Feature","geometry":{"type":"Point","coordinates":[143.3686944,42.92675]},"properties":{"id":223357131,"name":"猿別川　０．９ｋｐ　相川樋門（排水門）","name_kana":"さるべつがわ　０．９ｋｐ　あいかわひもん（はいすいもん）","ofc_cd":81,"sys_id":2,"sys_cam_id":"23357131","pause":0,"date_type":0,"cam_kind":2,"own_cd":23357}},{"type":"Feature","geometry":{"type":"Point","coordinates":[143.3438056,42.9014167]},"properties":{"id":223357132,"name":"猿別川　４．４ｋｐ　猿別水門","name_kana":"さるべつがわ　４．４ｋｐ　さるべつすいもん","ofc_cd":81,"sys_id":2,"sys_cam_id":"23357132","pause":0,"date_type":0,"cam_kind":2,"own_cd":23357}},{"type":"Feature","geometry":{"type":"Point","coordinates":[143.3438056,42.9014167]},"properties":{"id":223357133,"name":"猿別川　４．４ｋｐ　猿別水門　水門","name_kana":"さるべつがわ　４．４ｋｐ　さるべつすいもん　すいもん","ofc_cd":81,"sys_id":2,"sys_cam_id":"23357133","pause":0,"date_type":0,"cam_kind":2,"own_cd":23357}}]}