{"type":"FeatureCollection","crs":{"type":"name","properties":{"name":"EPSG:4326"}},"features":[{"type":"Feature","geometry":{"type":"Point","coordinates":[140.362472222,36.791861111]},"properties":{"id":102049003,"name":"矢田工業団地","name_kana":"やだこうぎょうだんち","ofc_cd":83,"sys_id":1,"sys_cam_id":"2049003","pause":0,"date_type":1,"cam_kind":4,"own_cd":2049}},{"type":"Feature","geometry":{"type":"Point","coordinates":[140.310194444,36.809472222]},"properties":{"id":102049015,"name":"皆沢橋","name_kana":"みなさわはし","ofc_cd":83,"sys_id":1,"sys_cam_id":"2049015","pause":0,"date_type":1,"cam_kind":4,"own_cd":2049}},{"type":"Feature","geometry":{"type":"Point","coordinates":[140.382777777,36.744166666]},"properties":{"id":302049004,"name":"下津原橋","name_kana":"しもつばらはし","ofc_cd":8,"sys_id":3,"sys_cam_id":"2049004","pause":0,"date_type":1,"cam_kind":2,"own_cd":2049}},{"type":"Feature","geometry":{"type":"Point","coordinates":[140.3575,36.761944444]},"properties":{"id":302049005,"name":"久慈川橋","name_kana":"くじがわはし","ofc_cd":8,"sys_id":3,"sys_cam_id":"2049005","pause":0,"date_type":1,"cam_kind":2,"own_cd":2049}},{"type":"Feature","geometry":{"type":"Point","coordinates":[140.381666666,36.815833333]},"properties":{"id":302049007,"name":"下野宮","name_kana":"しものみや","ofc_cd":8,"sys_id":3,"sys_cam_id":"2049007","pause":0,"date_type":1,"cam_kind":2,"own_cd":2049}},{"type":"Feature","geometry":{"type":"Point","coordinates":[140.330277777,36.776111111]},"properties":{"id":302049021,"name":"上岡","name_kana":"うわおか","ofc_cd":8,"sys_id":3,"sys_cam_id":"2049021","pause":0,"date_type":1,"cam_kind":2,"own_cd":2049}}]}