{"type":"FeatureCollection","crs":{"type":"name","properties":{"name":"EPSG:4326"}},"features":[{"type":"Feature","geometry":{"type":"Point","coordinates":[141.913512778,43.488094444]},"properties":{"id":100257025,"name":"パンケ歌志内川  1.2Kp","name_kana":"","ofc_cd":81,"sys_id":1,"sys_cam_id":"257025","pause":0,"date_type":2,"cam_kind":4,"own_cd":257}},{"type":"Feature","geometry":{"type":"Point","coordinates":[141.904328889,43.471577778]},"properties":{"id":100257026,"name":"奈江豊平川  1.0Kp","name_kana":"","ofc_cd":81,"sys_id":1,"sys_cam_id":"257026","pause":0,"date_type":2,"cam_kind":4,"own_cd":257}},{"type":"Feature","geometry":{"type":"Point","coordinates":[141.926823889,43.504336111]},"properties":{"id":100257047,"name":"ペンケ歌志内川  2.4Kp","name_kana":"","ofc_cd":81,"sys_id":1,"sys_cam_id":"257047","pause":0,"date_type":2,"cam_kind":4,"own_cd":257}},{"type":"Feature","geometry":{"type":"Point","coordinates":[141.9077,43.500202778]},"properties":{"id":100257058,"name":"ペンケスナ川  1.0Kp","name_kana":"","ofc_cd":81,"sys_id":1,"sys_cam_id":"257058","pause":0,"date_type":2,"cam_kind":4,"own_cd":257}},{"type":"Feature","geometry":{"type":"Point","coordinates":[141.8781,43.475466667]},"properties":{"id":100257080,"name":"旧奈江豊平川  1.2Kp","name_kana":"","ofc_cd":81,"sys_id":1,"sys_cam_id":"257080","pause":0,"date_type":2,"cam_kind":4,"own_cd":257}},{"type":"Feature","geometry":{"type":"Point","coordinates":[141.947802778,43.515841667]},"properties":{"id":100257122,"name":"北光一の沢川  3.2Kp","name_kana":"","ofc_cd":81,"sys_id":1,"sys_cam_id":"257122","pause":0,"date_type":2,"cam_kind":4,"own_cd":257}},{"type":"Feature","geometry":{"type":"Point","coordinates":[141.9559333,43.5603916]},"properties":{"id":120736206,"name":"空知川KP6.75左岸カメラ","name_kana":"そらちがわKP6.75さがんかめら","ofc_cd":81,"sys_id":1,"sys_cam_id":"20736206","pause":0,"date_type":2,"cam_kind":4,"own_cd":20737}},{"type":"Feature","geometry":{"type":"Point","coordinates":[141.9015833,43.4590722]},"properties":{"id":120736251,"name":"豊沼奈江川KP2.9右岸カメラ","name_kana":"とよぬまなえがわKP2.6うがんかめら","ofc_cd":81,"sys_id":1,"sys_cam_id":"20736251","pause":0,"date_type":2,"cam_kind":4,"own_cd":20737}},{"type":"Feature","geometry":{"type":"Point","coordinates":[141.9030556,43.5019444]},"properties":{"id":220737053,"name":"石狩川　87.3kp　砂川橋水位観測所","name_kana":"いしかりがわ　87.3kp　すながわばしすいいかんそくじょ","ofc_cd":81,"sys_id":2,"sys_cam_id":"20737053","pause":0,"date_type":0,"cam_kind":2,"own_cd":20737}},{"type":"Feature","geometry":{"type":"Point","coordinates":[141.8999722,43.4826472]},"properties":{"id":220737184,"name":"石狩川　86.0kp　砂川遊水地管理塔","name_kana":"いしかりがわ　86.0kp　すながわゆうすいちかんりとう","ofc_cd":81,"sys_id":2,"sys_cam_id":"20737184","pause":0,"date_type":0,"cam_kind":2,"own_cd":20737}},{"type":"Feature","geometry":{"type":"Point","coordinates":[141.9033611,43.4935556]},"properties":{"id":220737185,"name":"石狩川　86.6kp　砂川遊水地３０ｍ鉄塔","name_kana":"いしかりがわ　86.6kp　すながわゆうすいち３０ｍてっとう","ofc_cd":81,"sys_id":2,"sys_cam_id":"20737185","pause":0,"date_type":0,"cam_kind":2,"own_cd":20737}},{"type":"Feature","geometry":{"type":"Point","coordinates":[141.8983333,43.4929444]},"properties":{"id":220737186,"name":"石狩川　86.5kp　砂川遊水地越流堤上流","name_kana":"いしかりがわ　86.5kp　すながわゆうすいちえつりゅうていじょうりゅう","ofc_cd":81,"sys_id":2,"sys_cam_id":"20737186","pause":0,"date_type":0,"cam_kind":2,"own_cd":20737}},{"type":"Feature","geometry":{"type":"Point","coordinates":[141.8974722,43.4920833]},"properties":{"id":220737187,"name":"石狩川　86.4kp　砂川遊水地越流堤下流","name_kana":"いしかりがわ　86.4kp　すながわゆうすいちえつりゅうていかりゅう","ofc_cd":81,"sys_id":2,"sys_cam_id":"20737187","pause":0,"date_type":0,"cam_kind":2,"own_cd":20737}},{"type":"Feature","geometry":{"type":"Point","coordinates":[141.8843333,43.4861944]},"properties":{"id":220737188,"name":"石狩川　85.3kp　砂川遊水地排水門ゲート","name_kana":"いしかりがわ　85.3kp　すながわゆうすいちはいすいもんげーと","ofc_cd":81,"sys_id":2,"sys_cam_id":"20737188","pause":0,"date_type":0,"cam_kind":2,"own_cd":20737}},{"type":"Feature","geometry":{"type":"Point","coordinates":[141.8863889,43.48275]},"properties":{"id":220737189,"name":"石狩川　85.3kp　砂川遊水地排水門","name_kana":"いしかりがわ　85.3kp　すながわゆうすいちはいすいもん","ofc_cd":81,"sys_id":2,"sys_cam_id":"20737189","pause":0,"date_type":0,"cam_kind":2,"own_cd":20737}},{"type":"Feature","geometry":{"type":"Point","coordinates":[141.8913028,43.4614222]},"properties":{"id":220737191,"name":"豊沼奈江川　1.9kp　北電橋","name_kana":"とよぬまなえがわ　1.9kp　ほくでんばし","ofc_cd":81,"sys_id":2,"sys_cam_id":"20737191","pause":0,"date_type":0,"cam_kind":2,"own_cd":20737}},{"type":"Feature","geometry":{"type":"Point","coordinates":[141.8914417,43.5065806]},"properties":{"id":220737194,"name":"石狩川　87.4kp　砂川大橋","name_kana":"いしかりがわ　87.4kp　すながわおおはし","ofc_cd":81,"sys_id":2,"sys_cam_id":"20737194","pause":0,"date_type":0,"cam_kind":2,"own_cd":20737}},{"type":"Feature","geometry":{"type":"Point","coordinates":[141.8954722,43.4778889]},"properties":{"id":220737195,"name":"石狩川　85.6kp　砂川遊水地奈江豊平川流入口","name_kana":"いしかりがわ　85.6kp　すながわゆうすいちなえとよひらがわりゅうにゅうこう","ofc_cd":81,"sys_id":2,"sys_cam_id":"20737195","pause":0,"date_type":0,"cam_kind":2,"own_cd":20737}},{"type":"Feature","geometry":{"type":"Point","coordinates":[141.9035833,43.4935]},"properties":{"id":220737241,"name":"石狩川　86.6kp　砂川遊水地パンケ水門","name_kana":"いしかりがわ　86.6kp　すながわゆうすいちぱんけすいもん","ofc_cd":81,"sys_id":2,"sys_cam_id":"20737241","pause":0,"date_type":0,"cam_kind":2,"own_cd":20737}},{"type":"Feature","geometry":{"type":"Point","coordinates":[141.896195,43.488564]},"properties":{"id":220737246,"name":"石狩川　86.7kp　砂川遊水地ペンケ樋門","name_kana":"","ofc_cd":81,"sys_id":2,"sys_cam_id":"20737246","pause":0,"date_type":0,"cam_kind":2,"own_cd":20737}}]}