{"type":"FeatureCollection","crs":{"type":"name","properties":{"name":"EPSG:4326"}},"features":[{"type":"Feature","geometry":{"type":"Point","coordinates":[142.249794444,44.768716667]},"properties":{"id":100257160,"name":"音威子府川  5.9Kp","name_kana":"","ofc_cd":81,"sys_id":1,"sys_cam_id":"257160","pause":0,"date_type":2,"cam_kind":4,"own_cd":257}},{"type":"Feature","geometry":{"type":"Point","coordinates":[142.2634807,44.722531]},"properties":{"id":120736108,"name":"天塩川KP92.0右岸カメラ","name_kana":"てしおがわKP92.0うがんかめら","ofc_cd":81,"sys_id":1,"sys_cam_id":"20736108","pause":0,"date_type":2,"cam_kind":4,"own_cd":23297}},{"type":"Feature","geometry":{"type":"Point","coordinates":[142.2092179,44.7312221]},"properties":{"id":120736406,"name":"天塩川KP86.2左岸カメラ","name_kana":"てしおがわKP86.2さがんかめら","ofc_cd":81,"sys_id":1,"sys_cam_id":"20736406","pause":0,"date_type":2,"cam_kind":4,"own_cd":23297}},{"type":"Feature","geometry":{"type":"Point","coordinates":[142.2530183,44.7303019]},"properties":{"id":120736407,"name":"天塩川KP90.8右岸カメラ","name_kana":"てしおがわKP90.8うがんかめら","ofc_cd":81,"sys_id":1,"sys_cam_id":"20736407","pause":0,"date_type":2,"cam_kind":4,"own_cd":23297}},{"type":"Feature","geometry":{"type":"Point","coordinates":[142.2683333,44.70388889]},"properties":{"id":223297020,"name":"天塩川　94.3kp　茨内水位観測所","name_kana":"てしおがわ　94.3kp　ばらうちすいいかんそくしょ","ofc_cd":81,"sys_id":2,"sys_cam_id":"23297020","pause":0,"date_type":0,"cam_kind":2,"own_cd":23297}},{"type":"Feature","geometry":{"type":"Point","coordinates":[142.261558,44.724422]},"properties":{"id":223297106,"name":"天塩川　KP91.8　音威子府排水機場（吐口）","name_kana":"てしおがわ　KP91.8　おといねっぷはいすいきじょう（はきぐち）","ofc_cd":81,"sys_id":2,"sys_cam_id":"23297097","pause":0,"date_type":0,"cam_kind":2,"own_cd":23297}},{"type":"Feature","geometry":{"type":"Point","coordinates":[142.2560556,44.7289722]},"properties":{"id":223297114,"name":"天塩川　音威子府水防拠点","name_kana":"てしおがわ　おといねっぷすいぼうきょてん","ofc_cd":81,"sys_id":2,"sys_cam_id":"23297096","pause":0,"date_type":0,"cam_kind":2,"own_cd":23297}}]}