{"type":"FeatureCollection","crs":{"type":"name","properties":{"name":"EPSG:4326"}},"features":[{"type":"Feature","geometry":{"type":"Point","coordinates":[140.521416666,36.319833333]},"properties":{"id":102049019,"name":"入野橋","name_kana":"いりのはし","ofc_cd":83,"sys_id":1,"sys_cam_id":"2049019","pause":0,"date_type":1,"cam_kind":4,"own_cd":2049}},{"type":"Feature","geometry":{"type":"Point","coordinates":[140.504033333,36.326141666]},"properties":{"id":102049020,"name":"小仲根橋","name_kana":"こなかねはし","ofc_cd":83,"sys_id":1,"sys_cam_id":"2049020","pause":0,"date_type":1,"cam_kind":4,"own_cd":2049}},{"type":"Feature","geometry":{"type":"Point","coordinates":[140.500591666,36.362147222]},"properties":{"id":102049031,"name":"浜田","name_kana":"はまだ","ofc_cd":83,"sys_id":1,"sys_cam_id":"2049031","pause":0,"date_type":1,"cam_kind":4,"own_cd":2049}},{"type":"Feature","geometry":{"type":"Point","coordinates":[140.467016666,36.365530555]},"properties":{"id":102049032,"name":"逆川橋","name_kana":"さかさがわはし","ofc_cd":83,"sys_id":1,"sys_cam_id":"2049032","pause":0,"date_type":1,"cam_kind":4,"own_cd":2049}},{"type":"Feature","geometry":{"type":"Point","coordinates":[140.447669444,36.377838888]},"properties":{"id":102049033,"name":"緑町","name_kana":"みどりちょう","ofc_cd":83,"sys_id":1,"sys_cam_id":"2049033","pause":0,"date_type":1,"cam_kind":4,"own_cd":2049}},{"type":"Feature","geometry":{"type":"Point","coordinates":[140.448202777,36.421219444]},"properties":{"id":102049036,"name":"田谷町","name_kana":"たやちょう","ofc_cd":83,"sys_id":1,"sys_cam_id":"2049036","pause":0,"date_type":1,"cam_kind":4,"own_cd":2049}},{"type":"Feature","geometry":{"type":"Point","coordinates":[140.416444444,36.417138888]},"properties":{"id":102049037,"name":"田野川橋","name_kana":"たのがわはし","ofc_cd":83,"sys_id":1,"sys_cam_id":"2049037","pause":0,"date_type":1,"cam_kind":4,"own_cd":2049}},{"type":"Feature","geometry":{"type":"Point","coordinates":[140.412111111,36.442416666]},"properties":{"id":102049038,"name":"藤井新橋","name_kana":"ふじいしんはし","ofc_cd":83,"sys_id":1,"sys_cam_id":"2049038","pause":0,"date_type":1,"cam_kind":4,"own_cd":2049}},{"type":"Feature","geometry":{"type":"Point","coordinates":[140.403305555,36.4405]},"properties":{"id":102049039,"name":"工兵橋","name_kana":"こうへいはし","ofc_cd":83,"sys_id":1,"sys_cam_id":"2049039","pause":0,"date_type":1,"cam_kind":4,"own_cd":2049}},{"type":"Feature","geometry":{"type":"Point","coordinates":[140.412694444,36.444638888]},"properties":{"id":102049042,"name":"古川橋","name_kana":"ふるかわはし","ofc_cd":83,"sys_id":1,"sys_cam_id":"2049042","pause":0,"date_type":1,"cam_kind":4,"own_cd":2049}},{"type":"Feature","geometry":{"type":"Point","coordinates":[140.410555555,36.447055555]},"properties":{"id":102049043,"name":"西田橋","name_kana":"にしだはし","ofc_cd":83,"sys_id":1,"sys_cam_id":"2049043","pause":0,"date_type":1,"cam_kind":4,"own_cd":2049}},{"type":"Feature","geometry":{"type":"Point","coordinates":[140.283505555,36.220377777]},"properties":{"id":102049066,"name":"新大谷橋","name_kana":"しんおおやはし","ofc_cd":83,"sys_id":1,"sys_cam_id":"2049066","pause":0,"date_type":1,"cam_kind":4,"own_cd":2049}},{"type":"Feature","geometry":{"type":"Point","coordinates":[140.435477,36.418364]},"properties":{"id":121271180,"name":"那珂川左岸 19.5k","name_kana":"","ofc_cd":83,"sys_id":1,"sys_cam_id":"21271180","pause":0,"date_type":2,"cam_kind":4,"own_cd":21271}},{"type":"Feature","geometry":{"type":"Point","coordinates":[140.422288,36.425325]},"properties":{"id":121271181,"name":"那珂川右岸 20.5k","name_kana":"","ofc_cd":83,"sys_id":1,"sys_cam_id":"21271181","pause":0,"date_type":2,"cam_kind":4,"own_cd":21271}},{"type":"Feature","geometry":{"type":"Point","coordinates":[140.57959722,36.33301388]},"properties":{"id":121271256,"name":"涸沼川左岸0.5k+270","name_kana":"","ofc_cd":83,"sys_id":1,"sys_cam_id":"21271256","pause":0,"date_type":2,"cam_kind":4,"own_cd":21271}},{"type":"Feature","geometry":{"type":"Point","coordinates":[140.54601388,36.31968888]},"properties":{"id":121271257,"name":"涸沼川左岸5.5k","name_kana":"","ofc_cd":83,"sys_id":1,"sys_cam_id":"21271257","pause":0,"date_type":2,"cam_kind":4,"own_cd":21271}},{"type":"Feature","geometry":{"type":"Point","coordinates":[140.49428888,36.37546666]},"properties":{"id":121271260,"name":"那珂川左岸 11.0k＋40（寿橋）","name_kana":"","ofc_cd":83,"sys_id":1,"sys_cam_id":"21271260","pause":0,"date_type":2,"cam_kind":4,"own_cd":21271}},{"type":"Feature","geometry":{"type":"Point","coordinates":[140.55428333,36.31355]},"properties":{"id":121271261,"name":"涸沼川右岸 4.0k＋385（涸沼川橋）","name_kana":"","ofc_cd":83,"sys_id":1,"sys_cam_id":"21271261","pause":0,"date_type":2,"cam_kind":4,"own_cd":21271}},{"type":"Feature","geometry":{"type":"Point","coordinates":[140.4836083,36.375]},"properties":{"id":221271011,"name":"三の丸","name_kana":"さんのまる","ofc_cd":83,"sys_id":2,"sys_cam_id":"21271102","pause":0,"date_type":0,"cam_kind":2,"own_cd":21271}},{"type":"Feature","geometry":{"type":"Point","coordinates":[140.4802972,36.3772]},"properties":{"id":221271015,"name":"水府橋","name_kana":"すいふばし","ofc_cd":83,"sys_id":2,"sys_cam_id":"21271106","pause":0,"date_type":0,"cam_kind":2,"own_cd":21271}},{"type":"Feature","geometry":{"type":"Point","coordinates":[140.4728,36.3892]},"properties":{"id":221271016,"name":"内川水門","name_kana":"うちかわすいもん","ofc_cd":83,"sys_id":2,"sys_cam_id":"21271107","pause":0,"date_type":0,"cam_kind":2,"own_cd":21271}},{"type":"Feature","geometry":{"type":"Point","coordinates":[140.4231,36.4258]},"properties":{"id":221271018,"name":"飯富(藤井川合流点)","name_kana":"いいとみ（ふじいがわごうりゅうてん）","ofc_cd":83,"sys_id":2,"sys_cam_id":"21271109","pause":0,"date_type":0,"cam_kind":2,"own_cd":21271}},{"type":"Feature","geometry":{"type":"Point","coordinates":[140.4352778,36.4183333]},"properties":{"id":221271019,"name":"国田大橋","name_kana":"くにたおおはし","ofc_cd":83,"sys_id":2,"sys_cam_id":"21271110","pause":0,"date_type":0,"cam_kind":2,"own_cd":21271}},{"type":"Feature","geometry":{"type":"Point","coordinates":[140.418758887,36.372114284]},"properties":{"id":221273001,"name":"桜機場（放流口）","name_kana":"さくらきじょう　ほうりゅうぐち","ofc_cd":83,"sys_id":2,"sys_cam_id":"21273001","pause":0,"date_type":0,"cam_kind":2,"own_cd":21273}}]}