{"type":"FeatureCollection","crs":{"type":"name","properties":{"name":"EPSG:4326"}},"features":[{"type":"Feature","geometry":{"type":"Point","coordinates":[138.251277778,34.808844444]},"properties":{"id":221827041,"name":"東名大井川橋","name_kana":"","ofc_cd":85,"sys_id":2,"sys_cam_id":"22010099","pause":0,"date_type":0,"cam_kind":2,"own_cd":21827}},{"type":"Feature","geometry":{"type":"Point","coordinates":[138.259611111,34.800825]},"properties":{"id":221827042,"name":"富士見橋","name_kana":"","ofc_cd":85,"sys_id":2,"sys_cam_id":"22010100","pause":0,"date_type":0,"cam_kind":2,"own_cd":21827}},{"type":"Feature","geometry":{"type":"Point","coordinates":[138.274755556,34.789638889]},"properties":{"id":221827043,"name":"焼津市中島","name_kana":"","ofc_cd":85,"sys_id":2,"sys_cam_id":"22010101","pause":0,"date_type":0,"cam_kind":2,"own_cd":21827}},{"type":"Feature","geometry":{"type":"Point","coordinates":[138.281388889,34.789166667]},"properties":{"id":221827044,"name":"太平橋","name_kana":"","ofc_cd":85,"sys_id":2,"sys_cam_id":"22010102","pause":0,"date_type":0,"cam_kind":2,"own_cd":21827}},{"type":"Feature","geometry":{"type":"Point","coordinates":[138.288933333,34.777819444]},"properties":{"id":221827045,"name":"飯淵","name_kana":"","ofc_cd":85,"sys_id":2,"sys_cam_id":"22010103","pause":0,"date_type":0,"cam_kind":2,"own_cd":21827}},{"type":"Feature","geometry":{"type":"Point","coordinates":[138.295988889,34.77175]},"properties":{"id":221827046,"name":"大井川河口","name_kana":"","ofc_cd":85,"sys_id":2,"sys_cam_id":"22010104","pause":0,"date_type":0,"cam_kind":2,"own_cd":21827}}]}