{"type":"FeatureCollection","crs":{"type":"name","properties":{"name":"EPSG:4326"}},"features":[{"type":"Feature","geometry":{"type":"Point","coordinates":[141.1105556,39.0046168]},"properties":{"id":100769070,"name":"徳沢川樋門(外)","name_kana":"","ofc_cd":82,"sys_id":1,"sys_cam_id":"769070","pause":0,"date_type":1,"cam_kind":4,"own_cd":769}},{"type":"Feature","geometry":{"type":"Point","coordinates":[141.11055555,39.00555555]},"properties":{"id":100769071,"name":"徳沢川樋門(内)","name_kana":"","ofc_cd":82,"sys_id":1,"sys_cam_id":"769071","pause":0,"date_type":1,"cam_kind":4,"own_cd":769}},{"type":"Feature","geometry":{"type":"Point","coordinates":[141.124417,38.985]},"properties":{"id":121023017,"name":"北上川上流 右岸 33.4キロ","name_kana":"","ofc_cd":82,"sys_id":1,"sys_cam_id":"21023017","pause":0,"date_type":2,"cam_kind":4,"own_cd":21023}},{"type":"Feature","geometry":{"type":"Point","coordinates":[141.136652,39.020006]},"properties":{"id":121023023,"name":"北上川上流 左岸 38.5キロ","name_kana":"きたかみがわじょうりゅう さがん 38.5キロ","ofc_cd":82,"sys_id":1,"sys_cam_id":"21023023","pause":0,"date_type":0,"cam_kind":4,"own_cd":21023}},{"type":"Feature","geometry":{"type":"Point","coordinates":[141.135001,39.018058]},"properties":{"id":221023026,"name":"長部","name_kana":"","ofc_cd":82,"sys_id":2,"sys_cam_id":"21023026","pause":0,"date_type":0,"cam_kind":2,"own_cd":21023}},{"type":"Feature","geometry":{"type":"Point","coordinates":[141.157222,38.979167]},"properties":{"id":221023037,"name":"観音山","name_kana":"","ofc_cd":82,"sys_id":2,"sys_cam_id":"21023037","pause":0,"date_type":0,"cam_kind":2,"own_cd":21023}},{"type":"Feature","geometry":{"type":"Point","coordinates":[141.121945,38.97889]},"properties":{"id":221023042,"name":"平泉陸閘","name_kana":"","ofc_cd":82,"sys_id":2,"sys_cam_id":"21023042","pause":0,"date_type":0,"cam_kind":2,"own_cd":21023}},{"type":"Feature","geometry":{"type":"Point","coordinates":[141.123335,38.985558]},"properties":{"id":221023043,"name":"平泉排水機場","name_kana":"","ofc_cd":82,"sys_id":2,"sys_cam_id":"21023043","pause":0,"date_type":0,"cam_kind":2,"own_cd":21023}},{"type":"Feature","geometry":{"type":"Point","coordinates":[141.113621,38.999454]},"properties":{"id":221023044,"name":"桜川排水樋門","name_kana":"","ofc_cd":82,"sys_id":2,"sys_cam_id":"21023044","pause":0,"date_type":0,"cam_kind":2,"own_cd":21023}},{"type":"Feature","geometry":{"type":"Point","coordinates":[141.163056,38.981389]},"properties":{"id":221023073,"name":"観音山鉄塔","name_kana":"","ofc_cd":82,"sys_id":2,"sys_cam_id":"21023073","pause":1,"date_type":0,"cam_kind":2,"own_cd":21023}},{"type":"Feature","geometry":{"type":"Point","coordinates":[141.13555583,38.99611111]},"properties":{"id":221023078,"name":"第二管理用通路","name_kana":"","ofc_cd":82,"sys_id":2,"sys_cam_id":"21023078","pause":0,"date_type":0,"cam_kind":2,"own_cd":21023}},{"type":"Feature","geometry":{"type":"Point","coordinates":[141.11499999,39.00666666]},"properties":{"id":221023081,"name":"衣川合流点","name_kana":"","ofc_cd":82,"sys_id":2,"sys_cam_id":"21023081","pause":0,"date_type":0,"cam_kind":2,"own_cd":21023}}]}