{"type":"FeatureCollection","crs":{"type":"name","properties":{"name":"EPSG:4326"}},"features":[{"type":"Feature","geometry":{"type":"Point","coordinates":[137.6134389,35.6395944]},"properties":{"id":105121096,"name":"十二兼","name_kana":"じゅうにかね","ofc_cd":85,"sys_id":1,"sys_cam_id":"5121096","pause":0,"date_type":1,"cam_kind":4,"own_cd":5121}},{"type":"Feature","geometry":{"type":"Point","coordinates":[137.6045917,35.5964]},"properties":{"id":105121097,"name":"沼田","name_kana":"ぬまた","ofc_cd":85,"sys_id":1,"sys_cam_id":"5121097","pause":0,"date_type":1,"cam_kind":4,"own_cd":5121}},{"type":"Feature","geometry":{"type":"Point","coordinates":[137.5937861,35.5878222]},"properties":{"id":105121098,"name":"吾妻","name_kana":"あづま","ofc_cd":85,"sys_id":1,"sys_cam_id":"5121098","pause":0,"date_type":1,"cam_kind":4,"own_cd":5121}},{"type":"Feature","geometry":{"type":"Point","coordinates":[137.5430417,35.5866694]},"properties":{"id":105121099,"name":"田立","name_kana":"ただち","ofc_cd":85,"sys_id":1,"sys_cam_id":"5121099","pause":0,"date_type":1,"cam_kind":4,"own_cd":5121}},{"type":"Feature","geometry":{"type":"Point","coordinates":[137.593625,35.5713111]},"properties":{"id":105121100,"name":"橋場","name_kana":"はしば","ofc_cd":85,"sys_id":1,"sys_cam_id":"5121100","pause":0,"date_type":1,"cam_kind":4,"own_cd":5121}},{"type":"Feature","geometry":{"type":"Point","coordinates":[137.576815,35.587488]},"properties":{"id":105121243,"name":"山口ダム","name_kana":"やまぐちだむ","ofc_cd":85,"sys_id":1,"sys_cam_id":"5121243","pause":0,"date_type":1,"cam_kind":4,"own_cd":5121}},{"type":"Feature","geometry":{"type":"Point","coordinates":[137.6298306,35.56830833]},"properties":{"id":221792022,"name":"額付第１堰堤","name_kana":"ひたいつけだいいちえんてい","ofc_cd":85,"sys_id":2,"sys_cam_id":"21792022","pause":0,"date_type":0,"cam_kind":3,"own_cd":21792}},{"type":"Feature","geometry":{"type":"Point","coordinates":[137.6132167,35.59078056]},"properties":{"id":221792023,"name":"神戸沢","name_kana":"ごうどさわ","ofc_cd":85,"sys_id":2,"sys_cam_id":"21792023","pause":0,"date_type":0,"cam_kind":3,"own_cd":21792}},{"type":"Feature","geometry":{"type":"Point","coordinates":[137.6177889,35.60673056]},"properties":{"id":221792024,"name":"梨子沢東町堰堤","name_kana":"なしざわひがしまちえんてい","ofc_cd":85,"sys_id":2,"sys_cam_id":"21792024","pause":0,"date_type":0,"cam_kind":3,"own_cd":21792}},{"type":"Feature","geometry":{"type":"Point","coordinates":[137.6122028,35.60623611]},"properties":{"id":221792025,"name":"梨子沢流路工","name_kana":"なしざわりゅうろこう","ofc_cd":85,"sys_id":2,"sys_cam_id":"21792025","pause":0,"date_type":0,"cam_kind":3,"own_cd":21792}}]}