{"type":"FeatureCollection","crs":{"type":"name","properties":{"name":"EPSG:4326"}},"features":[{"type":"Feature","geometry":{"type":"Point","coordinates":[142.273615556,42.660277778]},"properties":{"id":100257328,"name":"貫気別川  2.0Kp","name_kana":"","ofc_cd":81,"sys_id":1,"sys_cam_id":"257328","pause":0,"date_type":2,"cam_kind":4,"own_cd":257}},{"type":"Feature","geometry":{"type":"Point","coordinates":[142.263055556,42.670555556]},"properties":{"id":100257329,"name":"額平川  7.6Kp","name_kana":"","ofc_cd":81,"sys_id":1,"sys_cam_id":"257329","pause":0,"date_type":2,"cam_kind":4,"own_cd":257}},{"type":"Feature","geometry":{"type":"Point","coordinates":[142.313121111,42.725977778]},"properties":{"id":100257369,"name":"沙流川  5.0kp","name_kana":"","ofc_cd":81,"sys_id":1,"sys_cam_id":"257369","pause":0,"date_type":2,"cam_kind":4,"own_cd":257}},{"type":"Feature","geometry":{"type":"Point","coordinates":[142.135968333,42.586761111]},"properties":{"id":100257383,"name":"オバウシナイ川  0.4Kp","name_kana":"","ofc_cd":81,"sys_id":1,"sys_cam_id":"257383","pause":0,"date_type":2,"cam_kind":4,"own_cd":257}},{"type":"Feature","geometry":{"type":"Point","coordinates":[142.095647,42.5549]},"properties":{"id":120736061,"name":"沙流川KP10.2右岸カメラ","name_kana":"さるがわKP10.2うがんかめら","ofc_cd":81,"sys_id":1,"sys_cam_id":"20736061","pause":0,"date_type":2,"cam_kind":4,"own_cd":20817}},{"type":"Feature","geometry":{"type":"Point","coordinates":[142.103554,42.559363]},"properties":{"id":120736062,"name":"沙流川KP10.8右岸カメラ","name_kana":"さるがわKP10.8うがんかめら","ofc_cd":81,"sys_id":1,"sys_cam_id":"20736062","pause":0,"date_type":2,"cam_kind":4,"own_cd":20817}},{"type":"Feature","geometry":{"type":"Point","coordinates":[142.14559,42.623845]},"properties":{"id":120736063,"name":"沙流川KP20.8左岸カメラ","name_kana":"さるがわKP20.8さがんかめら","ofc_cd":81,"sys_id":1,"sys_cam_id":"20736063","pause":0,"date_type":2,"cam_kind":4,"own_cd":20817}},{"type":"Feature","geometry":{"type":"Point","coordinates":[142.212304,42.692423]},"properties":{"id":120736064,"name":"沙流川KP30.6右岸カメラ","name_kana":"さるがわKP30.6うがんかめら","ofc_cd":81,"sys_id":1,"sys_cam_id":"20736064","pause":0,"date_type":2,"cam_kind":4,"own_cd":20817}},{"type":"Feature","geometry":{"type":"Point","coordinates":[142.1402778,42.5822194]},"properties":{"id":220817005,"name":"沙流川　15.6kp　平取","name_kana":"さるがわ　15.6kp　びらとり","ofc_cd":81,"sys_id":2,"sys_cam_id":"20817005","pause":0,"date_type":0,"cam_kind":3,"own_cd":20817}},{"type":"Feature","geometry":{"type":"Point","coordinates":[142.1458333,42.62861111]},"properties":{"id":220817006,"name":"二風谷ダム　右岸下流","name_kana":"にぶたにだむ　うがんかりゅう","ofc_cd":81,"sys_id":2,"sys_cam_id":"20817006","pause":0,"date_type":0,"cam_kind":2,"own_cd":20817}},{"type":"Feature","geometry":{"type":"Point","coordinates":[142.0652778,42.5422222]},"properties":{"id":220817024,"name":"沙流川　7.2kp　富川Ｈ樋管","name_kana":"さるがわ　7.2kp　とみかわHひかん","ofc_cd":81,"sys_id":2,"sys_cam_id":"20817024","pause":0,"date_type":0,"cam_kind":2,"own_cd":20817}},{"type":"Feature","geometry":{"type":"Point","coordinates":[142.0861111,42.5505556]},"properties":{"id":220817025,"name":"沙流川　9.0kp　紫雲古津樋門","name_kana":"さるがわ　9.0kp　しうんこつひもん","ofc_cd":81,"sys_id":2,"sys_cam_id":"20817025","pause":0,"date_type":0,"cam_kind":2,"own_cd":20817}},{"type":"Feature","geometry":{"type":"Point","coordinates":[142.1058333,42.5616667]},"properties":{"id":220817026,"name":"沙流川　11.2kp　荷菜去場","name_kana":"さるがわ　11.2kp　になさるば","ofc_cd":81,"sys_id":2,"sys_cam_id":"20817026","pause":0,"date_type":0,"cam_kind":2,"own_cd":20817}},{"type":"Feature","geometry":{"type":"Point","coordinates":[142.1069444,42.5636111]},"properties":{"id":220817027,"name":"沙流川　11.5kp　去場樋門","name_kana":"さるがわ　11.5kp　さるばひもん","ofc_cd":81,"sys_id":2,"sys_cam_id":"20817027","pause":0,"date_type":0,"cam_kind":2,"own_cd":20817}},{"type":"Feature","geometry":{"type":"Point","coordinates":[142.1194444,42.5697222]},"properties":{"id":220817028,"name":"沙流川　12.8kp　荷菜大橋","name_kana":"さるがわ　12.8kp　になおおはし","ofc_cd":81,"sys_id":2,"sys_cam_id":"20817028","pause":0,"date_type":0,"cam_kind":2,"own_cd":20817}},{"type":"Feature","geometry":{"type":"Point","coordinates":[142.1280556,42.5738889]},"properties":{"id":220817029,"name":"沙流川　13.8kp　平取樋門","name_kana":"さるがわ　13.8kp　びらとりひもん","ofc_cd":81,"sys_id":2,"sys_cam_id":"20817029","pause":0,"date_type":0,"cam_kind":2,"own_cd":20817}},{"type":"Feature","geometry":{"type":"Point","coordinates":[142.1477778,42.5980556]},"properties":{"id":220817030,"name":"沙流川　17.6kp　小平","name_kana":"さるがわ　17.6kp　こびら","ofc_cd":81,"sys_id":2,"sys_cam_id":"20817030","pause":0,"date_type":0,"cam_kind":2,"own_cd":20817}},{"type":"Feature","geometry":{"type":"Point","coordinates":[142.1433333,42.6125]},"properties":{"id":220817031,"name":"沙流川　19.4kp　二風谷築堤","name_kana":"さるがわ　19.4kp　にぶたにちくてい","ofc_cd":81,"sys_id":2,"sys_cam_id":"20817031","pause":0,"date_type":0,"cam_kind":2,"own_cd":20817}},{"type":"Feature","geometry":{"type":"Point","coordinates":[142.1458333,42.6286111]},"properties":{"id":220817032,"name":"二風谷ダム　二風谷","name_kana":"","ofc_cd":81,"sys_id":2,"sys_cam_id":"20817032","pause":0,"date_type":0,"cam_kind":3,"own_cd":20817}}]}