{"type":"FeatureCollection","crs":{"type":"name","properties":{"name":"EPSG:4326"}},"features":[{"type":"Feature","geometry":{"type":"Point","coordinates":[141.9130556,43.6847194]},"properties":{"id":220737026,"name":"雨竜川　6.0kp　雨竜橋水位観測所","name_kana":"うりゅうがわ　6.0kp　うりゅうばしすいいかんそくじょ","ofc_cd":81,"sys_id":2,"sys_cam_id":"20737026","pause":0,"date_type":0,"cam_kind":3,"own_cd":20737}},{"type":"Feature","geometry":{"type":"Point","coordinates":[141.9141667,43.7294444]},"properties":{"id":220737056,"name":"雨竜川　13.5kp　北竜橋水位観測所","name_kana":"うりゅうがわ　13.5kp　ほくりゅうばしすいいかんそくじょ","ofc_cd":81,"sys_id":2,"sys_cam_id":"20737056","pause":0,"date_type":0,"cam_kind":2,"own_cd":20737}},{"type":"Feature","geometry":{"type":"Point","coordinates":[141.9272222,43.7125]},"properties":{"id":220737059,"name":"大鳳川　1.9kp　大鳳水位観測所","name_kana":"おおほうがわ　1.9kp　おおほうすいいかんそくじょ","ofc_cd":81,"sys_id":2,"sys_cam_id":"20737059","pause":0,"date_type":0,"cam_kind":2,"own_cd":20737}},{"type":"Feature","geometry":{"type":"Point","coordinates":[141.9357139,43.7181556]},"properties":{"id":220737200,"name":"大鳳川　3.0kp　上田樋門対岸","name_kana":"おおほうがわ　3.0kp　うえだひもんたいがん","ofc_cd":81,"sys_id":2,"sys_cam_id":"20737200","pause":0,"date_type":0,"cam_kind":2,"own_cd":20737}},{"type":"Feature","geometry":{"type":"Point","coordinates":[141.9209889,43.7014833]},"properties":{"id":220737201,"name":"大鳳川　-1.0kp　沿岸橋","name_kana":"おおほうがわ　-1.0kp　えんがんばし","ofc_cd":81,"sys_id":2,"sys_cam_id":"20737201","pause":0,"date_type":0,"cam_kind":2,"own_cd":20737}},{"type":"Feature","geometry":{"type":"Point","coordinates":[141.9205722,43.6897472]},"properties":{"id":220737202,"name":"大鳳川　-2.0kp　黄金橋","name_kana":"おおほうがわ　-2.0kp　おうごんばし","ofc_cd":81,"sys_id":2,"sys_cam_id":"20737202","pause":0,"date_type":0,"cam_kind":2,"own_cd":20737}},{"type":"Feature","geometry":{"type":"Point","coordinates":[141.9199444,43.6668889]},"properties":{"id":220737203,"name":"雨竜川　4.0kp　芽生川樋門","name_kana":"うりゅうがわ　4.0kp　めむがわひもん","ofc_cd":81,"sys_id":2,"sys_cam_id":"20737203","pause":0,"date_type":0,"cam_kind":2,"own_cd":20737}},{"type":"Feature","geometry":{"type":"Point","coordinates":[141.9441667,43.6738889]},"properties":{"id":220737204,"name":"石狩川　110.6kp　拓殖樋門","name_kana":"いしかりがわ　110.6kp　たくしょくひもん","ofc_cd":81,"sys_id":2,"sys_cam_id":"20737204","pause":0,"date_type":0,"cam_kind":2,"own_cd":20737}},{"type":"Feature","geometry":{"type":"Point","coordinates":[141.94,43.7261111]},"properties":{"id":220737205,"name":"大鳳川　3.8kp　小藤排水機場　空間監視","name_kana":"おおほうがわ　3.8kp　こふじはいすいきじょう　くうかんかんし","ofc_cd":81,"sys_id":2,"sys_cam_id":"20737205","pause":0,"date_type":0,"cam_kind":2,"own_cd":20737}},{"type":"Feature","geometry":{"type":"Point","coordinates":[141.9672222,43.6738889]},"properties":{"id":220737206,"name":"石狩川　112.4kp　丸樋門","name_kana":"いしかりがわ　112.4kp　まるひもん","ofc_cd":81,"sys_id":2,"sys_cam_id":"20737206","pause":0,"date_type":0,"cam_kind":2,"own_cd":20737}},{"type":"Feature","geometry":{"type":"Point","coordinates":[141.9020417,43.6852278]},"properties":{"id":220737207,"name":"雨竜川　6.8kp　雨竜橋","name_kana":"うりゅうがわ　6.8kp　うりゅうばし","ofc_cd":81,"sys_id":2,"sys_cam_id":"20737207","pause":0,"date_type":0,"cam_kind":2,"own_cd":20737}},{"type":"Feature","geometry":{"type":"Point","coordinates":[141.9127778,43.7066667]},"properties":{"id":220737208,"name":"雨竜川　10.2kp　千秋水位観測所","name_kana":"うりゅうがわ　10.2kp　せんしゅうすいいかんそくじょ","ofc_cd":81,"sys_id":2,"sys_cam_id":"20737208","pause":0,"date_type":0,"cam_kind":2,"own_cd":20737}},{"type":"Feature","geometry":{"type":"Point","coordinates":[141.9239444,43.7072778]},"properties":{"id":220737209,"name":"大鳳川　-0.7kp　妹背牛水防拠点","name_kana":"おおほうがわ　-0.7kp　もせうしすいぼうきょてん","ofc_cd":81,"sys_id":2,"sys_cam_id":"20737209","pause":0,"date_type":0,"cam_kind":2,"own_cd":20737}}]}