{"type":"FeatureCollection","crs":{"type":"name","properties":{"name":"EPSG:4326"}},"features":[{"type":"Feature","geometry":{"type":"Point","coordinates":[140.482853,37.43958909]},"properties":{"id":101793090,"name":"桜川","name_kana":"さくらがわ","ofc_cd":82,"sys_id":1,"sys_cam_id":"1793090","pause":0,"date_type":2,"cam_kind":4,"own_cd":1793}},{"type":"Feature","geometry":{"type":"Point","coordinates":[140.4418829,37.4199992]},"properties":{"id":101793254,"name":"桜川　大峰橋　","name_kana":"","ofc_cd":82,"sys_id":1,"sys_cam_id":"1793254","pause":0,"date_type":1,"cam_kind":4,"own_cd":1793}},{"type":"Feature","geometry":{"type":"Point","coordinates":[140.54903515,37.49745102]},"properties":{"id":101793266,"name":"移川　新薬師堂橋　","name_kana":"","ofc_cd":82,"sys_id":1,"sys_cam_id":"1793266","pause":0,"date_type":1,"cam_kind":4,"own_cd":1793}},{"type":"Feature","geometry":{"type":"Point","coordinates":[140.475,37.403611]},"properties":{"id":221064001,"name":"ダム全景","name_kana":"だむぜんけい","ofc_cd":82,"sys_id":2,"sys_cam_id":"21064001","pause":0,"date_type":0,"cam_kind":2,"own_cd":21064}},{"type":"Feature","geometry":{"type":"Point","coordinates":[140.486556,37.406944]},"properties":{"id":221064002,"name":"春田橋","name_kana":"はるたばし","ofc_cd":82,"sys_id":2,"sys_cam_id":"21064002","pause":0,"date_type":0,"cam_kind":2,"own_cd":21064}},{"type":"Feature","geometry":{"type":"Point","coordinates":[140.500028,37.415944]},"properties":{"id":221064003,"name":"柴原","name_kana":"しばはら","ofc_cd":82,"sys_id":2,"sys_cam_id":"21064003","pause":0,"date_type":0,"cam_kind":2,"own_cd":21064}},{"type":"Feature","geometry":{"type":"Point","coordinates":[140.475,37.403611]},"properties":{"id":221064005,"name":"管理所前","name_kana":"かんりしょまえ","ofc_cd":82,"sys_id":2,"sys_cam_id":"21064005","pause":0,"date_type":0,"cam_kind":2,"own_cd":21064}}]}