{"type":"FeatureCollection","crs":{"type":"name","properties":{"name":"EPSG:4326"}},"features":[{"type":"Feature","geometry":{"type":"Point","coordinates":[135.975844444,33.734227778]},"properties":{"id":122088001,"name":"熊野川 相筋","name_kana":"くまのがわ あいすじ","ofc_cd":86,"sys_id":1,"sys_cam_id":"22088001","pause":0,"date_type":0,"cam_kind":4,"own_cd":22088}},{"type":"Feature","geometry":{"type":"Point","coordinates":[136.0013889,33.7263889]},"properties":{"id":222088005,"name":"熊野川０．８右岸","name_kana":"くまのがわ０．８うがん","ofc_cd":86,"sys_id":2,"sys_cam_id":"22088107","pause":0,"date_type":0,"cam_kind":2,"own_cd":22088}},{"type":"Feature","geometry":{"type":"Point","coordinates":[135.9903194,33.7311944]},"properties":{"id":222088007,"name":"船町第２樋管","name_kana":"ふなまちだい２ひかん","ofc_cd":86,"sys_id":2,"sys_cam_id":"22088109","pause":0,"date_type":0,"cam_kind":2,"own_cd":22088}},{"type":"Feature","geometry":{"type":"Point","coordinates":[135.9886111,33.7314167]},"properties":{"id":222088008,"name":"船町樋管","name_kana":"ふなまちひかん","ofc_cd":86,"sys_id":2,"sys_cam_id":"22088110","pause":0,"date_type":0,"cam_kind":2,"own_cd":22088}},{"type":"Feature","geometry":{"type":"Point","coordinates":[135.9875,33.7322222]},"properties":{"id":222088009,"name":"熊野大橋","name_kana":"くまのおおはし","ofc_cd":86,"sys_id":2,"sys_cam_id":"22088111","pause":0,"date_type":0,"cam_kind":2,"own_cd":22088}},{"type":"Feature","geometry":{"type":"Point","coordinates":[135.8557167,33.832175]},"properties":{"id":222088010,"name":"北山川合流地点","name_kana":"きたやまがわごうりゅうちてん","ofc_cd":86,"sys_id":2,"sys_cam_id":"22088112","pause":0,"date_type":0,"cam_kind":2,"own_cd":22088}},{"type":"Feature","geometry":{"type":"Point","coordinates":[136.0080556,33.723675]},"properties":{"id":222088011,"name":"市田川排水機場02","name_kana":"いちだがわはいすいきじょう０２","ofc_cd":86,"sys_id":2,"sys_cam_id":"22088113","pause":0,"date_type":0,"cam_kind":2,"own_cd":22088}},{"type":"Feature","geometry":{"type":"Point","coordinates":[136.0088889,33.7233222]},"properties":{"id":222088016,"name":"市田川排水機場07","name_kana":"いちだがわはいすいきじょう０７","ofc_cd":86,"sys_id":2,"sys_cam_id":"22088118","pause":0,"date_type":0,"cam_kind":2,"own_cd":22088}},{"type":"Feature","geometry":{"type":"Point","coordinates":[136.0081722,33.7240417]},"properties":{"id":222088017,"name":"市田川排水機場08","name_kana":"いちだがわはいすいきじょう０８","ofc_cd":86,"sys_id":2,"sys_cam_id":"22088119","pause":0,"date_type":0,"cam_kind":2,"own_cd":22088}},{"type":"Feature","geometry":{"type":"Point","coordinates":[136.0084889,33.7242333]},"properties":{"id":222088018,"name":"市田川排水機場01","name_kana":"いちだがわはいすいきじょう０１","ofc_cd":86,"sys_id":2,"sys_cam_id":"22088120","pause":0,"date_type":0,"cam_kind":2,"own_cd":22088}},{"type":"Feature","geometry":{"type":"Point","coordinates":[136.0009778,33.7210389]},"properties":{"id":222088019,"name":"市田川0.9k","name_kana":"いちだがわ０．９きろ","ofc_cd":86,"sys_id":2,"sys_cam_id":"22088121","pause":0,"date_type":0,"cam_kind":2,"own_cd":22088}},{"type":"Feature","geometry":{"type":"Point","coordinates":[136.0000833,33.7229333]},"properties":{"id":222088020,"name":"市田川1.1k","name_kana":"いちだがわ１．１きろ","ofc_cd":86,"sys_id":2,"sys_cam_id":"22088122","pause":0,"date_type":0,"cam_kind":2,"own_cd":22088}},{"type":"Feature","geometry":{"type":"Point","coordinates":[135.9974639,33.7218944]},"properties":{"id":222088021,"name":"市田川1.4k","name_kana":"いちだがわ１．４きろ","ofc_cd":86,"sys_id":2,"sys_cam_id":"22088123","pause":0,"date_type":0,"cam_kind":2,"own_cd":22088}},{"type":"Feature","geometry":{"type":"Point","coordinates":[135.9956389,33.7179667]},"properties":{"id":222088022,"name":"下田水位観測所","name_kana":"しもだすいいかんそくしょ","ofc_cd":86,"sys_id":2,"sys_cam_id":"22088124","pause":0,"date_type":0,"cam_kind":2,"own_cd":22088}}]}