{"type":"FeatureCollection","crs":{"type":"name","properties":{"name":"EPSG:4326"}},"features":[{"type":"Feature","geometry":{"type":"Point","coordinates":[130.613629,32.313083]},"properties":{"id":111009090,"name":"川内川（宮園橋）","name_kana":"","ofc_cd":89,"sys_id":1,"sys_cam_id":"11009090","pause":0,"date_type":2,"cam_kind":4,"own_cd":11009}},{"type":"Feature","geometry":{"type":"Point","coordinates":[130.632319,32.325017]},"properties":{"id":111009091,"name":"川内川（住吉橋）","name_kana":"","ofc_cd":89,"sys_id":1,"sys_cam_id":"11009091","pause":0,"date_type":2,"cam_kind":4,"own_cd":11009}},{"type":"Feature","geometry":{"type":"Point","coordinates":[130.599278,32.270056]},"properties":{"id":111009092,"name":"告川","name_kana":"","ofc_cd":89,"sys_id":1,"sys_cam_id":"11009092","pause":0,"date_type":2,"cam_kind":4,"own_cd":11009}},{"type":"Feature","geometry":{"type":"Point","coordinates":[130.651475,32.258183]},"properties":{"id":111009093,"name":"中園川","name_kana":"","ofc_cd":89,"sys_id":1,"sys_cam_id":"11009093","pause":0,"date_type":2,"cam_kind":4,"own_cd":11009}},{"type":"Feature","geometry":{"type":"Point","coordinates":[130.647242,32.245103]},"properties":{"id":111009094,"name":"芋川（ふれあい球里橋）","name_kana":"","ofc_cd":89,"sys_id":1,"sys_cam_id":"11009094","pause":0,"date_type":2,"cam_kind":4,"own_cd":11009}},{"type":"Feature","geometry":{"type":"Point","coordinates":[130.668442,32.241742]},"properties":{"id":111009095,"name":"那良川","name_kana":"","ofc_cd":89,"sys_id":1,"sys_cam_id":"11009095","pause":0,"date_type":2,"cam_kind":4,"own_cd":11009}},{"type":"Feature","geometry":{"type":"Point","coordinates":[130.689175,32.234255]},"properties":{"id":111009096,"name":"鵜川（鵜口橋）","name_kana":"","ofc_cd":89,"sys_id":1,"sys_cam_id":"11009096","pause":0,"date_type":2,"cam_kind":4,"own_cd":11009}},{"type":"Feature","geometry":{"type":"Point","coordinates":[130.609475,32.266213]},"properties":{"id":122829058,"name":"球磨川左岸４３ｋ８００球磨村大坂間","name_kana":"","ofc_cd":89,"sys_id":1,"sys_cam_id":"22829058","pause":0,"date_type":2,"cam_kind":4,"own_cd":22829}},{"type":"Feature","geometry":{"type":"Point","coordinates":[130.651917,32.250712]},"properties":{"id":122829059,"name":"球磨川左岸４７ｋ８００球磨村一勝地","name_kana":"","ofc_cd":89,"sys_id":1,"sys_cam_id":"22829059","pause":0,"date_type":2,"cam_kind":4,"own_cd":22829}},{"type":"Feature","geometry":{"type":"Point","coordinates":[130.696733,32.233457]},"properties":{"id":122829060,"name":"球磨川右岸５４ｋ０００球磨村今村","name_kana":"","ofc_cd":89,"sys_id":1,"sys_cam_id":"22829060","pause":0,"date_type":2,"cam_kind":4,"own_cd":22829}},{"type":"Feature","geometry":{"type":"Point","coordinates":[130.704149,32.22843]},"properties":{"id":122829061,"name":"球磨川右岸５５ｋ０００地下樋管","name_kana":"","ofc_cd":89,"sys_id":1,"sys_cam_id":"22829061","pause":0,"date_type":2,"cam_kind":4,"own_cd":22829}},{"type":"Feature","geometry":{"type":"Point","coordinates":[130.713851,32.222442]},"properties":{"id":122829062,"name":"球磨川５６ｋ４００紅取橋下流","name_kana":"","ofc_cd":89,"sys_id":1,"sys_cam_id":"22829062","pause":0,"date_type":2,"cam_kind":4,"own_cd":22829}},{"type":"Feature","geometry":{"type":"Point","coordinates":[130.6311111,32.2599972]},"properties":{"id":222829005,"name":"淋","name_kana":"","ofc_cd":89,"sys_id":2,"sys_cam_id":"22829048","pause":0,"date_type":0,"cam_kind":2,"own_cd":22829}},{"type":"Feature","geometry":{"type":"Point","coordinates":[130.6088861,32.3044417]},"properties":{"id":222829007,"name":"神瀬橋","name_kana":"","ofc_cd":89,"sys_id":2,"sys_cam_id":"22829050","pause":0,"date_type":0,"cam_kind":2,"own_cd":22829}},{"type":"Feature","geometry":{"type":"Point","coordinates":[130.6113861,32.2797194]},"properties":{"id":222829009,"name":"大瀬洞門","name_kana":"","ofc_cd":89,"sys_id":2,"sys_cam_id":"22829052","pause":0,"date_type":0,"cam_kind":2,"own_cd":22829}},{"type":"Feature","geometry":{"type":"Point","coordinates":[130.6044417,32.2808333]},"properties":{"id":222829010,"name":"大瀬橋","name_kana":"","ofc_cd":89,"sys_id":2,"sys_cam_id":"22829053","pause":0,"date_type":0,"cam_kind":2,"own_cd":22829}},{"type":"Feature","geometry":{"type":"Point","coordinates":[130.6513889,32.2524972]},"properties":{"id":222829011,"name":"球磨村役場","name_kana":"","ofc_cd":89,"sys_id":2,"sys_cam_id":"22829054","pause":0,"date_type":0,"cam_kind":2,"own_cd":22829}},{"type":"Feature","geometry":{"type":"Point","coordinates":[130.6873472,32.2407028]},"properties":{"id":222829012,"name":"渡","name_kana":"","ofc_cd":89,"sys_id":2,"sys_cam_id":"22829055","pause":0,"date_type":0,"cam_kind":2,"own_cd":22829}},{"type":"Feature","geometry":{"type":"Point","coordinates":[130.6046278,32.2992583]},"properties":{"id":222829030,"name":"神瀬甲","name_kana":"","ofc_cd":89,"sys_id":2,"sys_cam_id":"22829073","pause":0,"date_type":0,"cam_kind":2,"own_cd":22829}},{"type":"Feature","geometry":{"type":"Point","coordinates":[130.6941639,32.2383333]},"properties":{"id":311009033,"name":"小川(球磨村渡)","name_kana":"","ofc_cd":43,"sys_id":3,"sys_cam_id":"43010132","pause":0,"date_type":1,"cam_kind":2,"own_cd":11009}}]}