{"type":"FeatureCollection","crs":{"type":"name","properties":{"name":"EPSG:4326"}},"features":[{"type":"Feature","geometry":{"type":"Point","coordinates":[129.637111,33.299396]},"properties":{"id":110753010,"name":"高岩橋（江迎川）","name_kana":"","ofc_cd":89,"sys_id":1,"sys_cam_id":"10753010","pause":0,"date_type":2,"cam_kind":4,"own_cd":10753}},{"type":"Feature","geometry":{"type":"Point","coordinates":[129.66692,33.19552]},"properties":{"id":110753012,"name":"相浦橋（相浦川）","name_kana":"","ofc_cd":89,"sys_id":1,"sys_cam_id":"10753012","pause":0,"date_type":2,"cam_kind":4,"own_cd":10753}},{"type":"Feature","geometry":{"type":"Point","coordinates":[129.714859,33.179503]},"properties":{"id":110753013,"name":"県北振興局（佐世保川）","name_kana":"","ofc_cd":89,"sys_id":1,"sys_cam_id":"10753013","pause":0,"date_type":2,"cam_kind":4,"own_cd":10753}},{"type":"Feature","geometry":{"type":"Point","coordinates":[129.798923,33.139421]},"properties":{"id":110753014,"name":"花高バイパス橋（早岐川）","name_kana":"","ofc_cd":89,"sys_id":1,"sys_cam_id":"10753014","pause":0,"date_type":2,"cam_kind":4,"own_cd":10753}},{"type":"Feature","geometry":{"type":"Point","coordinates":[129.804351,33.130594]},"properties":{"id":110753015,"name":"小森橋（小森川）","name_kana":"","ofc_cd":89,"sys_id":1,"sys_cam_id":"10753015","pause":0,"date_type":2,"cam_kind":4,"own_cd":10753}},{"type":"Feature","geometry":{"type":"Point","coordinates":[129.81472,33.087041]},"properties":{"id":110753016,"name":"朝日橋（宮村川）","name_kana":"","ofc_cd":89,"sys_id":1,"sys_cam_id":"10753016","pause":0,"date_type":2,"cam_kind":4,"own_cd":10753}}]}