{"type":"FeatureCollection","crs":{"type":"name","properties":{"name":"EPSG:4326"}},"features":[{"type":"Feature","geometry":{"type":"Point","coordinates":[130.0793083,33.2582888]},"properties":{"id":122865019,"name":"牛津川22k300L道祖元第2樋管","name_kana":"","ofc_cd":89,"sys_id":1,"sys_cam_id":"22865019","pause":0,"date_type":2,"cam_kind":4,"own_cd":22865}},{"type":"Feature","geometry":{"type":"Point","coordinates":[130.160528,33.275583]},"properties":{"id":122865035,"name":"牛津川12k900右岸","name_kana":"","ofc_cd":89,"sys_id":1,"sys_cam_id":"22865035","pause":0,"date_type":2,"cam_kind":4,"own_cd":22865}},{"type":"Feature","geometry":{"type":"Point","coordinates":[130.145586,33.273832]},"properties":{"id":122865036,"name":"牛津川14k600右岸","name_kana":"","ofc_cd":89,"sys_id":1,"sys_cam_id":"22865036","pause":0,"date_type":2,"cam_kind":4,"own_cd":22865}},{"type":"Feature","geometry":{"type":"Point","coordinates":[130.111218,33.271657]},"properties":{"id":122865037,"name":"牛津川18k500左岸","name_kana":"","ofc_cd":89,"sys_id":1,"sys_cam_id":"22865037","pause":0,"date_type":2,"cam_kind":4,"own_cd":22865}},{"type":"Feature","geometry":{"type":"Point","coordinates":[130.081729,33.259331]},"properties":{"id":122865038,"name":"牛津川22k000右岸","name_kana":"","ofc_cd":89,"sys_id":1,"sys_cam_id":"22865038","pause":0,"date_type":2,"cam_kind":4,"own_cd":22865}},{"type":"Feature","geometry":{"type":"Point","coordinates":[130.1402778,33.2713861]},"properties":{"id":222819020,"name":"牟田辺（排）屋上","name_kana":"","ofc_cd":89,"sys_id":2,"sys_cam_id":"22865029","pause":0,"date_type":0,"cam_kind":2,"own_cd":22865}},{"type":"Feature","geometry":{"type":"Point","coordinates":[130.13280555,33.271763889]},"properties":{"id":222819021,"name":"牟田辺（排）遊水地","name_kana":"","ofc_cd":89,"sys_id":2,"sys_cam_id":"22865030","pause":0,"date_type":0,"cam_kind":2,"own_cd":22865}},{"type":"Feature","geometry":{"type":"Point","coordinates":[130.1416639,33.2730528]},"properties":{"id":222819022,"name":"平瀬橋","name_kana":"","ofc_cd":89,"sys_id":2,"sys_cam_id":"22865031","pause":0,"date_type":0,"cam_kind":2,"own_cd":22865}},{"type":"Feature","geometry":{"type":"Point","coordinates":[130.1463861,33.2755556]},"properties":{"id":222819023,"name":"羽佐間","name_kana":"","ofc_cd":89,"sys_id":2,"sys_cam_id":"22865032","pause":0,"date_type":0,"cam_kind":2,"own_cd":22865}},{"type":"Feature","geometry":{"type":"Point","coordinates":[130.1516667,33.2763861]},"properties":{"id":222819024,"name":"妙見橋","name_kana":"","ofc_cd":89,"sys_id":2,"sys_cam_id":"22865033","pause":0,"date_type":0,"cam_kind":2,"own_cd":22865}},{"type":"Feature","geometry":{"type":"Point","coordinates":[130.1769444,33.2608306]},"properties":{"id":222819026,"name":"山崎","name_kana":"","ofc_cd":89,"sys_id":2,"sys_cam_id":"22865035","pause":0,"date_type":0,"cam_kind":2,"own_cd":22865}},{"type":"Feature","geometry":{"type":"Point","coordinates":[130.1813861,33.2524972]},"properties":{"id":222819027,"name":"晴気川合流点","name_kana":"","ofc_cd":89,"sys_id":2,"sys_cam_id":"22865036","pause":0,"date_type":0,"cam_kind":2,"own_cd":22865}},{"type":"Feature","geometry":{"type":"Point","coordinates":[130.1419444,33.2730528]},"properties":{"id":222819031,"name":"牟田辺（排）越流提","name_kana":"","ofc_cd":89,"sys_id":2,"sys_cam_id":"22865040","pause":0,"date_type":0,"cam_kind":2,"own_cd":22865}},{"type":"Feature","geometry":{"type":"Point","coordinates":[130.0936111,33.265275]},"properties":{"id":222819055,"name":"小井手堰","name_kana":"","ofc_cd":89,"sys_id":2,"sys_cam_id":"22865064","pause":0,"date_type":0,"cam_kind":2,"own_cd":22865}},{"type":"Feature","geometry":{"type":"Point","coordinates":[130.1299972,33.2738889]},"properties":{"id":222819056,"name":"庄川","name_kana":"","ofc_cd":89,"sys_id":2,"sys_cam_id":"22865065","pause":0,"date_type":0,"cam_kind":2,"own_cd":22865}},{"type":"Feature","geometry":{"type":"Point","coordinates":[130.12275,33.273]},"properties":{"id":222819068,"name":"鰐ノ瀬堰","name_kana":"","ofc_cd":89,"sys_id":2,"sys_cam_id":"22865076","pause":0,"date_type":0,"cam_kind":2,"own_cd":22865}},{"type":"Feature","geometry":{"type":"Point","coordinates":[130.1175,33.27538888]},"properties":{"id":222819069,"name":"長尾","name_kana":"","ofc_cd":89,"sys_id":2,"sys_cam_id":"22865077","pause":0,"date_type":0,"cam_kind":2,"own_cd":22865}},{"type":"Feature","geometry":{"type":"Point","coordinates":[130.125694444,33.287916666]},"properties":{"id":310497017,"name":"今出橋","name_kana":"","ofc_cd":41,"sys_id":3,"sys_cam_id":"41010074","pause":0,"date_type":1,"cam_kind":2,"own_cd":10497}},{"type":"Feature","geometry":{"type":"Point","coordinates":[130.093483333,33.285958333]},"properties":{"id":310497018,"name":"北田橋","name_kana":"","ofc_cd":41,"sys_id":3,"sys_cam_id":"41010078","pause":0,"date_type":1,"cam_kind":2,"own_cd":10497}}]}