{"type":"FeatureCollection","crs":{"type":"name","properties":{"name":"EPSG:4326"}},"features":[{"type":"Feature","geometry":{"type":"Point","coordinates":[137.1491943,37.3093205]},"properties":{"id":104353038,"name":"梅の木川（第2城都橋）","name_kana":"うめのきかわ（だいにしろとばし）","ofc_cd":84,"sys_id":1,"sys_cam_id":"4353038","pause":0,"date_type":1,"cam_kind":4,"own_cd":4353}},{"type":"Feature","geometry":{"type":"Point","coordinates":[137.082612,37.255193]},"properties":{"id":104353084,"name":"山田川（天神橋）","name_kana":"やまだがわ（てんじんばし）","ofc_cd":84,"sys_id":1,"sys_cam_id":"4353084","pause":0,"date_type":2,"cam_kind":4,"own_cd":4353}},{"type":"Feature","geometry":{"type":"Point","coordinates":[137.149256,37.312561]},"properties":{"id":104353085,"name":"梶川（梶川橋）","name_kana":"かじかわ（かじかわばし）","ofc_cd":84,"sys_id":1,"sys_cam_id":"4353085","pause":0,"date_type":2,"cam_kind":4,"own_cd":4353}},{"type":"Feature","geometry":{"type":"Point","coordinates":[137.209525,37.335768]},"properties":{"id":104353086,"name":"九里川尻川（末次橋）","name_kana":"くりかわしりがわ（すえつぎばし）","ofc_cd":84,"sys_id":1,"sys_cam_id":"4353086","pause":0,"date_type":2,"cam_kind":4,"own_cd":4353}},{"type":"Feature","geometry":{"type":"Point","coordinates":[137.060424,37.37351]},"properties":{"id":104353087,"name":"町野川（五十里橋）","name_kana":"まちのかわ（いかりばし）","ofc_cd":84,"sys_id":1,"sys_cam_id":"4353087","pause":0,"date_type":2,"cam_kind":4,"own_cd":4353}},{"type":"Feature","geometry":{"type":"Point","coordinates":[137.102018,37.326138]},"properties":{"id":104353101,"name":"神野川（中蔵橋）","name_kana":"かんのがわ（なかくらばし）","ofc_cd":84,"sys_id":1,"sys_cam_id":"4353101","pause":0,"date_type":1,"cam_kind":4,"own_cd":4353}},{"type":"Feature","geometry":{"type":"Point","coordinates":[137.261975,37.328841]},"properties":{"id":104353103,"name":"白丸川（宮崎橋）","name_kana":"しろまるかわ（みやざきばし）","ofc_cd":84,"sys_id":1,"sys_cam_id":"4353103","pause":0,"date_type":1,"cam_kind":4,"own_cd":4353}},{"type":"Feature","geometry":{"type":"Point","coordinates":[137.028826,37.277286]},"properties":{"id":104353104,"name":"本木川（本木橋）","name_kana":"ほんきがわ（ほんきばし）","ofc_cd":84,"sys_id":1,"sys_cam_id":"4353104","pause":0,"date_type":1,"cam_kind":4,"own_cd":4353}},{"type":"Feature","geometry":{"type":"Point","coordinates":[137.0755278,37.37697222]},"properties":{"id":104353172,"name":"町野川（岡田橋）","name_kana":"まちのがわ（おかだばし）","ofc_cd":84,"sys_id":1,"sys_cam_id":"4353172","pause":0,"date_type":2,"cam_kind":4,"own_cd":4353}},{"type":"Feature","geometry":{"type":"Point","coordinates":[137.0990556,37.36694444]},"properties":{"id":304353048,"name":"奥能登土木　町野川　石井橋","name_kana":"まちのかわ　いしいばし","ofc_cd":17,"sys_id":3,"sys_cam_id":"4353048","pause":0,"date_type":1,"cam_kind":2,"own_cd":4353}},{"type":"Feature","geometry":{"type":"Point","coordinates":[137.125,37.291666667]},"properties":{"id":304353053,"name":"奥能登土木　能登内浦沿岸　藤波","name_kana":"のとうちうらえんがん　ふじなみ","ofc_cd":17,"sys_id":3,"sys_cam_id":"4353053","pause":0,"date_type":1,"cam_kind":2,"own_cd":4353}},{"type":"Feature","geometry":{"type":"Point","coordinates":[137.119444444,37.288888889]},"properties":{"id":304353054,"name":"奥能登土木　能登内浦沿岸　波並","name_kana":"のとうちうらえんがん　はなみ","ofc_cd":17,"sys_id":3,"sys_cam_id":"4353054","pause":0,"date_type":1,"cam_kind":2,"own_cd":4353}},{"type":"Feature","geometry":{"type":"Point","coordinates":[137.171666667,37.299722222]},"properties":{"id":304353055,"name":"奥能登土木　能登内浦沿岸　羽根","name_kana":"のとうちうらえんがん　はね","ofc_cd":17,"sys_id":3,"sys_cam_id":"4353055","pause":0,"date_type":1,"cam_kind":2,"own_cd":4353}},{"type":"Feature","geometry":{"type":"Point","coordinates":[137.1001667,37.36583333]},"properties":{"id":304353058,"name":"奥能登土木　上町川　笹川橋","name_kana":"かんまちかわ　ささがわばし","ofc_cd":17,"sys_id":3,"sys_cam_id":"4353058","pause":0,"date_type":1,"cam_kind":2,"own_cd":4353}},{"type":"Feature","geometry":{"type":"Point","coordinates":[137.2365556,37.3525]},"properties":{"id":304353059,"name":"奥能登土木　松波川　多喜尾橋","name_kana":"まつなみかわ　たきおばし","ofc_cd":17,"sys_id":3,"sys_cam_id":"4353059","pause":0,"date_type":1,"cam_kind":2,"own_cd":4353}},{"type":"Feature","geometry":{"type":"Point","coordinates":[137.044722222,37.280555556]},"properties":{"id":304353060,"name":"奥能登土木　山田川　瑞穂橋","name_kana":"やまだかわ　みずほばし","ofc_cd":17,"sys_id":3,"sys_cam_id":"4353060","pause":0,"date_type":1,"cam_kind":2,"own_cd":4353}},{"type":"Feature","geometry":{"type":"Point","coordinates":[137.1137778,37.38027777]},"properties":{"id":304353062,"name":"奥能登土木　町野川　小間生橋","name_kana":"まちのかわ　おもうばし","ofc_cd":17,"sys_id":3,"sys_cam_id":"4353062","pause":0,"date_type":1,"cam_kind":2,"own_cd":4353}}]}