{"type":"FeatureCollection","crs":{"type":"name","properties":{"name":"EPSG:4326"}},"features":[{"type":"Feature","geometry":{"type":"Point","coordinates":[130.497775,33.3572222]},"properties":{"id":222816008,"name":"安良川上流","name_kana":"","ofc_cd":89,"sys_id":2,"sys_cam_id":"22816008","pause":0,"date_type":0,"cam_kind":2,"own_cd":22816}},{"type":"Feature","geometry":{"type":"Point","coordinates":[130.5144333,33.3462167]},"properties":{"id":222816032,"name":"前川排水機場＿内水位","name_kana":"","ofc_cd":89,"sys_id":2,"sys_cam_id":"22816042","pause":0,"date_type":0,"cam_kind":2,"own_cd":22816}},{"type":"Feature","geometry":{"type":"Point","coordinates":[130.5099694,33.3465056]},"properties":{"id":222816033,"name":"轟木排水機場＿内水位","name_kana":"","ofc_cd":89,"sys_id":2,"sys_cam_id":"22816043","pause":0,"date_type":0,"cam_kind":2,"own_cd":22816}},{"type":"Feature","geometry":{"type":"Point","coordinates":[130.5144444,33.3444444]},"properties":{"id":222816056,"name":"宝満川右岸01K500前川排水機場＿外水位","name_kana":"","ofc_cd":89,"sys_id":2,"sys_cam_id":"22816066","pause":0,"date_type":0,"cam_kind":2,"own_cd":22816}},{"type":"Feature","geometry":{"type":"Point","coordinates":[130.5115917,33.3449778]},"properties":{"id":222816057,"name":"宝満川右岸01K260轟木排水機場＿外水位","name_kana":"","ofc_cd":89,"sys_id":2,"sys_cam_id":"22816067","pause":0,"date_type":0,"cam_kind":2,"own_cd":22816}},{"type":"Feature","geometry":{"type":"Point","coordinates":[130.538888888,33.379166666]},"properties":{"id":310497003,"name":"飯田橋","name_kana":"","ofc_cd":41,"sys_id":3,"sys_cam_id":"41010018","pause":0,"date_type":1,"cam_kind":2,"own_cd":10497}},{"type":"Feature","geometry":{"type":"Point","coordinates":[130.532927777,33.367866666]},"properties":{"id":310497005,"name":"酒井上橋","name_kana":"","ofc_cd":41,"sys_id":3,"sys_cam_id":"41010026","pause":0,"date_type":1,"cam_kind":2,"own_cd":10497}},{"type":"Feature","geometry":{"type":"Point","coordinates":[130.49775,33.361694444]},"properties":{"id":310497006,"name":"幸津橋","name_kana":"","ofc_cd":41,"sys_id":3,"sys_cam_id":"41010030","pause":0,"date_type":1,"cam_kind":2,"own_cd":10497}}]}