{"type":"FeatureCollection","crs":{"type":"name","properties":{"name":"EPSG:4326"}},"features":[{"type":"Feature","geometry":{"type":"Point","coordinates":[138.2344349,36.4054211]},"properties":{"id":105121029,"name":"矢出沢川橋","name_kana":"やでさわばし","ofc_cd":84,"sys_id":1,"sys_cam_id":"5121029","pause":0,"date_type":1,"cam_kind":4,"own_cd":5121}},{"type":"Feature","geometry":{"type":"Point","coordinates":[138.1914935,36.3502551]},"properties":{"id":105121030,"name":"新前橋","name_kana":"しんまえばし","ofc_cd":84,"sys_id":1,"sys_cam_id":"5121030","pause":0,"date_type":1,"cam_kind":4,"own_cd":5121}},{"type":"Feature","geometry":{"type":"Point","coordinates":[138.292145,36.3616843]},"properties":{"id":105121031,"name":"矢の沢橋","name_kana":"やのさわばし","ofc_cd":84,"sys_id":1,"sys_cam_id":"5121031","pause":0,"date_type":1,"cam_kind":4,"own_cd":5121}},{"type":"Feature","geometry":{"type":"Point","coordinates":[138.1537111,36.3721758]},"properties":{"id":105121179,"name":"越戸","name_kana":"こうど","ofc_cd":84,"sys_id":1,"sys_cam_id":"5121179","pause":0,"date_type":1,"cam_kind":4,"own_cd":5121}},{"type":"Feature","geometry":{"type":"Point","coordinates":[138.293549,36.3982968]},"properties":{"id":105121182,"name":"神川水位局","name_kana":"かんがわすいいきょく","ofc_cd":84,"sys_id":1,"sys_cam_id":"5121182","pause":0,"date_type":1,"cam_kind":4,"own_cd":5121}},{"type":"Feature","geometry":{"type":"Point","coordinates":[138.2814935,36.3511865]},"properties":{"id":105121183,"name":"依田橋","name_kana":"よだばし","ofc_cd":84,"sys_id":1,"sys_cam_id":"5121183","pause":0,"date_type":1,"cam_kind":4,"own_cd":5121}},{"type":"Feature","geometry":{"type":"Point","coordinates":[138.2651044,36.3252271]},"properties":{"id":105121184,"name":"内村橋","name_kana":"うちむらばし","ofc_cd":84,"sys_id":1,"sys_cam_id":"5121184","pause":0,"date_type":1,"cam_kind":4,"own_cd":5121}},{"type":"Feature","geometry":{"type":"Point","coordinates":[138.297247,36.36693]},"properties":{"id":105121227,"name":"大屋橋","name_kana":"おおやばし","ofc_cd":84,"sys_id":1,"sys_cam_id":"5121227","pause":0,"date_type":1,"cam_kind":4,"own_cd":5121}},{"type":"Feature","geometry":{"type":"Point","coordinates":[138.186278,36.301289]},"properties":{"id":105121228,"name":"霊泉寺橋","name_kana":"れいせんじばし","ofc_cd":84,"sys_id":1,"sys_cam_id":"5121228","pause":0,"date_type":1,"cam_kind":4,"own_cd":5121}},{"type":"Feature","geometry":{"type":"Point","coordinates":[138.267768,36.321969]},"properties":{"id":105121230,"name":"丸子橋","name_kana":"まるこばし","ofc_cd":84,"sys_id":1,"sys_cam_id":"5121230","pause":0,"date_type":1,"cam_kind":4,"own_cd":5121}},{"type":"Feature","geometry":{"type":"Point","coordinates":[138.346859,36.475255]},"properties":{"id":105121231,"name":"丸山橋","name_kana":"まるやまばし","ofc_cd":84,"sys_id":1,"sys_cam_id":"5121231","pause":0,"date_type":1,"cam_kind":4,"own_cd":5121}},{"type":"Feature","geometry":{"type":"Point","coordinates":[138.29161111,36.36855555]},"properties":{"id":121545083,"name":"千曲川(R109.0kp)上田市大屋","name_kana":"","ofc_cd":84,"sys_id":1,"sys_cam_id":"21545083","pause":0,"date_type":1,"cam_kind":4,"own_cd":21545}},{"type":"Feature","geometry":{"type":"Point","coordinates":[138.2428639,36.3948889]},"properties":{"id":221545011,"name":"上田橋","name_kana":"","ofc_cd":84,"sys_id":2,"sys_cam_id":"20010011","pause":0,"date_type":0,"cam_kind":3,"own_cd":21545}},{"type":"Feature","geometry":{"type":"Point","coordinates":[138.2693389,36.3746722]},"properties":{"id":221545012,"name":"国分","name_kana":"","ofc_cd":84,"sys_id":2,"sys_cam_id":"20010012","pause":0,"date_type":0,"cam_kind":3,"own_cd":21545}},{"type":"Feature","geometry":{"type":"Point","coordinates":[138.2822667,36.3696444]},"properties":{"id":221545013,"name":"生田","name_kana":"","ofc_cd":84,"sys_id":2,"sys_cam_id":"20010013","pause":0,"date_type":0,"cam_kind":3,"own_cd":21545}}]}