{"type":"FeatureCollection","crs":{"type":"name","properties":{"name":"EPSG:4326"}},"features":[{"type":"Feature","geometry":{"type":"Point","coordinates":[140.478787,38.413551]},"properties":{"id":101537019,"name":"乱川（養老橋付近）","name_kana":"","ofc_cd":82,"sys_id":1,"sys_cam_id":"1537019","pause":0,"date_type":2,"cam_kind":4,"own_cd":1537}},{"type":"Feature","geometry":{"type":"Point","coordinates":[140.380726,38.420915]},"properties":{"id":101537020,"name":"村山野川（野川橋付近）","name_kana":"","ofc_cd":82,"sys_id":1,"sys_cam_id":"1537020","pause":0,"date_type":2,"cam_kind":4,"own_cd":1537}},{"type":"Feature","geometry":{"type":"Point","coordinates":[140.368023,38.447405]},"properties":{"id":101537021,"name":"白水川（蟹沢橋付近）","name_kana":"","ofc_cd":82,"sys_id":1,"sys_cam_id":"1537021","pause":0,"date_type":2,"cam_kind":4,"own_cd":1537}},{"type":"Feature","geometry":{"type":"Point","coordinates":[140.400939,38.438565]},"properties":{"id":101537028,"name":"日塔川（柳町一本橋付近）","name_kana":"","ofc_cd":82,"sys_id":1,"sys_cam_id":"1537028","pause":0,"date_type":2,"cam_kind":4,"own_cd":1537}},{"type":"Feature","geometry":{"type":"Point","coordinates":[140.4015864,38.4372402]},"properties":{"id":101537032,"name":"白水川（源氏坂橋付近）","name_kana":"","ofc_cd":82,"sys_id":1,"sys_cam_id":"1537032","pause":0,"date_type":2,"cam_kind":4,"own_cd":1537}},{"type":"Feature","geometry":{"type":"Point","coordinates":[140.381262,38.445573]},"properties":{"id":101537033,"name":"白水川（新白水川橋付近）","name_kana":"","ofc_cd":82,"sys_id":1,"sys_cam_id":"1537033","pause":0,"date_type":2,"cam_kind":4,"own_cd":1537}},{"type":"Feature","geometry":{"type":"Point","coordinates":[140.350266,38.425157]},"properties":{"id":121053188,"name":"村山野川簡易カメラ","name_kana":"むらやまのがわかんいかめら","ofc_cd":82,"sys_id":1,"sys_cam_id":"21053188","pause":0,"date_type":2,"cam_kind":4,"own_cd":21053}},{"type":"Feature","geometry":{"type":"Point","coordinates":[140.346414,38.427733]},"properties":{"id":221053056,"name":"荷口川合流点","name_kana":"","ofc_cd":82,"sys_id":2,"sys_cam_id":"21053050","pause":0,"date_type":0,"cam_kind":2,"own_cd":21053}}]}