{"type":"FeatureCollection","crs":{"type":"name","properties":{"name":"EPSG:4326"}},"features":[{"type":"Feature","geometry":{"type":"Point","coordinates":[141.05444444,39.37916666]},"properties":{"id":100769023,"name":"上根子橋","name_kana":"","ofc_cd":82,"sys_id":1,"sys_cam_id":"769023","pause":0,"date_type":1,"cam_kind":4,"own_cd":769}},{"type":"Feature","geometry":{"type":"Point","coordinates":[141.11861111,39.39222222]},"properties":{"id":100769024,"name":"下小舟渡","name_kana":"","ofc_cd":82,"sys_id":1,"sys_cam_id":"769024","pause":0,"date_type":1,"cam_kind":4,"own_cd":769}},{"type":"Feature","geometry":{"type":"Point","coordinates":[141.25122083,39.47708972]},"properties":{"id":100769025,"name":"亀ケ森","name_kana":"","ofc_cd":82,"sys_id":1,"sys_cam_id":"769025","pause":0,"date_type":1,"cam_kind":4,"own_cd":769}},{"type":"Feature","geometry":{"type":"Point","coordinates":[141.28192694,39.46687388]},"properties":{"id":100769026,"name":"大迫","name_kana":"","ofc_cd":82,"sys_id":1,"sys_cam_id":"769026","pause":0,"date_type":1,"cam_kind":4,"own_cd":769}},{"type":"Feature","geometry":{"type":"Point","coordinates":[141.32572694,39.50178888]},"properties":{"id":100769027,"name":"稲荷橋","name_kana":"","ofc_cd":82,"sys_id":1,"sys_cam_id":"769027","pause":0,"date_type":1,"cam_kind":4,"own_cd":769}},{"type":"Feature","geometry":{"type":"Point","coordinates":[141.176111,39.425678]},"properties":{"id":121023037,"name":"北上川上流 左岸 97.0キロ","name_kana":"きたかみがわじょうりゅう さがん 97.0キロ","ofc_cd":82,"sys_id":1,"sys_cam_id":"21023037","pause":0,"date_type":2,"cam_kind":4,"own_cd":21023}},{"type":"Feature","geometry":{"type":"Point","coordinates":[141.171609,39.431058]},"properties":{"id":121023038,"name":"北上川上流 左岸 97.8キロ","name_kana":"きたかみがわじょうりゅう さがん 97.8キロ","ofc_cd":82,"sys_id":1,"sys_cam_id":"21023038","pause":0,"date_type":2,"cam_kind":4,"own_cd":21023}},{"type":"Feature","geometry":{"type":"Point","coordinates":[141.160293,39.432441]},"properties":{"id":121023039,"name":"北上川上流 左岸 98.8キロ","name_kana":"きたかみがわじょうりゅう さがん 98.8キロ","ofc_cd":82,"sys_id":1,"sys_cam_id":"21023039","pause":0,"date_type":0,"cam_kind":4,"own_cd":21023}},{"type":"Feature","geometry":{"type":"Point","coordinates":[141.155222,39.461861]},"properties":{"id":121023040,"name":"北上川上流 左岸 103.4キロ","name_kana":"きたかみがわじょうりゅう さがん 103.4キロ","ofc_cd":82,"sys_id":1,"sys_cam_id":"21023040","pause":0,"date_type":2,"cam_kind":4,"own_cd":21023}},{"type":"Feature","geometry":{"type":"Point","coordinates":[141.15888,39.467025]},"properties":{"id":121023041,"name":"北上川上流 右岸 104.0キロ","name_kana":"きたかみがわじょうりゅう うがん 104.0キロ","ofc_cd":82,"sys_id":1,"sys_cam_id":"21023041","pause":0,"date_type":2,"cam_kind":4,"own_cd":21023}},{"type":"Feature","geometry":{"type":"Point","coordinates":[141.16118889,39.47595278]},"properties":{"id":121023042,"name":"北上川上流 左岸 105.4キロ","name_kana":"きたかみがわじょうりゅう さがん 105.4キロ","ofc_cd":82,"sys_id":1,"sys_cam_id":"21023042","pause":0,"date_type":0,"cam_kind":4,"own_cd":21023}},{"type":"Feature","geometry":{"type":"Point","coordinates":[141.15159,39.489862]},"properties":{"id":121023043,"name":"北上川上流 右岸 107.0キロ","name_kana":"きたかみがわじょうりゅう うがん 107.0キロ","ofc_cd":82,"sys_id":1,"sys_cam_id":"21023043","pause":0,"date_type":2,"cam_kind":4,"own_cd":21023}},{"type":"Feature","geometry":{"type":"Point","coordinates":[141.122698,39.381882]},"properties":{"id":121023059,"name":"豊沢川 左岸 0.4キロ","name_kana":"とよさわがわ さがん 0.4キロ","ofc_cd":82,"sys_id":1,"sys_cam_id":"21023059","pause":0,"date_type":2,"cam_kind":4,"own_cd":21023}},{"type":"Feature","geometry":{"type":"Point","coordinates":[141.201862,39.362032]},"properties":{"id":121023060,"name":"猿ヶ石川 右岸 10.0キロ","name_kana":"さるがいしがわ うがん 10.0キロ","ofc_cd":82,"sys_id":1,"sys_cam_id":"21023060","pause":0,"date_type":2,"cam_kind":4,"own_cd":21023}},{"type":"Feature","geometry":{"type":"Point","coordinates":[141.223595,39.3738929]},"properties":{"id":121023061,"name":"猿ヶ石川 左岸 12.6キロ","name_kana":"さるがいしがわ さがん 12.6キロ","ofc_cd":82,"sys_id":1,"sys_cam_id":"21023061","pause":0,"date_type":2,"cam_kind":4,"own_cd":21023}},{"type":"Feature","geometry":{"type":"Point","coordinates":[141.1525,39.49252]},"properties":{"id":221023007,"name":"石鳥谷","name_kana":"","ofc_cd":82,"sys_id":2,"sys_cam_id":"21023007","pause":0,"date_type":0,"cam_kind":2,"own_cd":21023}},{"type":"Feature","geometry":{"type":"Point","coordinates":[141.129167,39.394724]},"properties":{"id":221023008,"name":"花巻水辺プラザ","name_kana":"","ofc_cd":82,"sys_id":2,"sys_cam_id":"21023008","pause":0,"date_type":0,"cam_kind":2,"own_cd":21023}},{"type":"Feature","geometry":{"type":"Point","coordinates":[141.150836,39.392225]},"properties":{"id":221023023,"name":"安野橋","name_kana":"","ofc_cd":82,"sys_id":2,"sys_cam_id":"21023023","pause":0,"date_type":0,"cam_kind":2,"own_cd":21023}},{"type":"Feature","geometry":{"type":"Point","coordinates":[141.126948,39.380581]},"properties":{"id":221023024,"name":"朝日大橋","name_kana":"","ofc_cd":82,"sys_id":2,"sys_cam_id":"21023024","pause":0,"date_type":0,"cam_kind":2,"own_cd":21023}},{"type":"Feature","geometry":{"type":"Point","coordinates":[141.15447,39.383356]},"properties":{"id":221023047,"name":"中野橋","name_kana":"","ofc_cd":82,"sys_id":2,"sys_cam_id":"21023047","pause":0,"date_type":0,"cam_kind":2,"own_cd":21023}},{"type":"Feature","geometry":{"type":"Point","coordinates":[141.127222,39.391113]},"properties":{"id":221023048,"name":"後川","name_kana":"","ofc_cd":82,"sys_id":2,"sys_cam_id":"21023048","pause":0,"date_type":0,"cam_kind":2,"own_cd":21023}},{"type":"Feature","geometry":{"type":"Point","coordinates":[141.243907,39.375559]},"properties":{"id":221023062,"name":"町井","name_kana":"","ofc_cd":82,"sys_id":2,"sys_cam_id":"21023062","pause":0,"date_type":0,"cam_kind":2,"own_cd":21023}},{"type":"Feature","geometry":{"type":"Point","coordinates":[141.311333,39.345053]},"properties":{"id":221024001,"name":"小倉カメラ","name_kana":"こくらかめら","ofc_cd":82,"sys_id":2,"sys_cam_id":"21024001","pause":0,"date_type":0,"cam_kind":2,"own_cd":21024}},{"type":"Feature","geometry":{"type":"Point","coordinates":[141.320078,39.342917]},"properties":{"id":221024009,"name":"ダム右岸下流","name_kana":"だむうがんかりゅう","ofc_cd":82,"sys_id":2,"sys_cam_id":"21024009","pause":1,"date_type":0,"cam_kind":2,"own_cd":21024}},{"type":"Feature","geometry":{"type":"Point","coordinates":[141.319997,39.343808]},"properties":{"id":221024010,"name":"ダム左岸下流","name_kana":"だむさがんかりゅう","ofc_cd":82,"sys_id":2,"sys_cam_id":"21024010","pause":0,"date_type":0,"cam_kind":2,"own_cd":21024}},{"type":"Feature","geometry":{"type":"Point","coordinates":[141.316939,39.341717]},"properties":{"id":221024011,"name":"ダム右岸上流","name_kana":"だむうがんじょうりゅう","ofc_cd":82,"sys_id":2,"sys_cam_id":"21024011","pause":0,"date_type":0,"cam_kind":2,"own_cd":21024}},{"type":"Feature","geometry":{"type":"Point","coordinates":[141.258,39.362556]},"properties":{"id":221024020,"name":"上瀬橋","name_kana":"かみせばし","ofc_cd":82,"sys_id":2,"sys_cam_id":"21024020","pause":0,"date_type":0,"cam_kind":2,"own_cd":21024}},{"type":"Feature","geometry":{"type":"Point","coordinates":[141.326389,39.301886]},"properties":{"id":221024023,"name":"白土","name_kana":"しろつち","ofc_cd":82,"sys_id":2,"sys_cam_id":"21024023","pause":0,"date_type":0,"cam_kind":2,"own_cd":21024}},{"type":"Feature","geometry":{"type":"Point","coordinates":[141.339806,39.300917]},"properties":{"id":221024024,"name":"黄金沢","name_kana":"こがねざわ","ofc_cd":82,"sys_id":2,"sys_cam_id":"21024024","pause":0,"date_type":0,"cam_kind":2,"own_cd":21024}},{"type":"Feature","geometry":{"type":"Point","coordinates":[141.319389,39.334361]},"properties":{"id":221024029,"name":"向田瀬１","name_kana":"むかいたせ1","ofc_cd":82,"sys_id":2,"sys_cam_id":"21024029","pause":0,"date_type":0,"cam_kind":2,"own_cd":21024}},{"type":"Feature","geometry":{"type":"Point","coordinates":[141.323972,39.324222]},"properties":{"id":221024030,"name":"向田瀬２","name_kana":"むかいたせ2","ofc_cd":82,"sys_id":2,"sys_cam_id":"21024030","pause":0,"date_type":0,"cam_kind":2,"own_cd":21024}}]}