{"type":"FeatureCollection","crs":{"type":"name","properties":{"name":"EPSG:4326"}},"features":[{"type":"Feature","geometry":{"type":"Point","coordinates":[138.880335,35.939602]},"properties":{"id":221262001,"name":"貯砂ダム","name_kana":"ちょさだむ","ofc_cd":83,"sys_id":2,"sys_cam_id":"21262001","pause":0,"date_type":0,"cam_kind":3,"own_cd":21262}},{"type":"Feature","geometry":{"type":"Point","coordinates":[138.906113,35.94089]},"properties":{"id":221262002,"name":"上流左岸","name_kana":"じょうりゅうさがん","ofc_cd":83,"sys_id":2,"sys_cam_id":"21262002","pause":0,"date_type":0,"cam_kind":3,"own_cd":21262}},{"type":"Feature","geometry":{"type":"Point","coordinates":[138.91061,35.940921]},"properties":{"id":221262004,"name":"上流右岸3","name_kana":"じょうりゅううがんさん","ofc_cd":83,"sys_id":2,"sys_cam_id":"21262004","pause":0,"date_type":0,"cam_kind":3,"own_cd":21262}},{"type":"Feature","geometry":{"type":"Point","coordinates":[138.908396,35.941741]},"properties":{"id":221262005,"name":"ダム上流","name_kana":"だむじょうりゅう","ofc_cd":83,"sys_id":2,"sys_cam_id":"21262005","pause":0,"date_type":0,"cam_kind":3,"own_cd":21262}},{"type":"Feature","geometry":{"type":"Point","coordinates":[138.910902,35.943652]},"properties":{"id":221262006,"name":"ダム展望台","name_kana":"だむてんぼうだい","ofc_cd":83,"sys_id":2,"sys_cam_id":"21262006","pause":0,"date_type":0,"cam_kind":3,"own_cd":21262}}]}