{"type":"FeatureCollection","crs":{"type":"name","properties":{"name":"EPSG:4326"}},"features":[{"type":"Feature","geometry":{"type":"Point","coordinates":[141.07611111,39.90916666]},"properties":{"id":100769017,"name":"田頭","name_kana":"","ofc_cd":82,"sys_id":1,"sys_cam_id":"769017","pause":0,"date_type":1,"cam_kind":4,"own_cd":769}},{"type":"Feature","geometry":{"type":"Point","coordinates":[141.09466583,39.89216388]},"properties":{"id":100769018,"name":"新松川橋","name_kana":"","ofc_cd":82,"sys_id":1,"sys_cam_id":"769018","pause":0,"date_type":1,"cam_kind":4,"own_cd":769}},{"type":"Feature","geometry":{"type":"Point","coordinates":[140.928056,39.949722]},"properties":{"id":221023049,"name":"八幡平","name_kana":"","ofc_cd":82,"sys_id":2,"sys_cam_id":"21023049","pause":0,"date_type":0,"cam_kind":2,"own_cd":21023}},{"type":"Feature","geometry":{"type":"Point","coordinates":[140.929722,39.892778]},"properties":{"id":221023050,"name":"下倉山","name_kana":"","ofc_cd":82,"sys_id":2,"sys_cam_id":"21023050","pause":0,"date_type":0,"cam_kind":2,"own_cd":21023}},{"type":"Feature","geometry":{"type":"Point","coordinates":[141.0025,39.928889]},"properties":{"id":221023051,"name":"防災情報ＳＴ","name_kana":"","ofc_cd":82,"sys_id":2,"sys_cam_id":"21023051","pause":0,"date_type":0,"cam_kind":2,"own_cd":21023}},{"type":"Feature","geometry":{"type":"Point","coordinates":[140.991389,39.889444]},"properties":{"id":221023052,"name":"小水無沢第１砂防堰堤","name_kana":"","ofc_cd":82,"sys_id":2,"sys_cam_id":"21023052","pause":0,"date_type":0,"cam_kind":2,"own_cd":21023}},{"type":"Feature","geometry":{"type":"Point","coordinates":[141.033889,39.878056]},"properties":{"id":221023053,"name":"ナリヤ沢砂防堰堤","name_kana":"","ofc_cd":82,"sys_id":2,"sys_cam_id":"21023053","pause":0,"date_type":0,"cam_kind":2,"own_cd":21023}}]}