{"type":"FeatureCollection","crs":{"type":"name","properties":{"name":"EPSG:4326"}},"features":[{"type":"Feature","geometry":{"type":"Point","coordinates":[138.1534472,36.5500861]},"properties":{"id":105121120,"name":"沢山川（土口）","name_kana":"さわやまがわ（どぐち）","ofc_cd":84,"sys_id":1,"sys_cam_id":"5121120","pause":0,"date_type":1,"cam_kind":4,"own_cd":5121}},{"type":"Feature","geometry":{"type":"Point","coordinates":[138.15137,36.540801]},"properties":{"id":105121121,"name":"沢山川（生萱）","name_kana":"さわやまがわ（いきがや）","ofc_cd":84,"sys_id":1,"sys_cam_id":"5121121","pause":0,"date_type":1,"cam_kind":4,"own_cd":5121}},{"type":"Feature","geometry":{"type":"Point","coordinates":[138.15638888,36.5225]},"properties":{"id":105121122,"name":"沢山川（森）","name_kana":"さわやまがわ（もり）","ofc_cd":84,"sys_id":1,"sys_cam_id":"5121122","pause":0,"date_type":1,"cam_kind":4,"own_cd":5121}},{"type":"Feature","geometry":{"type":"Point","coordinates":[138.1033167,36.5150861]},"properties":{"id":105121123,"name":"更級川（八幡）","name_kana":"さらしながわ（やわた）","ofc_cd":84,"sys_id":1,"sys_cam_id":"5121123","pause":0,"date_type":1,"cam_kind":4,"own_cd":5121}},{"type":"Feature","geometry":{"type":"Point","coordinates":[138.14805555,36.47083333]},"properties":{"id":105121124,"name":"女沢川（上山田）","name_kana":"めざわがわ（かみやまだ）","ofc_cd":84,"sys_id":1,"sys_cam_id":"5121124","pause":0,"date_type":1,"cam_kind":4,"own_cd":5121}},{"type":"Feature","geometry":{"type":"Point","coordinates":[138.155019,36.556994]},"properties":{"id":105121272,"name":"土口水門","name_kana":"どぐちすいもん","ofc_cd":84,"sys_id":1,"sys_cam_id":"5121272","pause":0,"date_type":1,"cam_kind":4,"own_cd":5121}},{"type":"Feature","geometry":{"type":"Point","coordinates":[138.117032,36.50201246]},"properties":{"id":105121273,"name":"雄沢橋","name_kana":"おざわばし","ofc_cd":84,"sys_id":1,"sys_cam_id":"5121273","pause":0,"date_type":1,"cam_kind":4,"own_cd":5121}},{"type":"Feature","geometry":{"type":"Point","coordinates":[138.1423809,36.48492653]},"properties":{"id":105121274,"name":"八王子橋","name_kana":"はちおうじばし","ofc_cd":84,"sys_id":1,"sys_cam_id":"5121274","pause":0,"date_type":1,"cam_kind":4,"own_cd":5121}},{"type":"Feature","geometry":{"type":"Point","coordinates":[138.11195,36.5326556]},"properties":{"id":221545019,"name":"杭瀬下　千曲橋","name_kana":"","ofc_cd":84,"sys_id":2,"sys_cam_id":"20010019","pause":0,"date_type":0,"cam_kind":3,"own_cd":21545}},{"type":"Feature","geometry":{"type":"Point","coordinates":[138.0913889,36.5005556]},"properties":{"id":221545020,"name":"姨捨　千曲川展望","name_kana":"","ofc_cd":84,"sys_id":2,"sys_cam_id":"20010020","pause":0,"date_type":0,"cam_kind":3,"own_cd":21545}},{"type":"Feature","geometry":{"type":"Point","coordinates":[138.1089417,36.5150389]},"properties":{"id":221545021,"name":"平和橋","name_kana":"","ofc_cd":84,"sys_id":2,"sys_cam_id":"20010021","pause":0,"date_type":0,"cam_kind":3,"own_cd":21545}},{"type":"Feature","geometry":{"type":"Point","coordinates":[138.1234472,36.4996861]},"properties":{"id":221545022,"name":"冠着橋","name_kana":"","ofc_cd":84,"sys_id":2,"sys_cam_id":"20010022","pause":0,"date_type":0,"cam_kind":3,"own_cd":21545}},{"type":"Feature","geometry":{"type":"Point","coordinates":[138.1382694,36.4925222]},"properties":{"id":221545023,"name":"若宮","name_kana":"","ofc_cd":84,"sys_id":2,"sys_cam_id":"20010023","pause":0,"date_type":0,"cam_kind":3,"own_cd":21545}},{"type":"Feature","geometry":{"type":"Point","coordinates":[138.1145833,36.5429861]},"properties":{"id":221545041,"name":"粟佐橋　松節排水","name_kana":"","ofc_cd":84,"sys_id":2,"sys_cam_id":"20010041","pause":0,"date_type":0,"cam_kind":3,"own_cd":21545}}]}