{"type":"FeatureCollection","crs":{"type":"name","properties":{"name":"EPSG:4326"}},"features":[{"type":"Feature","geometry":{"type":"Point","coordinates":[133.201,35.5105]},"properties":{"id":122303243,"name":"中海0k200　八束町波入地区","name_kana":"","ofc_cd":87,"sys_id":1,"sys_cam_id":"22303243","pause":0,"date_type":2,"cam_kind":4,"own_cd":22303}},{"type":"Feature","geometry":{"type":"Point","coordinates":[133.14085,35.52049]},"properties":{"id":122303244,"name":"中海16k950左岸　野原川排水樋門","name_kana":"","ofc_cd":87,"sys_id":1,"sys_cam_id":"22303244","pause":0,"date_type":2,"cam_kind":4,"own_cd":22303}},{"type":"Feature","geometry":{"type":"Point","coordinates":[133.017,35.4725]},"properties":{"id":122303245,"name":"宍道湖3k800左岸　浜佐陀観測所","name_kana":"","ofc_cd":87,"sys_id":1,"sys_cam_id":"22303245","pause":0,"date_type":2,"cam_kind":4,"own_cd":22303}},{"type":"Feature","geometry":{"type":"Point","coordinates":[132.94787,35.47501]},"properties":{"id":122303246,"name":"宍道湖10k600左岸　秋鹿湖岸観測所","name_kana":"","ofc_cd":87,"sys_id":1,"sys_cam_id":"22303246","pause":0,"date_type":2,"cam_kind":4,"own_cd":22303}},{"type":"Feature","geometry":{"type":"Point","coordinates":[132.94576,35.42219]},"properties":{"id":122303247,"name":"宍道湖13k150右岸　来待水位観測所","name_kana":"","ofc_cd":87,"sys_id":1,"sys_cam_id":"22303247","pause":0,"date_type":2,"cam_kind":4,"own_cd":22303}},{"type":"Feature","geometry":{"type":"Point","coordinates":[133.126388889,35.450833333]},"properties":{"id":222303014,"name":"八幡(やわた)水位観測所","name_kana":"","ofc_cd":87,"sys_id":2,"sys_cam_id":"32010022","pause":0,"date_type":0,"cam_kind":2,"own_cd":22303}},{"type":"Feature","geometry":{"type":"Point","coordinates":[133.051111111,35.458611111]},"properties":{"id":222303015,"name":"袖師(そでし)","name_kana":"","ofc_cd":87,"sys_id":2,"sys_cam_id":"32010023","pause":0,"date_type":0,"cam_kind":2,"own_cd":22303}},{"type":"Feature","geometry":{"type":"Point","coordinates":[133.064527778,35.468638889]},"properties":{"id":222303038,"name":"大橋(おおはし)川出張所","name_kana":"","ofc_cd":87,"sys_id":2,"sys_cam_id":"32010046","pause":0,"date_type":0,"cam_kind":2,"own_cd":22303}},{"type":"Feature","geometry":{"type":"Point","coordinates":[133.048388889,35.46725]},"properties":{"id":222303039,"name":"末次(すえつぐ)ポンプ場","name_kana":"","ofc_cd":87,"sys_id":2,"sys_cam_id":"32010047","pause":0,"date_type":0,"cam_kind":2,"own_cd":22303}},{"type":"Feature","geometry":{"type":"Point","coordinates":[132.79508,35.39907]},"properties":{"id":122303237,"name":"斐伊川8k800右岸","name_kana":"","ofc_cd":87,"sys_id":1,"sys_cam_id":"22303237","pause":0,"date_type":2,"cam_kind":4,"own_cd":22303}},{"type":"Feature","geometry":{"type":"Point","coordinates":[132.785909,35.357403]},"properties":{"id":122303238,"name":"斐伊川13k800左岸　斐伊川放水路分流堰","name_kana":"","ofc_cd":87,"sys_id":1,"sys_cam_id":"22303238","pause":0,"date_type":2,"cam_kind":4,"own_cd":22303}},{"type":"Feature","geometry":{"type":"Point","coordinates":[132.80319,35.34731]},"properties":{"id":122303239,"name":"斐伊川16k000右岸","name_kana":"","ofc_cd":87,"sys_id":1,"sys_cam_id":"22303239","pause":0,"date_type":2,"cam_kind":4,"own_cd":22303}},{"type":"Feature","geometry":{"type":"Point","coordinates":[132.81176,35.3469]},"properties":{"id":122303240,"name":"斐伊川16k6200右岸","name_kana":"","ofc_cd":87,"sys_id":1,"sys_cam_id":"22303240","pause":0,"date_type":2,"cam_kind":4,"own_cd":22303}},{"type":"Feature","geometry":{"type":"Point","coordinates":[132.8519,35.34401]},"properties":{"id":122303241,"name":"斐伊川20k600右岸　森坂大橋","name_kana":"","ofc_cd":87,"sys_id":1,"sys_cam_id":"22303241","pause":0,"date_type":2,"cam_kind":4,"own_cd":22303}},{"type":"Feature","geometry":{"type":"Point","coordinates":[132.87164,35.457776]},"properties":{"id":122303248,"name":"宍道湖18k500左岸　東水位観測所","name_kana":"","ofc_cd":87,"sys_id":1,"sys_cam_id":"22303248","pause":0,"date_type":2,"cam_kind":4,"own_cd":22303}},{"type":"Feature","geometry":{"type":"Point","coordinates":[132.830608333,35.339633333]},"properties":{"id":222303004,"name":"上島(かみしま)左岸18K600","name_kana":"","ofc_cd":87,"sys_id":2,"sys_cam_id":"32010003","pause":0,"date_type":0,"cam_kind":2,"own_cd":22303}},{"type":"Feature","geometry":{"type":"Point","coordinates":[132.783333333,35.368888889]},"properties":{"id":222303005,"name":"大津(おおつ)","name_kana":"","ofc_cd":87,"sys_id":2,"sys_cam_id":"32010004","pause":0,"date_type":0,"cam_kind":2,"own_cd":22303}},{"type":"Feature","geometry":{"type":"Point","coordinates":[132.834166667,35.4275]},"properties":{"id":222303006,"name":"灘分(なだぶん)","name_kana":"","ofc_cd":87,"sys_id":2,"sys_cam_id":"32010005","pause":0,"date_type":0,"cam_kind":2,"own_cd":22303}},{"type":"Feature","geometry":{"type":"Point","coordinates":[132.763888889,35.336944444]},"properties":{"id":222303007,"name":"馬木(まき)水位流量観測所","name_kana":"","ofc_cd":87,"sys_id":2,"sys_cam_id":"32010006","pause":0,"date_type":0,"cam_kind":2,"own_cd":22303}},{"type":"Feature","geometry":{"type":"Point","coordinates":[132.743608333,35.347777778]},"properties":{"id":222303008,"name":"古志(こし)橋","name_kana":"","ofc_cd":87,"sys_id":2,"sys_cam_id":"32010007","pause":0,"date_type":0,"cam_kind":2,"own_cd":22303}},{"type":"Feature","geometry":{"type":"Point","coordinates":[132.87755,35.439611111]},"properties":{"id":222303011,"name":"斐伊川河口","name_kana":"","ofc_cd":87,"sys_id":2,"sys_cam_id":"32010019","pause":0,"date_type":0,"cam_kind":2,"own_cd":22303}},{"type":"Feature","geometry":{"type":"Point","coordinates":[132.678888889,35.372777778]},"properties":{"id":222303012,"name":"中荒木(なかあらき)放流警報局","name_kana":"","ofc_cd":87,"sys_id":2,"sys_cam_id":"32010020","pause":0,"date_type":0,"cam_kind":2,"own_cd":22303}},{"type":"Feature","geometry":{"type":"Point","coordinates":[132.682219444,35.361944444]},"properties":{"id":222303017,"name":"長浜(ながはま)第2放流警報局 左岸1K465","name_kana":"","ofc_cd":87,"sys_id":2,"sys_cam_id":"32010025","pause":0,"date_type":0,"cam_kind":2,"own_cd":22303}},{"type":"Feature","geometry":{"type":"Point","coordinates":[132.689972222,35.348580556]},"properties":{"id":222303018,"name":"妙見(みょうけん)橋","name_kana":"","ofc_cd":87,"sys_id":2,"sys_cam_id":"32010026","pause":0,"date_type":0,"cam_kind":2,"own_cd":22303}},{"type":"Feature","geometry":{"type":"Point","coordinates":[132.702777778,35.3425]},"properties":{"id":222303019,"name":"横浜(よこはま)放流警報局","name_kana":"","ofc_cd":87,"sys_id":2,"sys_cam_id":"32010027","pause":0,"date_type":0,"cam_kind":2,"own_cd":22303}},{"type":"Feature","geometry":{"type":"Point","coordinates":[132.722525,35.351194444]},"properties":{"id":222303020,"name":"大披(おおびらき)放流警報局","name_kana":"","ofc_cd":87,"sys_id":2,"sys_cam_id":"32010028","pause":0,"date_type":0,"cam_kind":2,"own_cd":22303}},{"type":"Feature","geometry":{"type":"Point","coordinates":[132.729722222,35.351111111]},"properties":{"id":222303021,"name":"神戸(かんど)堰下流右岸1","name_kana":"","ofc_cd":87,"sys_id":2,"sys_cam_id":"32010029","pause":0,"date_type":0,"cam_kind":2,"own_cd":22303}},{"type":"Feature","geometry":{"type":"Point","coordinates":[132.745583333,35.343888889]},"properties":{"id":222303022,"name":"神戸(かんど)川 左岸8K860","name_kana":"","ofc_cd":87,"sys_id":2,"sys_cam_id":"32010030","pause":0,"date_type":0,"cam_kind":2,"own_cd":22303}},{"type":"Feature","geometry":{"type":"Point","coordinates":[132.761111111,35.340833333]},"properties":{"id":222303023,"name":"半分(はんぶ)放流警報局","name_kana":"","ofc_cd":87,"sys_id":2,"sys_cam_id":"32010031","pause":0,"date_type":0,"cam_kind":2,"own_cd":22303}},{"type":"Feature","geometry":{"type":"Point","coordinates":[132.773333333,35.350555556]},"properties":{"id":222303024,"name":"菅沢(すげさわ)放流警報局","name_kana":"","ofc_cd":87,"sys_id":2,"sys_cam_id":"32010032","pause":0,"date_type":0,"cam_kind":2,"own_cd":22303}},{"type":"Feature","geometry":{"type":"Point","coordinates":[132.781663889,35.354444444]},"properties":{"id":222303025,"name":"上来原(かみくりはら)放流警報局","name_kana":"","ofc_cd":87,"sys_id":2,"sys_cam_id":"32010033","pause":0,"date_type":0,"cam_kind":2,"own_cd":22303}},{"type":"Feature","geometry":{"type":"Point","coordinates":[132.786,35.35425]},"properties":{"id":222303026,"name":"分流堰左岸下流","name_kana":"","ofc_cd":87,"sys_id":2,"sys_cam_id":"32010034","pause":0,"date_type":0,"cam_kind":2,"own_cd":22303}},{"type":"Feature","geometry":{"type":"Point","coordinates":[132.855719444,35.341072222]},"properties":{"id":222303029,"name":"森坂(もりさか)大橋","name_kana":"","ofc_cd":87,"sys_id":2,"sys_cam_id":"32010037","pause":0,"date_type":0,"cam_kind":2,"own_cd":22303}},{"type":"Feature","geometry":{"type":"Point","coordinates":[132.794480556,35.344775]},"properties":{"id":222303030,"name":"船津(ふなつ)","name_kana":"","ofc_cd":87,"sys_id":2,"sys_cam_id":"32010038","pause":0,"date_type":0,"cam_kind":2,"own_cd":22303}},{"type":"Feature","geometry":{"type":"Point","coordinates":[132.7919,35.351213889]},"properties":{"id":222303031,"name":"斐伊川右岸分流地点","name_kana":"","ofc_cd":87,"sys_id":2,"sys_cam_id":"32010039","pause":0,"date_type":0,"cam_kind":2,"own_cd":22303}},{"type":"Feature","geometry":{"type":"Point","coordinates":[132.786613889,35.350155556]},"properties":{"id":222303032,"name":"分流堰左岸","name_kana":"","ofc_cd":87,"sys_id":2,"sys_cam_id":"32010040","pause":0,"date_type":0,"cam_kind":2,"own_cd":22303}},{"type":"Feature","geometry":{"type":"Point","coordinates":[132.784672222,35.384991667]},"properties":{"id":222303033,"name":"北神立(きたかんだち)橋","name_kana":"","ofc_cd":87,"sys_id":2,"sys_cam_id":"32010041","pause":0,"date_type":0,"cam_kind":2,"own_cd":22303}},{"type":"Feature","geometry":{"type":"Point","coordinates":[132.790538889,35.402302778]},"properties":{"id":222303034,"name":"美談(みだみ)","name_kana":"","ofc_cd":87,"sys_id":2,"sys_cam_id":"32010042","pause":0,"date_type":0,"cam_kind":2,"own_cd":22303}},{"type":"Feature","geometry":{"type":"Point","coordinates":[132.815583333,35.414975]},"properties":{"id":222303035,"name":"西代(にしだい)橋","name_kana":"","ofc_cd":87,"sys_id":2,"sys_cam_id":"32010043","pause":0,"date_type":0,"cam_kind":2,"own_cd":22303}},{"type":"Feature","geometry":{"type":"Point","coordinates":[132.845077778,35.427119444]},"properties":{"id":222303036,"name":"島村(しまむら)","name_kana":"","ofc_cd":87,"sys_id":2,"sys_cam_id":"32010044","pause":0,"date_type":0,"cam_kind":2,"own_cd":22303}},{"type":"Feature","geometry":{"type":"Point","coordinates":[132.818888889,35.340277778]},"properties":{"id":222303040,"name":"上島(かみしま)排水機場","name_kana":"","ofc_cd":87,"sys_id":2,"sys_cam_id":"32010048","pause":0,"date_type":0,"cam_kind":2,"own_cd":22303}},{"type":"Feature","geometry":{"type":"Point","coordinates":[132.690277778,35.343055556]},"properties":{"id":222303041,"name":"石新田(こくしんでん)放流警報局","name_kana":"","ofc_cd":87,"sys_id":2,"sys_cam_id":"32010049","pause":0,"date_type":0,"cam_kind":2,"own_cd":22303}},{"type":"Feature","geometry":{"type":"Point","coordinates":[132.738888889,35.347138889]},"properties":{"id":222303042,"name":"神戸(かんど)川左岸8K100","name_kana":"","ofc_cd":87,"sys_id":2,"sys_cam_id":"32010050","pause":0,"date_type":0,"cam_kind":2,"own_cd":22303}},{"type":"Feature","geometry":{"type":"Point","coordinates":[132.767666667,35.334388889]},"properties":{"id":222303043,"name":"神戸(かんど)川左岸11K250","name_kana":"","ofc_cd":87,"sys_id":2,"sys_cam_id":"32010051","pause":0,"date_type":0,"cam_kind":2,"own_cd":22303}},{"type":"Feature","geometry":{"type":"Point","coordinates":[132.766111111,35.345555556]},"properties":{"id":222303044,"name":"自彊(じきょう)放流警報局","name_kana":"","ofc_cd":87,"sys_id":2,"sys_cam_id":"32010052","pause":0,"date_type":0,"cam_kind":2,"own_cd":22303}},{"type":"Feature","geometry":{"type":"Point","coordinates":[132.786111111,35.353888889]},"properties":{"id":222303045,"name":"分流堰右岸下流","name_kana":"","ofc_cd":87,"sys_id":2,"sys_cam_id":"32010053","pause":0,"date_type":0,"cam_kind":2,"own_cd":22303}},{"type":"Feature","geometry":{"type":"Point","coordinates":[131.822274,34.671653]},"properties":{"id":122308185,"name":"高津川　3.0K　右岸　須子町","name_kana":"","ofc_cd":87,"sys_id":1,"sys_cam_id":"22308185","pause":0,"date_type":2,"cam_kind":4,"own_cd":22308}},{"type":"Feature","geometry":{"type":"Point","coordinates":[131.79142,34.641602]},"properties":{"id":122308186,"name":"高津川　8.4K　左岸　虫追町","name_kana":"","ofc_cd":87,"sys_id":1,"sys_cam_id":"22308186","pause":0,"date_type":2,"cam_kind":4,"own_cd":22308}},{"type":"Feature","geometry":{"type":"Point","coordinates":[131.792177,34.633807]},"properties":{"id":122308187,"name":"高津川　9.4K　右岸　横田","name_kana":"","ofc_cd":87,"sys_id":1,"sys_cam_id":"22308187","pause":0,"date_type":2,"cam_kind":4,"own_cd":22308}},{"type":"Feature","geometry":{"type":"Point","coordinates":[131.800584,34.618527]},"properties":{"id":122308188,"name":"高津川　11.2K　左岸　神田","name_kana":"","ofc_cd":87,"sys_id":1,"sys_cam_id":"22308188","pause":0,"date_type":2,"cam_kind":4,"own_cd":22308}},{"type":"Feature","geometry":{"type":"Point","coordinates":[131.820804,34.674445]},"properties":{"id":122308189,"name":"高津川派川　0.0K　左岸　高津","name_kana":"","ofc_cd":87,"sys_id":1,"sys_cam_id":"22308189","pause":0,"date_type":2,"cam_kind":4,"own_cd":22308}},{"type":"Feature","geometry":{"type":"Point","coordinates":[131.809343,34.67018]},"properties":{"id":122308190,"name":"高津川派川　1.0K　右岸　飯田町","name_kana":"","ofc_cd":87,"sys_id":1,"sys_cam_id":"22308190","pause":0,"date_type":2,"cam_kind":4,"own_cd":22308}},{"type":"Feature","geometry":{"type":"Point","coordinates":[131.797329,34.666612]},"properties":{"id":122308191,"name":"白上川　0.8K　左岸　向内田","name_kana":"","ofc_cd":87,"sys_id":1,"sys_cam_id":"22308191","pause":0,"date_type":2,"cam_kind":4,"own_cd":22308}},{"type":"Feature","geometry":{"type":"Point","coordinates":[131.790938,34.666244]},"properties":{"id":122308192,"name":"白上川　1.4K　右岸　内田","name_kana":"","ofc_cd":87,"sys_id":1,"sys_cam_id":"22308192","pause":0,"date_type":2,"cam_kind":4,"own_cd":22308}},{"type":"Feature","geometry":{"type":"Point","coordinates":[131.812631,34.650607]},"properties":{"id":122308253,"name":"高津川　6.0K　右岸　奥田","name_kana":"","ofc_cd":87,"sys_id":1,"sys_cam_id":"22308253","pause":0,"date_type":2,"cam_kind":4,"own_cd":22308}},{"type":"Feature","geometry":{"type":"Point","coordinates":[131.807437,34.647219]},"properties":{"id":122308254,"name":"高津川　6.6K　左岸　河成","name_kana":"","ofc_cd":87,"sys_id":1,"sys_cam_id":"22308254","pause":0,"date_type":2,"cam_kind":4,"own_cd":22308}},{"type":"Feature","geometry":{"type":"Point","coordinates":[131.789756,34.634873]},"properties":{"id":122308255,"name":"高津川　9.2K　左岸　金地","name_kana":"","ofc_cd":87,"sys_id":1,"sys_cam_id":"22308255","pause":0,"date_type":2,"cam_kind":4,"own_cd":22308}},{"type":"Feature","geometry":{"type":"Point","coordinates":[131.80149,34.60233]},"properties":{"id":122308256,"name":"高津川　13.6K　左岸　大滝","name_kana":"","ofc_cd":87,"sys_id":1,"sys_cam_id":"22308256","pause":0,"date_type":2,"cam_kind":4,"own_cd":22308}},{"type":"Feature","geometry":{"type":"Point","coordinates":[131.804642,34.66578]},"properties":{"id":122308258,"name":"高津川派川　1.8K　左岸　中内田","name_kana":"","ofc_cd":87,"sys_id":1,"sys_cam_id":"22308258","pause":0,"date_type":2,"cam_kind":4,"own_cd":22308}},{"type":"Feature","geometry":{"type":"Point","coordinates":[131.80649,34.66122]},"properties":{"id":122308259,"name":"高津川派川　2.4K　左岸　虫追町","name_kana":"","ofc_cd":87,"sys_id":1,"sys_cam_id":"22308259","pause":0,"date_type":2,"cam_kind":4,"own_cd":22308}},{"type":"Feature","geometry":{"type":"Point","coordinates":[131.795242,34.667752]},"properties":{"id":122308260,"name":"白上川　1.2K　左岸　市原","name_kana":"","ofc_cd":87,"sys_id":1,"sys_cam_id":"22308260","pause":0,"date_type":2,"cam_kind":4,"own_cd":22308}},{"type":"Feature","geometry":{"type":"Point","coordinates":[131.798302778,34.606758333]},"properties":{"id":222308006,"name":"神田水位観測所","name_kana":"","ofc_cd":87,"sys_id":2,"sys_cam_id":"22308007","pause":0,"date_type":0,"cam_kind":2,"own_cd":22308}},{"type":"Feature","geometry":{"type":"Point","coordinates":[131.807430556,34.623291667]},"properties":{"id":222308007,"name":"横田水位観測所","name_kana":"","ofc_cd":87,"sys_id":2,"sys_cam_id":"22308009","pause":0,"date_type":0,"cam_kind":2,"own_cd":22308}},{"type":"Feature","geometry":{"type":"Point","coordinates":[131.82765,34.679580556]},"properties":{"id":222308008,"name":"高角","name_kana":"","ofc_cd":87,"sys_id":2,"sys_cam_id":"22308006","pause":0,"date_type":0,"cam_kind":2,"own_cd":22308}},{"type":"Feature","geometry":{"type":"Point","coordinates":[131.801005556,34.665341667]},"properties":{"id":222308009,"name":"内田水位観測所","name_kana":"","ofc_cd":87,"sys_id":2,"sys_cam_id":"22308008","pause":0,"date_type":0,"cam_kind":2,"own_cd":22308}},{"type":"Feature","geometry":{"type":"Point","coordinates":[133.300833333,35.431944444]},"properties":{"id":222303016,"name":"米子(よなご)湾","name_kana":"","ofc_cd":87,"sys_id":2,"sys_cam_id":"32010024","pause":0,"date_type":0,"cam_kind":2,"own_cd":22303}},{"type":"Feature","geometry":{"type":"Point","coordinates":[133.237805556,35.447222222]},"properties":{"id":222303037,"name":"中海(なかうみ)出張所","name_kana":"","ofc_cd":87,"sys_id":2,"sys_cam_id":"32010045","pause":0,"date_type":0,"cam_kind":2,"own_cd":22303}},{"type":"Feature","geometry":{"type":"Point","coordinates":[132.242587,35.00217]},"properties":{"id":122308193,"name":"江の川　3.6K　右岸　渡津","name_kana":"","ofc_cd":87,"sys_id":1,"sys_cam_id":"22308193","pause":0,"date_type":2,"cam_kind":4,"own_cd":22308}},{"type":"Feature","geometry":{"type":"Point","coordinates":[132.251925,35.011366]},"properties":{"id":122308194,"name":"江の川　4.9K　右岸　太田","name_kana":"","ofc_cd":87,"sys_id":1,"sys_cam_id":"22308194","pause":0,"date_type":2,"cam_kind":4,"own_cd":22308}},{"type":"Feature","geometry":{"type":"Point","coordinates":[132.255858,35.00651]},"properties":{"id":122308195,"name":"江の川　5.2K　右岸　八神","name_kana":"","ofc_cd":87,"sys_id":1,"sys_cam_id":"22308195","pause":0,"date_type":2,"cam_kind":4,"own_cd":22308}},{"type":"Feature","geometry":{"type":"Point","coordinates":[132.263116,35.004052]},"properties":{"id":122308196,"name":"江の川　6.4K　右岸　八神","name_kana":"","ofc_cd":87,"sys_id":1,"sys_cam_id":"22308196","pause":0,"date_type":2,"cam_kind":4,"own_cd":22308}},{"type":"Feature","geometry":{"type":"Point","coordinates":[132.27584,35.004961]},"properties":{"id":122308197,"name":"江の川　7.4K　左岸　赤栗","name_kana":"","ofc_cd":87,"sys_id":1,"sys_cam_id":"22308197","pause":0,"date_type":2,"cam_kind":4,"own_cd":22308}},{"type":"Feature","geometry":{"type":"Point","coordinates":[132.278233,35.006887]},"properties":{"id":122308198,"name":"江の川　7.8K　左岸　赤栗","name_kana":"","ofc_cd":87,"sys_id":1,"sys_cam_id":"22308198","pause":0,"date_type":2,"cam_kind":4,"own_cd":22308}},{"type":"Feature","geometry":{"type":"Point","coordinates":[132.281152,35.000922]},"properties":{"id":122308199,"name":"江の川　8.8K　左岸　川平","name_kana":"","ofc_cd":87,"sys_id":1,"sys_cam_id":"22308199","pause":0,"date_type":2,"cam_kind":4,"own_cd":22308}},{"type":"Feature","geometry":{"type":"Point","coordinates":[132.30783,34.978561]},"properties":{"id":122308200,"name":"江の川　12.5K　右岸　長良","name_kana":"","ofc_cd":87,"sys_id":1,"sys_cam_id":"22308200","pause":0,"date_type":2,"cam_kind":4,"own_cd":22308}},{"type":"Feature","geometry":{"type":"Point","coordinates":[132.32938,34.968704]},"properties":{"id":122308201,"name":"江の川　15.2K　右岸　下ノ原","name_kana":"","ofc_cd":87,"sys_id":1,"sys_cam_id":"22308201","pause":0,"date_type":2,"cam_kind":4,"own_cd":22308}},{"type":"Feature","geometry":{"type":"Point","coordinates":[132.332895,34.962335]},"properties":{"id":122308202,"name":"江の川　15.8K　左岸　川戸","name_kana":"","ofc_cd":87,"sys_id":1,"sys_cam_id":"22308202","pause":0,"date_type":2,"cam_kind":4,"own_cd":22308}},{"type":"Feature","geometry":{"type":"Point","coordinates":[132.361427,34.962353]},"properties":{"id":122308203,"name":"江の川　19.0K　左岸　花河原","name_kana":"","ofc_cd":87,"sys_id":1,"sys_cam_id":"22308203","pause":0,"date_type":2,"cam_kind":4,"own_cd":22308}},{"type":"Feature","geometry":{"type":"Point","coordinates":[132.366402,34.957036]},"properties":{"id":122308204,"name":"江の川　19.8K　右岸　元折","name_kana":"","ofc_cd":87,"sys_id":1,"sys_cam_id":"22308204","pause":0,"date_type":2,"cam_kind":4,"own_cd":22308}},{"type":"Feature","geometry":{"type":"Point","coordinates":[132.382391,34.956569]},"properties":{"id":122308205,"name":"江の川　21.6K　右岸　久井谷","name_kana":"","ofc_cd":87,"sys_id":1,"sys_cam_id":"22308205","pause":0,"date_type":2,"cam_kind":4,"own_cd":22308}},{"type":"Feature","geometry":{"type":"Point","coordinates":[132.381933,34.952484]},"properties":{"id":122308206,"name":"江の川　21.8K　左岸　田津","name_kana":"","ofc_cd":87,"sys_id":1,"sys_cam_id":"22308206","pause":0,"date_type":2,"cam_kind":4,"own_cd":22308}},{"type":"Feature","geometry":{"type":"Point","coordinates":[132.389402,34.956807]},"properties":{"id":122308207,"name":"江の川　22.0K　右岸　宮の谷","name_kana":"","ofc_cd":87,"sys_id":1,"sys_cam_id":"22308207","pause":0,"date_type":2,"cam_kind":4,"own_cd":22308}},{"type":"Feature","geometry":{"type":"Point","coordinates":[132.449337,34.963946]},"properties":{"id":122308208,"name":"江の川　29.0K　左岸　鹿賀","name_kana":"","ofc_cd":87,"sys_id":1,"sys_cam_id":"22308208","pause":0,"date_type":2,"cam_kind":4,"own_cd":22308}},{"type":"Feature","geometry":{"type":"Point","coordinates":[132.246217,35.004575]},"properties":{"id":122308249,"name":"江の川　4.0K　左岸　千金","name_kana":"","ofc_cd":87,"sys_id":1,"sys_cam_id":"22308249","pause":0,"date_type":2,"cam_kind":4,"own_cd":22308}},{"type":"Feature","geometry":{"type":"Point","coordinates":[132.258479,35.002455]},"properties":{"id":122308250,"name":"江の川　5.8K　左岸　田ノ村","name_kana":"","ofc_cd":87,"sys_id":1,"sys_cam_id":"22308250","pause":0,"date_type":2,"cam_kind":4,"own_cd":22308}},{"type":"Feature","geometry":{"type":"Point","coordinates":[132.334547,34.964046]},"properties":{"id":122308261,"name":"江の川　15.8K　右岸　小谷川","name_kana":"","ofc_cd":87,"sys_id":1,"sys_cam_id":"22308261","pause":0,"date_type":2,"cam_kind":4,"own_cd":22308}},{"type":"Feature","geometry":{"type":"Point","coordinates":[132.285047222,34.998805556]},"properties":{"id":222308001,"name":"川平水位観測所","name_kana":"","ofc_cd":87,"sys_id":2,"sys_cam_id":"22308001","pause":0,"date_type":0,"cam_kind":2,"own_cd":22308}},{"type":"Feature","geometry":{"type":"Point","coordinates":[132.328911111,34.968738889]},"properties":{"id":222308002,"name":"下の原排水樋門","name_kana":"","ofc_cd":87,"sys_id":2,"sys_cam_id":"22308003","pause":0,"date_type":0,"cam_kind":2,"own_cd":22308}},{"type":"Feature","geometry":{"type":"Point","coordinates":[132.335230556,34.960252778]},"properties":{"id":222308010,"name":"川戸（上）樋管 左岸 16.15km","name_kana":"","ofc_cd":87,"sys_id":2,"sys_cam_id":"22308011","pause":0,"date_type":0,"cam_kind":2,"own_cd":22308}},{"type":"Feature","geometry":{"type":"Point","coordinates":[132.297452778,34.987472222]},"properties":{"id":222308014,"name":"江の川取水場","name_kana":"","ofc_cd":87,"sys_id":2,"sys_cam_id":"22308015","pause":0,"date_type":0,"cam_kind":2,"own_cd":22308}},{"type":"Feature","geometry":{"type":"Point","coordinates":[132.411805556,34.948852778]},"properties":{"id":222308015,"name":"川越大橋","name_kana":"","ofc_cd":87,"sys_id":2,"sys_cam_id":"22308016","pause":0,"date_type":0,"cam_kind":2,"own_cd":22308}},{"type":"Feature","geometry":{"type":"Point","coordinates":[132.89169,35.32011]},"properties":{"id":122303242,"name":"斐伊川25k000左岸","name_kana":"","ofc_cd":87,"sys_id":1,"sys_cam_id":"22303242","pause":0,"date_type":2,"cam_kind":4,"own_cd":22303}},{"type":"Feature","geometry":{"type":"Point","coordinates":[132.897222222,35.290555556]},"properties":{"id":222303002,"name":"木次(きすき)","name_kana":"","ofc_cd":87,"sys_id":2,"sys_cam_id":"32010001","pause":0,"date_type":0,"cam_kind":2,"own_cd":22303}},{"type":"Feature","geometry":{"type":"Point","coordinates":[132.883055556,35.323055556]},"properties":{"id":222303003,"name":"新伊萱(しんいがや)","name_kana":"","ofc_cd":87,"sys_id":2,"sys_cam_id":"32010002","pause":0,"date_type":0,"cam_kind":2,"own_cd":22303}},{"type":"Feature","geometry":{"type":"Point","coordinates":[132.955833333,35.231944444]},"properties":{"id":222303013,"name":"尾原(おばら)ダム上流","name_kana":"","ofc_cd":87,"sys_id":2,"sys_cam_id":"32010021","pause":0,"date_type":0,"cam_kind":2,"own_cd":22303}},{"type":"Feature","geometry":{"type":"Point","coordinates":[132.908813889,35.219244444]},"properties":{"id":222303027,"name":"漆仁(しつに)橋","name_kana":"","ofc_cd":87,"sys_id":2,"sys_cam_id":"32010035","pause":0,"date_type":0,"cam_kind":2,"own_cd":22303}},{"type":"Feature","geometry":{"type":"Point","coordinates":[132.900252778,35.307727778]},"properties":{"id":222303028,"name":"雲南(うんなん)市役所","name_kana":"","ofc_cd":87,"sys_id":2,"sys_cam_id":"32010036","pause":0,"date_type":0,"cam_kind":2,"own_cd":22303}},{"type":"Feature","geometry":{"type":"Point","coordinates":[132.677777778,35.166666667]},"properties":{"id":222303010,"name":"志津見ダム左岸上流","name_kana":"","ofc_cd":87,"sys_id":2,"sys_cam_id":"32010018","pause":0,"date_type":0,"cam_kind":2,"own_cd":22303}},{"type":"Feature","geometry":{"type":"Point","coordinates":[132.453136,34.962525]},"properties":{"id":122308209,"name":"江の川　29.4K　右岸　尾原","name_kana":"","ofc_cd":87,"sys_id":1,"sys_cam_id":"22308209","pause":0,"date_type":2,"cam_kind":4,"own_cd":22308}},{"type":"Feature","geometry":{"type":"Point","coordinates":[132.476351,34.977038]},"properties":{"id":122308210,"name":"江の川　32.4K　右岸　三島","name_kana":"","ofc_cd":87,"sys_id":1,"sys_cam_id":"22308210","pause":0,"date_type":2,"cam_kind":4,"own_cd":22308}},{"type":"Feature","geometry":{"type":"Point","coordinates":[132.493374,34.985247]},"properties":{"id":122308211,"name":"江の川　34.3K　左岸　谷","name_kana":"","ofc_cd":87,"sys_id":1,"sys_cam_id":"22308211","pause":0,"date_type":2,"cam_kind":4,"own_cd":22308}},{"type":"Feature","geometry":{"type":"Point","coordinates":[132.507822,34.999682]},"properties":{"id":122308212,"name":"江の川　36.6K　左岸　木路原","name_kana":"","ofc_cd":87,"sys_id":1,"sys_cam_id":"22308212","pause":0,"date_type":2,"cam_kind":4,"own_cd":22308}},{"type":"Feature","geometry":{"type":"Point","coordinates":[132.52211667,35.010378]},"properties":{"id":122308213,"name":"江の川　39.6K　左岸　銅ヶ丸","name_kana":"","ofc_cd":87,"sys_id":1,"sys_cam_id":"22308213","pause":0,"date_type":2,"cam_kind":4,"own_cd":22308}},{"type":"Feature","geometry":{"type":"Point","coordinates":[132.459468,34.961113]},"properties":{"id":122308251,"name":"江の川　30.0K　右岸　尾原","name_kana":"","ofc_cd":87,"sys_id":1,"sys_cam_id":"22308251","pause":0,"date_type":2,"cam_kind":4,"own_cd":22308}},{"type":"Feature","geometry":{"type":"Point","coordinates":[132.499641667,34.996358333]},"properties":{"id":222308003,"name":"川本水位観測所","name_kana":"","ofc_cd":87,"sys_id":2,"sys_cam_id":"22308004","pause":0,"date_type":0,"cam_kind":2,"own_cd":22308}},{"type":"Feature","geometry":{"type":"Point","coordinates":[132.489516667,34.986516667]},"properties":{"id":222308011,"name":"上三島第２排水樋門 右岸 34.4km","name_kana":"","ofc_cd":87,"sys_id":2,"sys_cam_id":"22308012","pause":0,"date_type":0,"cam_kind":2,"own_cd":22308}},{"type":"Feature","geometry":{"type":"Point","coordinates":[132.492525,34.992572222]},"properties":{"id":222308012,"name":"川本大橋 左岸 35km","name_kana":"","ofc_cd":87,"sys_id":2,"sys_cam_id":"22308013","pause":0,"date_type":0,"cam_kind":2,"own_cd":22308}},{"type":"Feature","geometry":{"type":"Point","coordinates":[132.523237,35.010378]},"properties":{"id":122308214,"name":"江の川　39.8K　右岸　港","name_kana":"","ofc_cd":87,"sys_id":1,"sys_cam_id":"22308214","pause":0,"date_type":2,"cam_kind":4,"own_cd":22308}},{"type":"Feature","geometry":{"type":"Point","coordinates":[132.529091,35.015155]},"properties":{"id":122308215,"name":"江の川　40.6K　右岸　港","name_kana":"","ofc_cd":87,"sys_id":1,"sys_cam_id":"22308215","pause":0,"date_type":2,"cam_kind":4,"own_cd":22308}},{"type":"Feature","geometry":{"type":"Point","coordinates":[132.536816,35.018385]},"properties":{"id":122308216,"name":"江の川　41.2K　左岸　乙原","name_kana":"","ofc_cd":87,"sys_id":1,"sys_cam_id":"22308216","pause":0,"date_type":2,"cam_kind":4,"own_cd":22308}},{"type":"Feature","geometry":{"type":"Point","coordinates":[132.542283,35.024499]},"properties":{"id":122308217,"name":"江の川　42.2K　左岸　乙原","name_kana":"","ofc_cd":87,"sys_id":1,"sys_cam_id":"22308217","pause":0,"date_type":2,"cam_kind":4,"own_cd":22308}},{"type":"Feature","geometry":{"type":"Point","coordinates":[132.555702,35.037811]},"properties":{"id":122308218,"name":"江の川　44.6K　左岸　簗瀬","name_kana":"","ofc_cd":87,"sys_id":1,"sys_cam_id":"22308218","pause":0,"date_type":2,"cam_kind":4,"own_cd":22308}},{"type":"Feature","geometry":{"type":"Point","coordinates":[132.570011,35.041135]},"properties":{"id":122308219,"name":"江の川　46.4K　左岸　吾郷大橋","name_kana":"","ofc_cd":87,"sys_id":1,"sys_cam_id":"22308219","pause":0,"date_type":2,"cam_kind":4,"own_cd":22308}},{"type":"Feature","geometry":{"type":"Point","coordinates":[132.582966,35.043708]},"properties":{"id":122308220,"name":"江の川　47.8K　左岸　明塚","name_kana":"","ofc_cd":87,"sys_id":1,"sys_cam_id":"22308220","pause":0,"date_type":2,"cam_kind":4,"own_cd":22308}},{"type":"Feature","geometry":{"type":"Point","coordinates":[132.588021,35.0698]},"properties":{"id":122308221,"name":"江の川　51.0K　左岸　野井","name_kana":"","ofc_cd":87,"sys_id":1,"sys_cam_id":"22308221","pause":0,"date_type":2,"cam_kind":4,"own_cd":22308}},{"type":"Feature","geometry":{"type":"Point","coordinates":[132.588433,35.073259]},"properties":{"id":122308222,"name":"江の川　51.1K　右岸　粕淵","name_kana":"","ofc_cd":87,"sys_id":1,"sys_cam_id":"22308222","pause":0,"date_type":2,"cam_kind":4,"own_cd":22308}},{"type":"Feature","geometry":{"type":"Point","coordinates":[132.600757,35.056104]},"properties":{"id":122308223,"name":"江の川　54.2K　左岸　滝原","name_kana":"","ofc_cd":87,"sys_id":1,"sys_cam_id":"22308223","pause":0,"date_type":2,"cam_kind":4,"own_cd":22308}},{"type":"Feature","geometry":{"type":"Point","coordinates":[132.605357,35.054343]},"properties":{"id":122308224,"name":"江の川　54.4K　右岸　浜原","name_kana":"","ofc_cd":87,"sys_id":1,"sys_cam_id":"22308224","pause":0,"date_type":2,"cam_kind":4,"own_cd":22308}},{"type":"Feature","geometry":{"type":"Point","coordinates":[132.625977,35.0388]},"properties":{"id":122308225,"name":"江の川　62.0K　左岸　信喜","name_kana":"","ofc_cd":87,"sys_id":1,"sys_cam_id":"22308225","pause":0,"date_type":2,"cam_kind":4,"own_cd":22308}},{"type":"Feature","geometry":{"type":"Point","coordinates":[132.632972,35.02252]},"properties":{"id":122308226,"name":"江の川　63.7K　右岸　潮村","name_kana":"","ofc_cd":87,"sys_id":1,"sys_cam_id":"22308226","pause":0,"date_type":2,"cam_kind":4,"own_cd":22308}},{"type":"Feature","geometry":{"type":"Point","coordinates":[132.633345,35.017586]},"properties":{"id":122308227,"name":"江の川　64.6K　右岸　潮村","name_kana":"","ofc_cd":87,"sys_id":1,"sys_cam_id":"22308227","pause":0,"date_type":2,"cam_kind":4,"own_cd":22308}},{"type":"Feature","geometry":{"type":"Point","coordinates":[132.610669,34.99495]},"properties":{"id":122308228,"name":"江の川　67.8K　左岸　都賀行","name_kana":"","ofc_cd":87,"sys_id":1,"sys_cam_id":"22308228","pause":0,"date_type":2,"cam_kind":4,"own_cd":22308}},{"type":"Feature","geometry":{"type":"Point","coordinates":[132.63498,34.976838]},"properties":{"id":122308229,"name":"江の川　71.4K　右岸　長藤響谷","name_kana":"","ofc_cd":87,"sys_id":1,"sys_cam_id":"22308229","pause":0,"date_type":2,"cam_kind":4,"own_cd":22308}},{"type":"Feature","geometry":{"type":"Point","coordinates":[132.641819,34.968578]},"properties":{"id":122308230,"name":"江の川　72.2K　右岸　都賀本郷","name_kana":"","ofc_cd":87,"sys_id":1,"sys_cam_id":"22308230","pause":0,"date_type":2,"cam_kind":4,"own_cd":22308}},{"type":"Feature","geometry":{"type":"Point","coordinates":[132.644828,34.942989]},"properties":{"id":122308231,"name":"江の川　75.8K　左岸　都賀西","name_kana":"","ofc_cd":87,"sys_id":1,"sys_cam_id":"22308231","pause":0,"date_type":2,"cam_kind":4,"own_cd":22308}},{"type":"Feature","geometry":{"type":"Point","coordinates":[132.615293,34.986147]},"properties":{"id":122308252,"name":"江の川　68.8K　左岸　都賀行","name_kana":"","ofc_cd":87,"sys_id":1,"sys_cam_id":"22308252","pause":0,"date_type":2,"cam_kind":4,"own_cd":22308}},{"type":"Feature","geometry":{"type":"Point","coordinates":[132.642416667,34.948519444]},"properties":{"id":222308004,"name":"都賀大橋","name_kana":"","ofc_cd":87,"sys_id":2,"sys_cam_id":"22308005","pause":0,"date_type":0,"cam_kind":2,"own_cd":22308}},{"type":"Feature","geometry":{"type":"Point","coordinates":[132.634194444,34.906811111]},"properties":{"id":222308005,"name":"宇都井大橋","name_kana":"","ofc_cd":87,"sys_id":2,"sys_cam_id":"22308010","pause":0,"date_type":0,"cam_kind":2,"own_cd":22308}},{"type":"Feature","geometry":{"type":"Point","coordinates":[132.599536111,35.046294444]},"properties":{"id":222308013,"name":"浜原 左岸 55.4km","name_kana":"","ofc_cd":87,"sys_id":2,"sys_cam_id":"22308014","pause":0,"date_type":0,"cam_kind":2,"own_cd":22308}},{"type":"Feature","geometry":{"type":"Point","coordinates":[132.570647222,35.041241667]},"properties":{"id":222308016,"name":"吾郷大橋","name_kana":"","ofc_cd":87,"sys_id":2,"sys_cam_id":"22308017","pause":0,"date_type":0,"cam_kind":2,"own_cd":22308}},{"type":"Feature","geometry":{"type":"Point","coordinates":[132.614936111,34.996147222]},"properties":{"id":222308017,"name":"都賀行大橋","name_kana":"","ofc_cd":87,"sys_id":2,"sys_cam_id":"22308018","pause":0,"date_type":0,"cam_kind":2,"own_cd":22308}},{"type":"Feature","geometry":{"type":"Point","coordinates":[132.659409,34.895905]},"properties":{"id":122308232,"name":"江の川　83.4K　左岸　引城","name_kana":"","ofc_cd":87,"sys_id":1,"sys_cam_id":"22308232","pause":0,"date_type":2,"cam_kind":4,"own_cd":22308}},{"type":"Feature","geometry":{"type":"Point","coordinates":[132.676926,34.890868]},"properties":{"id":122308233,"name":"江の川　86.2K　左岸　下口羽","name_kana":"","ofc_cd":87,"sys_id":1,"sys_cam_id":"22308233","pause":0,"date_type":2,"cam_kind":4,"own_cd":22308}}]}