{"type":"FeatureCollection","crs":{"type":"name","properties":{"name":"EPSG:4326"}},"features":[{"type":"Feature","geometry":{"type":"Point","coordinates":[131.7780556,33.1361111]},"properties":{"id":111265026,"name":"黒丸橋","name_kana":"","ofc_cd":89,"sys_id":1,"sys_cam_id":"11265026","pause":0,"date_type":2,"cam_kind":4,"own_cd":11265}},{"type":"Feature","geometry":{"type":"Point","coordinates":[131.7897222,33.1466667]},"properties":{"id":111265027,"name":"堂篭橋","name_kana":"","ofc_cd":89,"sys_id":1,"sys_cam_id":"11265027","pause":0,"date_type":2,"cam_kind":4,"own_cd":11265}},{"type":"Feature","geometry":{"type":"Point","coordinates":[131.825,33.1775]},"properties":{"id":111265028,"name":"山崎橋","name_kana":"","ofc_cd":89,"sys_id":1,"sys_cam_id":"11265028","pause":0,"date_type":2,"cam_kind":4,"own_cd":11265}},{"type":"Feature","geometry":{"type":"Point","coordinates":[131.8047222,33.1152778]},"properties":{"id":111265029,"name":"竹尾橋","name_kana":"","ofc_cd":89,"sys_id":1,"sys_cam_id":"11265029","pause":0,"date_type":2,"cam_kind":4,"own_cd":11265}},{"type":"Feature","geometry":{"type":"Point","coordinates":[131.7875,33.1125]},"properties":{"id":111265030,"name":"福良１号橋","name_kana":"","ofc_cd":89,"sys_id":1,"sys_cam_id":"11265030","pause":0,"date_type":2,"cam_kind":4,"own_cd":11265}},{"type":"Feature","geometry":{"type":"Point","coordinates":[131.7577778,33.0919444]},"properties":{"id":111265031,"name":"南津留小学校橋","name_kana":"","ofc_cd":89,"sys_id":1,"sys_cam_id":"11265031","pause":0,"date_type":2,"cam_kind":4,"own_cd":11265}},{"type":"Feature","geometry":{"type":"Point","coordinates":[131.8059167,33.1136667]},"properties":{"id":111265081,"name":"坂本橋","name_kana":"","ofc_cd":89,"sys_id":1,"sys_cam_id":"11265081","pause":0,"date_type":2,"cam_kind":4,"own_cd":11265}},{"type":"Feature","geometry":{"type":"Point","coordinates":[131.8276389,33.1782222]},"properties":{"id":111265082,"name":"桑原橋","name_kana":"","ofc_cd":89,"sys_id":1,"sys_cam_id":"11265082","pause":0,"date_type":2,"cam_kind":4,"own_cd":11265}},{"type":"Feature","geometry":{"type":"Point","coordinates":[131.7924972,33.1166639]},"properties":{"id":311270001,"name":"万里橋","name_kana":"","ofc_cd":44,"sys_id":3,"sys_cam_id":"44010041","pause":0,"date_type":1,"cam_kind":2,"own_cd":11270}}]}