{"type":"FeatureCollection","crs":{"type":"name","properties":{"name":"EPSG:4326"}},"features":[{"type":"Feature","geometry":{"type":"Point","coordinates":[139.792808,35.805435]},"properties":{"id":102817029,"name":"毛長川谷塚観測局","name_kana":"","ofc_cd":83,"sys_id":1,"sys_cam_id":"2817029","pause":0,"date_type":1,"cam_kind":4,"own_cd":2817}},{"type":"Feature","geometry":{"type":"Point","coordinates":[139.80634,35.83801]},"properties":{"id":221279001,"name":"埼玉県草加市栄町　谷古宇水位観測所","name_kana":"","ofc_cd":83,"sys_id":2,"sys_cam_id":"11010001","pause":0,"date_type":0,"cam_kind":2,"own_cd":21279}},{"type":"Feature","geometry":{"type":"Point","coordinates":[139.797475,35.858383]},"properties":{"id":221279080,"name":"埼玉県越谷市蒲生愛宕町","name_kana":"","ofc_cd":83,"sys_id":2,"sys_cam_id":"21279062","pause":0,"date_type":0,"cam_kind":2,"own_cd":21279}},{"type":"Feature","geometry":{"type":"Point","coordinates":[139.815759,35.826745]},"properties":{"id":221279081,"name":"埼玉県草加市手代町","name_kana":"","ofc_cd":83,"sys_id":2,"sys_cam_id":"21279063","pause":0,"date_type":0,"cam_kind":2,"own_cd":21279}},{"type":"Feature","geometry":{"type":"Point","coordinates":[139.7734222,35.8599861]},"properties":{"id":302817001,"name":"一の橋観測所","name_kana":"","ofc_cd":11,"sys_id":3,"sys_cam_id":"11010026","pause":0,"date_type":1,"cam_kind":2,"own_cd":2817}}]}