{"type":"FeatureCollection","crs":{"type":"name","properties":{"name":"EPSG:4326"}},"features":[{"type":"Feature","geometry":{"type":"Point","coordinates":[140.7829271,40.1835394]},"properties":{"id":101281001,"name":"稲村橋","name_kana":"","ofc_cd":82,"sys_id":1,"sys_cam_id":"1281001","pause":0,"date_type":0,"cam_kind":4,"own_cd":1281}},{"type":"Feature","geometry":{"type":"Point","coordinates":[140.7881876,40.1583752]},"properties":{"id":101281002,"name":"松館橋","name_kana":"","ofc_cd":82,"sys_id":1,"sys_cam_id":"1281002","pause":0,"date_type":0,"cam_kind":4,"own_cd":1281}},{"type":"Feature","geometry":{"type":"Point","coordinates":[140.796598,40.1912738]},"properties":{"id":101281003,"name":"福士川","name_kana":"","ofc_cd":82,"sys_id":1,"sys_cam_id":"1281003","pause":0,"date_type":0,"cam_kind":4,"own_cd":1281}},{"type":"Feature","geometry":{"type":"Point","coordinates":[140.8065061,40.0653565]},"properties":{"id":101281004,"name":"熊沢橋","name_kana":"","ofc_cd":82,"sys_id":1,"sys_cam_id":"1281004","pause":0,"date_type":0,"cam_kind":4,"own_cd":1281}},{"type":"Feature","geometry":{"type":"Point","coordinates":[140.8374058,40.2971184]},"properties":{"id":101281006,"name":"大湯新橋","name_kana":"","ofc_cd":82,"sys_id":1,"sys_cam_id":"1281006","pause":0,"date_type":0,"cam_kind":4,"own_cd":1281}}]}