{"type":"FeatureCollection","crs":{"type":"name","properties":{"name":"EPSG:4326"}},"features":[{"type":"Feature","geometry":{"type":"Point","coordinates":[140.10083333,36.66416666]},"properties":{"id":102305018,"name":"新荒川橋（荒川）　那須烏山市岩子","name_kana":"","ofc_cd":83,"sys_id":1,"sys_cam_id":"2305018","pause":0,"date_type":2,"cam_kind":4,"own_cd":2305}},{"type":"Feature","geometry":{"type":"Point","coordinates":[140.153284,36.621082]},"properties":{"id":102305047,"name":"向田橋（荒川）那須烏山市向田","name_kana":"","ofc_cd":83,"sys_id":1,"sys_cam_id":"2305047","pause":0,"date_type":2,"cam_kind":4,"own_cd":2305}},{"type":"Feature","geometry":{"type":"Point","coordinates":[140.08201,36.679708]},"properties":{"id":102305048,"name":"藤田橋（荒川）那須烏山市藤田","name_kana":"","ofc_cd":83,"sys_id":1,"sys_cam_id":"2305048","pause":0,"date_type":2,"cam_kind":4,"own_cd":2305}},{"type":"Feature","geometry":{"type":"Point","coordinates":[140.130441,36.667694]},"properties":{"id":102305049,"name":"江川橋（江川）那須烏山市月次","name_kana":"","ofc_cd":83,"sys_id":1,"sys_cam_id":"2305049","pause":0,"date_type":2,"cam_kind":4,"own_cd":2305}},{"type":"Feature","geometry":{"type":"Point","coordinates":[140.15321016,36.6256645]},"properties":{"id":102305050,"name":"新橋（江川）那須烏山市向田","name_kana":"","ofc_cd":83,"sys_id":1,"sys_cam_id":"2305050","pause":0,"date_type":2,"cam_kind":4,"own_cd":2305}},{"type":"Feature","geometry":{"type":"Point","coordinates":[140.168375,36.61725833]},"properties":{"id":121271232,"name":"那珂川左　59.5k+590","name_kana":"","ofc_cd":83,"sys_id":1,"sys_cam_id":"21271232","pause":0,"date_type":2,"cam_kind":4,"own_cd":21271}},{"type":"Feature","geometry":{"type":"Point","coordinates":[140.16665555,36.6218]},"properties":{"id":121271233,"name":"那珂川左　60.5k+20","name_kana":"","ofc_cd":83,"sys_id":1,"sys_cam_id":"21271233","pause":0,"date_type":2,"cam_kind":4,"own_cd":21271}},{"type":"Feature","geometry":{"type":"Point","coordinates":[140.16205555,36.62956111]},"properties":{"id":121271234,"name":"那珂川左　61.5k+250","name_kana":"","ofc_cd":83,"sys_id":1,"sys_cam_id":"21271234","pause":0,"date_type":2,"cam_kind":4,"own_cd":21271}},{"type":"Feature","geometry":{"type":"Point","coordinates":[140.16176944,36.65949722]},"properties":{"id":121271235,"name":"那珂川右　68.0k+540","name_kana":"","ofc_cd":83,"sys_id":1,"sys_cam_id":"21271235","pause":0,"date_type":2,"cam_kind":4,"own_cd":21271}},{"type":"Feature","geometry":{"type":"Point","coordinates":[140.17749167,36.66119167]},"properties":{"id":121271241,"name":"那珂川左　66.5k","name_kana":"","ofc_cd":83,"sys_id":1,"sys_cam_id":"21271241","pause":0,"date_type":2,"cam_kind":4,"own_cd":21271}},{"type":"Feature","geometry":{"type":"Point","coordinates":[140.167575,36.65363055]},"properties":{"id":121271258,"name":"那珂川右岸 65.0k＋110（烏山大橋）","name_kana":"","ofc_cd":83,"sys_id":1,"sys_cam_id":"21271258","pause":0,"date_type":2,"cam_kind":4,"own_cd":21271}},{"type":"Feature","geometry":{"type":"Point","coordinates":[140.1675917,36.618875]},"properties":{"id":221271020,"name":"下境(荒川合流点)","name_kana":"しもざかい（あらかわごうりゅうてん）","ofc_cd":83,"sys_id":2,"sys_cam_id":"21271111","pause":0,"date_type":0,"cam_kind":2,"own_cd":21271}},{"type":"Feature","geometry":{"type":"Point","coordinates":[140.1571972,36.6278]},"properties":{"id":221271021,"name":"向田","name_kana":"むかだ","ofc_cd":83,"sys_id":2,"sys_cam_id":"21271112","pause":0,"date_type":0,"cam_kind":2,"own_cd":21271}},{"type":"Feature","geometry":{"type":"Point","coordinates":[140.159977778,36.664994444]},"properties":{"id":221271022,"name":"滝田(興野大橋)","name_kana":"たきた（きょうのおおはし）","ofc_cd":83,"sys_id":2,"sys_cam_id":"21271113","pause":0,"date_type":0,"cam_kind":2,"own_cd":21271}},{"type":"Feature","geometry":{"type":"Point","coordinates":[140.1555972,36.6858]},"properties":{"id":221271023,"name":"興野","name_kana":"きょうの","ofc_cd":83,"sys_id":2,"sys_cam_id":"21271114","pause":0,"date_type":0,"cam_kind":2,"own_cd":21271}},{"type":"Feature","geometry":{"type":"Point","coordinates":[140.1494,36.7214]},"properties":{"id":221271024,"name":"大桶(八溝大橋)","name_kana":"おおけ（やみぞおおはし）","ofc_cd":83,"sys_id":2,"sys_cam_id":"21271115","pause":0,"date_type":0,"cam_kind":2,"own_cd":21271}},{"type":"Feature","geometry":{"type":"Point","coordinates":[140.1561,36.6510972]},"properties":{"id":221271025,"name":"那珂川右岸　那珂川上流出張所鉄塔","name_kana":"なかがわうがん　なかがわじょうりゅうしゅっちょうじょてっとう","ofc_cd":83,"sys_id":2,"sys_cam_id":"21271116","pause":0,"date_type":0,"cam_kind":2,"own_cd":21271}}]}