{"type":"FeatureCollection","crs":{"type":"name","properties":{"name":"EPSG:4326"}},"features":[{"type":"Feature","geometry":{"type":"Point","coordinates":[139.54222222,36.31333333]},"properties":{"id":102305006,"name":"白旗橋（旗川）　佐野市免鳥町","name_kana":"","ofc_cd":83,"sys_id":1,"sys_cam_id":"2305006","pause":0,"date_type":2,"cam_kind":4,"own_cd":2305}},{"type":"Feature","geometry":{"type":"Point","coordinates":[139.60805555,36.39777777]},"properties":{"id":102305007,"name":"槐橋（小曽戸川）　佐野市葛生東","name_kana":"","ofc_cd":83,"sys_id":1,"sys_cam_id":"2305007","pause":0,"date_type":2,"cam_kind":4,"own_cd":2305}},{"type":"Feature","geometry":{"type":"Point","coordinates":[139.548136,36.331044]},"properties":{"id":102305053,"name":"稲岡橋（旗川）佐野市並木町","name_kana":"","ofc_cd":83,"sys_id":1,"sys_cam_id":"2305053","pause":0,"date_type":2,"cam_kind":4,"own_cd":2305}},{"type":"Feature","geometry":{"type":"Point","coordinates":[139.552018,36.473226]},"properties":{"id":102305054,"name":"岩鼻橋（秋山川）佐野市水木町","name_kana":"","ofc_cd":83,"sys_id":1,"sys_cam_id":"2305054","pause":0,"date_type":2,"cam_kind":4,"own_cd":2305}},{"type":"Feature","geometry":{"type":"Point","coordinates":[139.565486,36.326588]},"properties":{"id":102305055,"name":"菊沢川橋（菊沢川）佐野市堀米町","name_kana":"","ofc_cd":83,"sys_id":1,"sys_cam_id":"2305055","pause":0,"date_type":2,"cam_kind":4,"own_cd":2305}},{"type":"Feature","geometry":{"type":"Point","coordinates":[139.556105,36.281812]},"properties":{"id":102305056,"name":"羽田大橋（歳川）佐野市下羽田町","name_kana":"","ofc_cd":83,"sys_id":1,"sys_cam_id":"2305056","pause":0,"date_type":2,"cam_kind":4,"own_cd":2305}},{"type":"Feature","geometry":{"type":"Point","coordinates":[139.5786028,36.2789583]},"properties":{"id":221260008,"name":"伊保内新橋水位観測所","name_kana":"","ofc_cd":83,"sys_id":2,"sys_cam_id":"9010032","pause":0,"date_type":0,"cam_kind":2,"own_cd":21260}},{"type":"Feature","geometry":{"type":"Point","coordinates":[139.555,36.275277777]},"properties":{"id":221260022,"name":"渡良瀬大橋カメラ","name_kana":"","ofc_cd":83,"sys_id":2,"sys_cam_id":"21260021","pause":0,"date_type":0,"cam_kind":2,"own_cd":21260}},{"type":"Feature","geometry":{"type":"Point","coordinates":[139.525,36.301666666]},"properties":{"id":221260024,"name":"出流川水門カメラ","name_kana":"","ofc_cd":83,"sys_id":2,"sys_cam_id":"21260023","pause":0,"date_type":0,"cam_kind":2,"own_cd":21260}},{"type":"Feature","geometry":{"type":"Point","coordinates":[139.535277777,36.306388888]},"properties":{"id":221260025,"name":"高田橋上流カメラ","name_kana":"","ofc_cd":83,"sys_id":2,"sys_cam_id":"21260024","pause":0,"date_type":0,"cam_kind":2,"own_cd":21260}}]}