{"type":"FeatureCollection","crs":{"type":"name","properties":{"name":"EPSG:4326"}},"features":[{"type":"Feature","geometry":{"type":"Point","coordinates":[139.83849,35.88491]},"properties":{"id":221279002,"name":"埼玉県吉川市平沼　吉川水位観測所","name_kana":"","ofc_cd":83,"sys_id":2,"sys_cam_id":"11010003","pause":0,"date_type":0,"cam_kind":2,"own_cd":21279}},{"type":"Feature","geometry":{"type":"Point","coordinates":[139.84078,35.87927]},"properties":{"id":221279007,"name":"埼玉県吉川市中川台","name_kana":"","ofc_cd":83,"sys_id":2,"sys_cam_id":"11010044","pause":0,"date_type":0,"cam_kind":2,"own_cd":21279}},{"type":"Feature","geometry":{"type":"Point","coordinates":[139.840111111,35.861916667]},"properties":{"id":221279008,"name":"埼玉県吉川市道庭","name_kana":"","ofc_cd":83,"sys_id":2,"sys_cam_id":"11010045","pause":0,"date_type":0,"cam_kind":2,"own_cd":21279}},{"type":"Feature","geometry":{"type":"Point","coordinates":[139.880313,35.899605]},"properties":{"id":221279032,"name":"埼玉県吉川市平方新田","name_kana":"","ofc_cd":83,"sys_id":2,"sys_cam_id":"21279014","pause":0,"date_type":0,"cam_kind":2,"own_cd":21279}},{"type":"Feature","geometry":{"type":"Point","coordinates":[139.889797,35.879134]},"properties":{"id":221279034,"name":"埼玉県吉川市三輪野江","name_kana":"","ofc_cd":83,"sys_id":2,"sys_cam_id":"21279016","pause":0,"date_type":0,"cam_kind":2,"own_cd":21279}},{"type":"Feature","geometry":{"type":"Point","coordinates":[139.837693,35.906115]},"properties":{"id":221279071,"name":"埼玉県吉川市川藤　川藤水位観測所","name_kana":"","ofc_cd":83,"sys_id":2,"sys_cam_id":"21279053","pause":0,"date_type":0,"cam_kind":2,"own_cd":21279}},{"type":"Feature","geometry":{"type":"Point","coordinates":[139.840373,35.892426]},"properties":{"id":221279072,"name":"埼玉県吉川市関","name_kana":"","ofc_cd":83,"sys_id":2,"sys_cam_id":"21279054","pause":0,"date_type":0,"cam_kind":2,"own_cd":21279}}]}