{"type":"FeatureCollection","crs":{"type":"name","properties":{"name":"EPSG:4326"}},"features":[{"type":"Feature","geometry":{"type":"Point","coordinates":[141.1401333,38.3699111]},"properties":{"id":101025038,"name":"東名運河","name_kana":"とうなうんが","ofc_cd":82,"sys_id":1,"sys_cam_id":"1025038","pause":0,"date_type":2,"cam_kind":4,"own_cd":1025}},{"type":"Feature","geometry":{"type":"Point","coordinates":[141.126554,38.432745]},"properties":{"id":121034088,"name":"鞍坪川0.4kＲ","name_kana":"くらつぼがわ0.4kＲ","ofc_cd":82,"sys_id":1,"sys_cam_id":"21034088","pause":0,"date_type":2,"cam_kind":4,"own_cd":21034}},{"type":"Feature","geometry":{"type":"Point","coordinates":[141.172778,38.375556]},"properties":{"id":221034023,"name":"鳴瀬川河口右岸0.0km","name_kana":"","ofc_cd":82,"sys_id":2,"sys_cam_id":"21034045","pause":0,"date_type":0,"cam_kind":2,"own_cd":21034}},{"type":"Feature","geometry":{"type":"Point","coordinates":[141.1575,38.395278]},"properties":{"id":221034024,"name":"鳴瀬大橋2.7ｋｍ","name_kana":"","ofc_cd":82,"sys_id":2,"sys_cam_id":"21034019","pause":0,"date_type":0,"cam_kind":2,"own_cd":21034}},{"type":"Feature","geometry":{"type":"Point","coordinates":[141.158333,38.4025]},"properties":{"id":221034025,"name":"鳴瀬大橋左岸3.4ｋｍ","name_kana":"","ofc_cd":82,"sys_id":2,"sys_cam_id":"21034020","pause":0,"date_type":0,"cam_kind":2,"own_cd":21034}},{"type":"Feature","geometry":{"type":"Point","coordinates":[141.147778,38.406944]},"properties":{"id":221034026,"name":"小野橋4.2ｋｍ","name_kana":"","ofc_cd":82,"sys_id":2,"sys_cam_id":"21034021","pause":0,"date_type":0,"cam_kind":2,"own_cd":21034}},{"type":"Feature","geometry":{"type":"Point","coordinates":[141.136667,38.416389]},"properties":{"id":221034034,"name":"若針排水樋管右岸5.8ｋｍ","name_kana":"","ofc_cd":82,"sys_id":2,"sys_cam_id":"21034022","pause":0,"date_type":0,"cam_kind":2,"own_cd":21034}},{"type":"Feature","geometry":{"type":"Point","coordinates":[141.147778,38.413333]},"properties":{"id":221034045,"name":"鳴瀬堰鉄塔左岸4.8ｋｍ","name_kana":"","ofc_cd":82,"sys_id":2,"sys_cam_id":"21034008","pause":0,"date_type":0,"cam_kind":2,"own_cd":21034}},{"type":"Feature","geometry":{"type":"Point","coordinates":[141.15,38.410833]},"properties":{"id":221034046,"name":"鳴瀬堰下流左岸4.6ｋｍ","name_kana":"","ofc_cd":82,"sys_id":2,"sys_cam_id":"21034009","pause":0,"date_type":0,"cam_kind":2,"own_cd":21034}}]}