{"type":"FeatureCollection","crs":{"type":"name","properties":{"name":"EPSG:4326"}},"features":[{"type":"Feature","geometry":{"type":"Point","coordinates":[140.606053,37.861198]},"properties":{"id":101793042,"name":"塩野川（西塩野川橋）","name_kana":"しおのがわ（にししおのがわはし）","ofc_cd":82,"sys_id":1,"sys_cam_id":"1793042","pause":0,"date_type":2,"cam_kind":4,"own_cd":1793}},{"type":"Feature","geometry":{"type":"Point","coordinates":[140.596365,37.856505]},"properties":{"id":101793043,"name":"伝樋川（新桐木橋）","name_kana":"でんぴがわ（にんきりきばし）","ofc_cd":82,"sys_id":1,"sys_cam_id":"1793043","pause":0,"date_type":2,"cam_kind":4,"own_cd":1793}},{"type":"Feature","geometry":{"type":"Point","coordinates":[140.561475,37.820427]},"properties":{"id":101793044,"name":"東根川（界橋）","name_kana":"ひがしねがわ（さかいはし）","ofc_cd":82,"sys_id":1,"sys_cam_id":"1793044","pause":0,"date_type":2,"cam_kind":4,"own_cd":1793}},{"type":"Feature","geometry":{"type":"Point","coordinates":[140.619652,37.818915]},"properties":{"id":101793045,"name":"広瀬川（二村橋）","name_kana":"ひろせがわ（ふたむらばし）","ofc_cd":82,"sys_id":1,"sys_cam_id":"1793045","pause":0,"date_type":2,"cam_kind":4,"own_cd":1793}},{"type":"Feature","geometry":{"type":"Point","coordinates":[140.550606,37.82169]},"properties":{"id":101793046,"name":"古川（古川橋）","name_kana":"ふるかわ（ふるかわはし）","ofc_cd":82,"sys_id":1,"sys_cam_id":"1793046","pause":0,"date_type":2,"cam_kind":4,"own_cd":1793}},{"type":"Feature","geometry":{"type":"Point","coordinates":[140.5971155,37.7901383]},"properties":{"id":101793110,"name":"小国川（下川原橋）","name_kana":"おぐにがわ（しもかわはらはし）","ofc_cd":82,"sys_id":1,"sys_cam_id":"1793110","pause":0,"date_type":2,"cam_kind":4,"own_cd":1793}},{"type":"Feature","geometry":{"type":"Point","coordinates":[140.5813087,37.7678245]},"properties":{"id":101793111,"name":"小国川（高屋敷橋）","name_kana":"おぐにがわ（たかやしきばし）","ofc_cd":82,"sys_id":1,"sys_cam_id":"1793111","pause":0,"date_type":2,"cam_kind":4,"own_cd":1793}},{"type":"Feature","geometry":{"type":"Point","coordinates":[140.5826026,37.8262195]},"properties":{"id":101793190,"name":"伝樋川（上大鳥橋）","name_kana":"でんぴがわ（かみおおとりばし）","ofc_cd":82,"sys_id":1,"sys_cam_id":"1793190","pause":0,"date_type":1,"cam_kind":4,"own_cd":1793}},{"type":"Feature","geometry":{"type":"Point","coordinates":[140.6082773,37.7343404]},"properties":{"id":101793191,"name":"広瀬川（細布橋）","name_kana":"ひろせがわ（ほそぬのばし）","ofc_cd":82,"sys_id":1,"sys_cam_id":"1793191","pause":0,"date_type":1,"cam_kind":4,"own_cd":1793}},{"type":"Feature","geometry":{"type":"Point","coordinates":[140.557583,37.8389756]},"properties":{"id":101793192,"name":"古川（猫川橋）","name_kana":"ふるかわ（ねこかわばし）","ofc_cd":82,"sys_id":1,"sys_cam_id":"1793192","pause":0,"date_type":1,"cam_kind":4,"own_cd":1793}},{"type":"Feature","geometry":{"type":"Point","coordinates":[140.6490236,37.8764519]},"properties":{"id":101793193,"name":"山舟生川（護岸）","name_kana":"やまふにゅうかわ（ごがん）","ofc_cd":82,"sys_id":1,"sys_cam_id":"1793193","pause":0,"date_type":1,"cam_kind":4,"own_cd":1793}},{"type":"Feature","geometry":{"type":"Point","coordinates":[140.3586628,37.5355315]},"properties":{"id":101793286,"name":"安達太良川 (大渡度橋)","name_kana":"","ofc_cd":82,"sys_id":1,"sys_cam_id":"1793286","pause":0,"date_type":1,"cam_kind":4,"own_cd":1793}},{"type":"Feature","geometry":{"type":"Point","coordinates":[140.5329591,37.6562294]},"properties":{"id":101793288,"name":"女神川 (飯野橋)","name_kana":"","ofc_cd":82,"sys_id":1,"sys_cam_id":"1793288","pause":0,"date_type":1,"cam_kind":4,"own_cd":1793}},{"type":"Feature","geometry":{"type":"Point","coordinates":[140.5649383,37.8479866]},"properties":{"id":101793289,"name":"東根川 (遊水池A)","name_kana":"","ofc_cd":82,"sys_id":1,"sys_cam_id":"1793289","pause":0,"date_type":1,"cam_kind":4,"own_cd":1793}},{"type":"Feature","geometry":{"type":"Point","coordinates":[140.5648241,37.5648241]},"properties":{"id":101793290,"name":"東根川 (遊水池C)","name_kana":"","ofc_cd":82,"sys_id":1,"sys_cam_id":"1793290","pause":0,"date_type":1,"cam_kind":4,"own_cd":1793}},{"type":"Feature","geometry":{"type":"Point","coordinates":[140.6278307,37.8790845]},"properties":{"id":121063270,"name":"舟生上台(阿R4.4k+180)","name_kana":"ふにゅううえのだい","ofc_cd":82,"sys_id":1,"sys_cam_id":"21063270","pause":0,"date_type":2,"cam_kind":4,"own_cd":21063}},{"type":"Feature","geometry":{"type":"Point","coordinates":[140.5125729,37.8255443]},"properties":{"id":121063300,"name":"岡沼(阿L17.0k)","name_kana":"おかぬま","ofc_cd":82,"sys_id":1,"sys_cam_id":"21063300","pause":0,"date_type":2,"cam_kind":4,"own_cd":21063}},{"type":"Feature","geometry":{"type":"Point","coordinates":[140.6257101,37.8846763]},"properties":{"id":121063304,"name":"梁川町五十沢岡崎前(阿L4.2k)","name_kana":"やながわまちいさざわおかざきまえ","ofc_cd":82,"sys_id":1,"sys_cam_id":"21063304","pause":0,"date_type":2,"cam_kind":4,"own_cd":21063}},{"type":"Feature","geometry":{"type":"Point","coordinates":[140.589662,37.865388]},"properties":{"id":121063307,"name":"梁川町やながわ工業団地(阿L8.4k)","name_kana":"やながわまちやながわこうぎょうだんち","ofc_cd":82,"sys_id":1,"sys_cam_id":"21063307","pause":0,"date_type":2,"cam_kind":4,"own_cd":21063}},{"type":"Feature","geometry":{"type":"Point","coordinates":[140.6102036,37.8524049]},"properties":{"id":121063309,"name":"梁川町上川原(広L2.0k+30)","name_kana":"やながわまちかみがわら","ofc_cd":82,"sys_id":1,"sys_cam_id":"21063309","pause":0,"date_type":2,"cam_kind":4,"own_cd":21063}},{"type":"Feature","geometry":{"type":"Point","coordinates":[140.6467108,37.8968601]},"properties":{"id":121063321,"name":"梁川町舟生桂野(阿R1.4k)","name_kana":"やながわまちふにゅうかつらの","ofc_cd":82,"sys_id":1,"sys_cam_id":"21063321","pause":0,"date_type":2,"cam_kind":4,"own_cd":21063}},{"type":"Feature","geometry":{"type":"Point","coordinates":[140.605059,37.860592]},"properties":{"id":121063327,"name":"西塩野川(広R1.2k)","name_kana":"にししおのがわ","ofc_cd":82,"sys_id":1,"sys_cam_id":"21063327","pause":0,"date_type":2,"cam_kind":4,"own_cd":21063}},{"type":"Feature","geometry":{"type":"Point","coordinates":[140.643056,37.893056]},"properties":{"id":221063001,"name":"沼の平","name_kana":"ぬまのだいら","ofc_cd":82,"sys_id":2,"sys_cam_id":"21063037","pause":0,"date_type":0,"cam_kind":2,"own_cd":21063}},{"type":"Feature","geometry":{"type":"Point","coordinates":[140.624167,37.880556]},"properties":{"id":221063002,"name":"五十沢樋門","name_kana":"いさざわひもん","ofc_cd":82,"sys_id":2,"sys_cam_id":"21063036","pause":0,"date_type":0,"cam_kind":2,"own_cd":21063}},{"type":"Feature","geometry":{"type":"Point","coordinates":[140.610556,37.871111]},"properties":{"id":221063003,"name":"五十沢樋管","name_kana":"いさざわひかん","ofc_cd":82,"sys_id":2,"sys_cam_id":"21063035","pause":0,"date_type":0,"cam_kind":2,"own_cd":21063}},{"type":"Feature","geometry":{"type":"Point","coordinates":[140.600833,37.859444]},"properties":{"id":221063004,"name":"伝樋川水門","name_kana":"でんぴがわすいもんひかん","ofc_cd":82,"sys_id":2,"sys_cam_id":"21063034","pause":0,"date_type":0,"cam_kind":2,"own_cd":21063}},{"type":"Feature","geometry":{"type":"Point","coordinates":[140.605,37.857222]},"properties":{"id":221063005,"name":"広瀬川管理センター","name_kana":"ひろせがわかんりせんたー","ofc_cd":82,"sys_id":2,"sys_cam_id":"21063033","pause":0,"date_type":0,"cam_kind":2,"own_cd":21063}},{"type":"Feature","geometry":{"type":"Point","coordinates":[140.591111,37.861667]},"properties":{"id":221063006,"name":"大正樋門","name_kana":"たいしょうひもん","ofc_cd":82,"sys_id":2,"sys_cam_id":"21063032","pause":0,"date_type":0,"cam_kind":2,"own_cd":21063}},{"type":"Feature","geometry":{"type":"Point","coordinates":[140.523333,37.83]},"properties":{"id":221063011,"name":"大正橋下流","name_kana":"たいしょうばしかりゅう","ofc_cd":82,"sys_id":2,"sys_cam_id":"21063027","pause":0,"date_type":0,"cam_kind":2,"own_cd":21063}},{"type":"Feature","geometry":{"type":"Point","coordinates":[140.520833,37.828611]},"properties":{"id":221063012,"name":"伏黒水位観測所","name_kana":"ふしぐろすいいかんそくじょ","ofc_cd":82,"sys_id":2,"sys_cam_id":"21063085","pause":0,"date_type":0,"cam_kind":2,"own_cd":21063}},{"type":"Feature","geometry":{"type":"Point","coordinates":[140.510556,37.816389]},"properties":{"id":221063013,"name":"ふれあいセンター","name_kana":"ふれあいせんたー","ofc_cd":82,"sys_id":2,"sys_cam_id":"21063026","pause":0,"date_type":0,"cam_kind":2,"own_cd":21063}},{"type":"Feature","geometry":{"type":"Point","coordinates":[140.506111,37.814444]},"properties":{"id":221063014,"name":"摺上川合流左岸","name_kana":"すりかみがわごううりゅうさがん","ofc_cd":82,"sys_id":2,"sys_cam_id":"21063025","pause":0,"date_type":0,"cam_kind":2,"own_cd":21063}}]}