{"type":"FeatureCollection","crs":{"type":"name","properties":{"name":"EPSG:4326"}},"features":[{"type":"Feature","geometry":{"type":"Point","coordinates":[138.7020444,37.054111]},"properties":{"id":103841090,"name":"上山","name_kana":"","ofc_cd":84,"sys_id":1,"sys_cam_id":"3841090","pause":0,"date_type":1,"cam_kind":4,"own_cd":3841}},{"type":"Feature","geometry":{"type":"Point","coordinates":[138.6588444,37.15025]},"properties":{"id":103841091,"name":"苧島橋","name_kana":"","ofc_cd":84,"sys_id":1,"sys_cam_id":"3841091","pause":0,"date_type":1,"cam_kind":4,"own_cd":3841}},{"type":"Feature","geometry":{"type":"Point","coordinates":[138.6794389,37.175725]},"properties":{"id":103841092,"name":"室島","name_kana":"","ofc_cd":84,"sys_id":1,"sys_cam_id":"3841092","pause":0,"date_type":1,"cam_kind":4,"own_cd":3841}},{"type":"Feature","geometry":{"type":"Point","coordinates":[138.765581,37.134347]},"properties":{"id":103841126,"name":"田川","name_kana":"","ofc_cd":84,"sys_id":1,"sys_cam_id":"3841126","pause":0,"date_type":1,"cam_kind":4,"own_cd":3841}},{"type":"Feature","geometry":{"type":"Point","coordinates":[138.767806,37.190288]},"properties":{"id":121535039,"name":"十日町市下組","name_kana":"","ofc_cd":84,"sys_id":1,"sys_cam_id":"21535039","pause":0,"date_type":2,"cam_kind":4,"own_cd":21535}},{"type":"Feature","geometry":{"type":"Point","coordinates":[138.743608,37.142601]},"properties":{"id":121535040,"name":"十日町市西本町","name_kana":"","ofc_cd":84,"sys_id":1,"sys_cam_id":"21535040","pause":0,"date_type":2,"cam_kind":4,"own_cd":21535}},{"type":"Feature","geometry":{"type":"Point","coordinates":[138.713772,37.082875]},"properties":{"id":121535041,"name":"十日町市南雲","name_kana":"","ofc_cd":84,"sys_id":1,"sys_cam_id":"21535041","pause":0,"date_type":2,"cam_kind":4,"own_cd":21535}},{"type":"Feature","geometry":{"type":"Point","coordinates":[138.750275,37.1491639]},"properties":{"id":221535012,"name":"信濃川妻有大橋上流","name_kana":"","ofc_cd":84,"sys_id":2,"sys_cam_id":"15010063","pause":0,"date_type":0,"cam_kind":3,"own_cd":21535}},{"type":"Feature","geometry":{"type":"Point","coordinates":[138.7397194,37.1375]},"properties":{"id":221535013,"name":"信濃川十日町橋","name_kana":"","ofc_cd":84,"sys_id":2,"sys_cam_id":"15010064","pause":0,"date_type":0,"cam_kind":3,"own_cd":21535}},{"type":"Feature","geometry":{"type":"Point","coordinates":[138.6997194,37.0641639]},"properties":{"id":221535014,"name":"信濃川宮中橋","name_kana":"","ofc_cd":84,"sys_id":2,"sys_cam_id":"15010065","pause":0,"date_type":0,"cam_kind":3,"own_cd":21535}},{"type":"Feature","geometry":{"type":"Point","coordinates":[138.7516667,37.1505556]},"properties":{"id":221535050,"name":"信濃川 63．0右 妻有大橋下流","name_kana":"","ofc_cd":84,"sys_id":2,"sys_cam_id":"15010137","pause":0,"date_type":0,"cam_kind":3,"own_cd":21535}},{"type":"Feature","geometry":{"type":"Point","coordinates":[138.7183306,37.0960556]},"properties":{"id":221535051,"name":"信濃川 70．1ｋ 十日町水位","name_kana":"","ofc_cd":84,"sys_id":2,"sys_cam_id":"15010138","pause":0,"date_type":0,"cam_kind":3,"own_cd":21535}},{"type":"Feature","geometry":{"type":"Point","coordinates":[138.7052747,37.0169442]},"properties":{"id":221537024,"name":"釜川・釜川橋","name_kana":"かまがわ・かまがわばし","ofc_cd":84,"sys_id":2,"sys_cam_id":"21537024","pause":0,"date_type":0,"cam_kind":3,"own_cd":21537}},{"type":"Feature","geometry":{"type":"Point","coordinates":[138.7088858,36.9805561]},"properties":{"id":221537027,"name":"釜川・田代砂防堰堤","name_kana":"かまがわ・たしろさぼうえんてい","ofc_cd":84,"sys_id":2,"sys_cam_id":"21537027","pause":0,"date_type":0,"cam_kind":3,"own_cd":21537}}]}