{"type":"FeatureCollection","crs":{"type":"name","properties":{"name":"EPSG:4326"}},"features":[{"type":"Feature","geometry":{"type":"Point","coordinates":[134.99276,34.98781]},"properties":{"id":107171010,"name":"上戸田","name_kana":"かみとだ","ofc_cd":86,"sys_id":1,"sys_cam_id":"7171010","pause":0,"date_type":2,"cam_kind":4,"own_cd":7171}},{"type":"Feature","geometry":{"type":"Point","coordinates":[134.99378,35.05519]},"properties":{"id":107171011,"name":"黒田庄","name_kana":"くろだしょう","ofc_cd":86,"sys_id":1,"sys_cam_id":"7171011","pause":0,"date_type":2,"cam_kind":4,"own_cd":7171}},{"type":"Feature","geometry":{"type":"Point","coordinates":[134.9586,34.96803]},"properties":{"id":107171012,"name":"平野","name_kana":"ひらの","ofc_cd":86,"sys_id":1,"sys_cam_id":"7171012","pause":0,"date_type":2,"cam_kind":4,"own_cd":7171}},{"type":"Feature","geometry":{"type":"Point","coordinates":[134.96216,35.00058]},"properties":{"id":107171013,"name":"西脇小坂","name_kana":"にしわきこさか","ofc_cd":86,"sys_id":1,"sys_cam_id":"7171013","pause":0,"date_type":2,"cam_kind":4,"own_cd":7171}},{"type":"Feature","geometry":{"type":"Point","coordinates":[134.98105,35.03649]},"properties":{"id":107171014,"name":"大伏","name_kana":"おおふし","ofc_cd":86,"sys_id":1,"sys_cam_id":"7171014","pause":0,"date_type":2,"cam_kind":4,"own_cd":7171}},{"type":"Feature","geometry":{"type":"Point","coordinates":[134.971394,34.979531]},"properties":{"id":107171020,"name":"西脇救急内水排水機場","name_kana":"にしわききゅうきゅうないすいはいすいきじょう","ofc_cd":86,"sys_id":1,"sys_cam_id":"7171020","pause":0,"date_type":2,"cam_kind":4,"own_cd":7171}},{"type":"Feature","geometry":{"type":"Point","coordinates":[134.971986,34.98445]},"properties":{"id":107171029,"name":"西脇","name_kana":"にしわき","ofc_cd":86,"sys_id":1,"sys_cam_id":"7171029","pause":0,"date_type":1,"cam_kind":4,"own_cd":7171}},{"type":"Feature","geometry":{"type":"Point","coordinates":[135.00398,34.998381]},"properties":{"id":107171030,"name":"上比延","name_kana":"かみひえ","ofc_cd":86,"sys_id":1,"sys_cam_id":"7171030","pause":0,"date_type":1,"cam_kind":4,"own_cd":7171}},{"type":"Feature","geometry":{"type":"Point","coordinates":[134.975073,34.975304]},"properties":{"id":207171001,"name":"加古川西脇","name_kana":"かこがわにしわき","ofc_cd":28,"sys_id":3,"sys_cam_id":"7171001","pause":0,"date_type":1,"cam_kind":2,"own_cd":7171}},{"type":"Feature","geometry":{"type":"Point","coordinates":[134.97346666,34.96421666]},"properties":{"id":222061032,"name":"板波","name_kana":"いたば","ofc_cd":86,"sys_id":2,"sys_cam_id":"28010001","pause":0,"date_type":0,"cam_kind":2,"own_cd":22061}}]}