{"type":"FeatureCollection","crs":{"type":"name","properties":{"name":"EPSG:4326"}},"features":[{"type":"Feature","geometry":{"type":"Point","coordinates":[136.608099,34.957398]},"properties":{"id":106145004,"name":"鹿化川(鹿化橋上流側)","name_kana":"かばけかわ(かばけはしじょうりゅうがわ)","ofc_cd":85,"sys_id":1,"sys_cam_id":"6145004","pause":0,"date_type":2,"cam_kind":4,"own_cd":6145}},{"type":"Feature","geometry":{"type":"Point","coordinates":[136.5840288,35.0363611]},"properties":{"id":106145009,"name":"朝明川(下野橋)","name_kana":"あさけかわ(しものはし)","ofc_cd":85,"sys_id":1,"sys_cam_id":"6145009","pause":0,"date_type":1,"cam_kind":4,"own_cd":6145}},{"type":"Feature","geometry":{"type":"Point","coordinates":[136.5988333,34.9956111]},"properties":{"id":106145012,"name":"海蔵川(野中橋上流側)","name_kana":"かいぞうかわ(のなかはしじょうりゅうがわ)","ofc_cd":85,"sys_id":1,"sys_cam_id":"6145012","pause":0,"date_type":1,"cam_kind":4,"own_cd":6145}},{"type":"Feature","geometry":{"type":"Point","coordinates":[136.5662788,34.9793611]},"properties":{"id":106145013,"name":"三滝川(神前橋)","name_kana":"みたきかわ(かんざきはし)","ofc_cd":85,"sys_id":1,"sys_cam_id":"6145013","pause":0,"date_type":1,"cam_kind":4,"own_cd":6145}},{"type":"Feature","geometry":{"type":"Point","coordinates":[136.6081111,34.9503333]},"properties":{"id":106145014,"name":"天白川(天白橋)","name_kana":"てんぱくかわ(てんぱくはし)","ofc_cd":85,"sys_id":1,"sys_cam_id":"6145014","pause":0,"date_type":1,"cam_kind":4,"own_cd":6145}},{"type":"Feature","geometry":{"type":"Point","coordinates":[136.56157,34.927615]},"properties":{"id":106145066,"name":"鎌谷川(鎌谷川2号橋)","name_kana":"かまたにがわ(かまたにがわ2ごうきょう)","ofc_cd":85,"sys_id":1,"sys_cam_id":"6145066","pause":0,"date_type":1,"cam_kind":4,"own_cd":6145}},{"type":"Feature","geometry":{"type":"Point","coordinates":[136.5681944,34.9346111]},"properties":{"id":106145074,"name":"足見川(波木橋)","name_kana":"あしみかわ(はぎはし)","ofc_cd":85,"sys_id":1,"sys_cam_id":"6145074","pause":0,"date_type":1,"cam_kind":4,"own_cd":6145}},{"type":"Feature","geometry":{"type":"Point","coordinates":[136.528583,34.934028]},"properties":{"id":106145079,"name":"内部川(六名橋)","name_kana":"うつべがわ(ろくみょうばし)","ofc_cd":85,"sys_id":1,"sys_cam_id":"6145079","pause":0,"date_type":2,"cam_kind":4,"own_cd":6145}},{"type":"Feature","geometry":{"type":"Point","coordinates":[136.630476,34.912563]},"properties":{"id":121801046,"name":"鈴鹿川派川　左岸　1.6km+18.4m","name_kana":"","ofc_cd":85,"sys_id":1,"sys_cam_id":"21801046","pause":0,"date_type":2,"cam_kind":4,"own_cd":21801}},{"type":"Feature","geometry":{"type":"Point","coordinates":[136.615054,34.92429]},"properties":{"id":121801047,"name":"内部川　右岸　0.2km+8.5m","name_kana":"","ofc_cd":85,"sys_id":1,"sys_cam_id":"21801047","pause":0,"date_type":2,"cam_kind":4,"own_cd":21801}},{"type":"Feature","geometry":{"type":"Point","coordinates":[136.581886,34.923587]},"properties":{"id":121801048,"name":"内部川　右岸　3.4km+17.7m","name_kana":"","ofc_cd":85,"sys_id":1,"sys_cam_id":"21801048","pause":0,"date_type":2,"cam_kind":4,"own_cd":21801}},{"type":"Feature","geometry":{"type":"Point","coordinates":[136.569786,34.928836]},"properties":{"id":121801049,"name":"内部川　左岸　4.8km+70.2m","name_kana":"","ofc_cd":85,"sys_id":1,"sys_cam_id":"21801049","pause":0,"date_type":1,"cam_kind":4,"own_cd":21801}},{"type":"Feature","geometry":{"type":"Point","coordinates":[136.561806,34.923472]},"properties":{"id":121801050,"name":"内部川　左岸　6.0km+89.0m","name_kana":"","ofc_cd":85,"sys_id":1,"sys_cam_id":"21801050","pause":0,"date_type":2,"cam_kind":4,"own_cd":21801}},{"type":"Feature","geometry":{"type":"Point","coordinates":[136.62033305,34.92275]},"properties":{"id":121801078,"name":"鈴鹿川右岸３．０ｋｍ－３．０ｍ","name_kana":"","ofc_cd":85,"sys_id":1,"sys_cam_id":"21801078","pause":0,"date_type":2,"cam_kind":4,"own_cd":21801}},{"type":"Feature","geometry":{"type":"Point","coordinates":[136.6054306,34.9098194]},"properties":{"id":221801023,"name":"鈴鹿大橋","name_kana":"","ofc_cd":85,"sys_id":2,"sys_cam_id":"24010028","pause":0,"date_type":0,"cam_kind":2,"own_cd":21801}},{"type":"Feature","geometry":{"type":"Point","coordinates":[136.6160889,34.9069611]},"properties":{"id":221801024,"name":"南川水位観測所","name_kana":"","ofc_cd":85,"sys_id":2,"sys_cam_id":"24010029","pause":0,"date_type":0,"cam_kind":2,"own_cd":21801}},{"type":"Feature","geometry":{"type":"Point","coordinates":[136.5974889,34.9078]},"properties":{"id":221801033,"name":"鈴鹿川出張所鉄塔","name_kana":"","ofc_cd":85,"sys_id":2,"sys_cam_id":"24010038","pause":0,"date_type":0,"cam_kind":2,"own_cd":21801}},{"type":"Feature","geometry":{"type":"Point","coordinates":[136.6100889,34.9143194]},"properties":{"id":221801034,"name":"本郷橋","name_kana":"","ofc_cd":85,"sys_id":2,"sys_cam_id":"24010039","pause":0,"date_type":0,"cam_kind":2,"own_cd":21801}},{"type":"Feature","geometry":{"type":"Point","coordinates":[136.6203694,34.9262111]},"properties":{"id":221801035,"name":"内部川合流点","name_kana":"","ofc_cd":85,"sys_id":2,"sys_cam_id":"24010040","pause":0,"date_type":0,"cam_kind":2,"own_cd":21801}},{"type":"Feature","geometry":{"type":"Point","coordinates":[136.6349611,34.9296889]},"properties":{"id":221801036,"name":"磯津橋","name_kana":"","ofc_cd":85,"sys_id":2,"sys_cam_id":"24010041","pause":0,"date_type":0,"cam_kind":2,"own_cd":21801}},{"type":"Feature","geometry":{"type":"Point","coordinates":[136.6466194,34.9348194]},"properties":{"id":221801037,"name":"鈴鹿川河口部","name_kana":"","ofc_cd":85,"sys_id":2,"sys_cam_id":"24010042","pause":0,"date_type":0,"cam_kind":2,"own_cd":21801}},{"type":"Feature","geometry":{"type":"Point","coordinates":[136.6297,34.9106806]},"properties":{"id":221801038,"name":"五味塚橋","name_kana":"","ofc_cd":85,"sys_id":2,"sys_cam_id":"24010043","pause":0,"date_type":0,"cam_kind":2,"own_cd":21801}},{"type":"Feature","geometry":{"type":"Point","coordinates":[136.6334,34.9106306]},"properties":{"id":221801039,"name":"新五味塚橋","name_kana":"","ofc_cd":85,"sys_id":2,"sys_cam_id":"24010044","pause":0,"date_type":0,"cam_kind":2,"own_cd":21801}},{"type":"Feature","geometry":{"type":"Point","coordinates":[136.6424389,34.90615]},"properties":{"id":221801040,"name":"鈴鹿川派川河口部","name_kana":"","ofc_cd":85,"sys_id":2,"sys_cam_id":"24010045","pause":0,"date_type":0,"cam_kind":2,"own_cd":21801}},{"type":"Feature","geometry":{"type":"Point","coordinates":[136.58455,34.9214111]},"properties":{"id":221801041,"name":"内部橋","name_kana":"","ofc_cd":85,"sys_id":2,"sys_cam_id":"24010046","pause":0,"date_type":0,"cam_kind":2,"own_cd":21801}},{"type":"Feature","geometry":{"type":"Point","coordinates":[136.5960111,34.9191]},"properties":{"id":221801042,"name":"河原田水位観測所","name_kana":"","ofc_cd":85,"sys_id":2,"sys_cam_id":"24010047","pause":0,"date_type":0,"cam_kind":2,"own_cd":21801}},{"type":"Feature","geometry":{"type":"Point","coordinates":[136.6061306,34.9223306]},"properties":{"id":221801043,"name":"ＪＲ関西本線内部川橋梁","name_kana":"","ofc_cd":85,"sys_id":2,"sys_cam_id":"24010048","pause":0,"date_type":0,"cam_kind":2,"own_cd":21801}}]}