{"type":"FeatureCollection","crs":{"type":"name","properties":{"name":"EPSG:4326"}},"features":[{"type":"Feature","geometry":{"type":"Point","coordinates":[142.619972222,44.300463889]},"properties":{"id":100257183,"name":"下川パンケ川  1.5Kp","name_kana":"","ofc_cd":81,"sys_id":1,"sys_cam_id":"257183","pause":0,"date_type":2,"cam_kind":4,"own_cd":257}},{"type":"Feature","geometry":{"type":"Point","coordinates":[142.630048889,44.294097222]},"properties":{"id":100257212,"name":"桑の沢川  0.8Kp","name_kana":"","ofc_cd":81,"sys_id":1,"sys_cam_id":"257212","pause":0,"date_type":2,"cam_kind":4,"own_cd":257}},{"type":"Feature","geometry":{"type":"Point","coordinates":[142.660644444,44.286444444]},"properties":{"id":100257213,"name":"下川ペンケ川  1.4Kp","name_kana":"","ofc_cd":81,"sys_id":1,"sys_cam_id":"257213","pause":0,"date_type":2,"cam_kind":4,"own_cd":257}},{"type":"Feature","geometry":{"type":"Point","coordinates":[142.5534959,44.3194035]},"properties":{"id":120736120,"name":"名寄川KP14.8左岸カメラ","name_kana":"なよろがわKP14.8さがんかめら","ofc_cd":81,"sys_id":1,"sys_cam_id":"20736120","pause":0,"date_type":2,"cam_kind":4,"own_cd":23297}},{"type":"Feature","geometry":{"type":"Point","coordinates":[142.5549364,44.3186171]},"properties":{"id":120736426,"name":"名寄川KP15.0左岸カメラ","name_kana":"なよろがわKP15.0さがんかめら","ofc_cd":81,"sys_id":1,"sys_cam_id":"20736426","pause":0,"date_type":2,"cam_kind":4,"own_cd":23297}},{"type":"Feature","geometry":{"type":"Point","coordinates":[142.5879436,44.3197548]},"properties":{"id":120736429,"name":"名寄川KP18.0右岸カメラ","name_kana":"なよろがわKP18.0うがんかめら","ofc_cd":81,"sys_id":1,"sys_cam_id":"20736429","pause":0,"date_type":2,"cam_kind":4,"own_cd":23297}},{"type":"Feature","geometry":{"type":"Point","coordinates":[142.6573176,44.3000901]},"properties":{"id":120736430,"name":"名寄川KP24.4右岸カメラ","name_kana":"なよろがわKP24.4うがんかめら","ofc_cd":81,"sys_id":1,"sys_cam_id":"20736430","pause":0,"date_type":2,"cam_kind":4,"own_cd":23297}},{"type":"Feature","geometry":{"type":"Point","coordinates":[142.6566869,44.298906]},"properties":{"id":120736431,"name":"名寄川KP24.4左岸カメラ","name_kana":"なよろがわKP24.4さがんかめら","ofc_cd":81,"sys_id":1,"sys_cam_id":"20736431","pause":0,"date_type":2,"cam_kind":4,"own_cd":23297}},{"type":"Feature","geometry":{"type":"Point","coordinates":[142.6656069,44.2975298]},"properties":{"id":120736432,"name":"名寄川KP25.2右岸(堤外)カメラ","name_kana":"なよろがわKP25.2うがん(ていがい)かめら","ofc_cd":81,"sys_id":1,"sys_cam_id":"20736432","pause":0,"date_type":2,"cam_kind":4,"own_cd":23297}},{"type":"Feature","geometry":{"type":"Point","coordinates":[142.6656069,44.2975298]},"properties":{"id":120736433,"name":"名寄川KP25.2右岸(堤内)カメラ","name_kana":"なよろがわKP25.2うがん(ていない)かめら","ofc_cd":81,"sys_id":1,"sys_cam_id":"20736433","pause":0,"date_type":2,"cam_kind":4,"own_cd":23297}},{"type":"Feature","geometry":{"type":"Point","coordinates":[142.5827778,44.31805555]},"properties":{"id":223297018,"name":"名寄川　17.6kp　上名寄水位観測所","name_kana":"なよろがわ　17.6kp　かみなよろすいいかんそくしょ","ofc_cd":81,"sys_id":2,"sys_cam_id":"23297018","pause":0,"date_type":0,"cam_kind":2,"own_cd":23297}},{"type":"Feature","geometry":{"type":"Point","coordinates":[142.6491667,44.30055556]},"properties":{"id":223297019,"name":"名寄川　23.8kp　下川水位観測所","name_kana":"なよろがわ　23.8kp　しもかわすいいかんそくしょ","ofc_cd":81,"sys_id":2,"sys_cam_id":"23297019","pause":0,"date_type":0,"cam_kind":2,"own_cd":23297}},{"type":"Feature","geometry":{"type":"Point","coordinates":[142.6311111,44.3325]},"properties":{"id":223297029,"name":"サンルダム　上流","name_kana":"さんるだむ　じょうりゅう","ofc_cd":81,"sys_id":2,"sys_cam_id":"23297029","pause":0,"date_type":0,"cam_kind":2,"own_cd":23297}},{"type":"Feature","geometry":{"type":"Point","coordinates":[142.63,44.33055555]},"properties":{"id":223297139,"name":"サンルダム　下流","name_kana":"","ofc_cd":81,"sys_id":2,"sys_cam_id":"23297139","pause":0,"date_type":0,"cam_kind":2,"own_cd":23297}}]}