{"type":"FeatureCollection","crs":{"type":"name","properties":{"name":"EPSG:4326"}},"features":[{"type":"Feature","geometry":{"type":"Point","coordinates":[142.377165556,44.479433333]},"properties":{"id":100257141,"name":"新美深川  1.4Kp","name_kana":"","ofc_cd":81,"sys_id":1,"sys_cam_id":"257141","pause":0,"date_type":2,"cam_kind":4,"own_cd":257}},{"type":"Feature","geometry":{"type":"Point","coordinates":[142.351430556,44.479252778]},"properties":{"id":100257162,"name":"美深川  1.4Kp","name_kana":"","ofc_cd":81,"sys_id":1,"sys_cam_id":"257162","pause":0,"date_type":2,"cam_kind":4,"own_cd":257}},{"type":"Feature","geometry":{"type":"Point","coordinates":[142.345991667,44.499561111]},"properties":{"id":100257182,"name":"雄木禽川  1.6Kp","name_kana":"","ofc_cd":81,"sys_id":1,"sys_cam_id":"257182","pause":0,"date_type":2,"cam_kind":4,"own_cd":257}},{"type":"Feature","geometry":{"type":"Point","coordinates":[142.430370556,44.483844444]},"properties":{"id":100257197,"name":"ペンケニウプ川  7.0Kp","name_kana":"","ofc_cd":81,"sys_id":1,"sys_cam_id":"257197","pause":0,"date_type":2,"cam_kind":4,"own_cd":257}},{"type":"Feature","geometry":{"type":"Point","coordinates":[142.419347222,44.485388889]},"properties":{"id":100257211,"name":"ペンケ十号川  0.3Kp","name_kana":"","ofc_cd":81,"sys_id":1,"sys_cam_id":"257211","pause":0,"date_type":2,"cam_kind":4,"own_cd":257}},{"type":"Feature","geometry":{"type":"Point","coordinates":[142.2930696,44.5991329]},"properties":{"id":120736112,"name":"天塩川KP110.4右岸カメラ","name_kana":"てしおがわKP110.4うがんかめら","ofc_cd":81,"sys_id":1,"sys_cam_id":"20736112","pause":0,"date_type":2,"cam_kind":4,"own_cd":23297}},{"type":"Feature","geometry":{"type":"Point","coordinates":[142.3272132,44.5613554]},"properties":{"id":120736113,"name":"天塩川KP116.2左岸カメラ","name_kana":"てしおがわKP116.2さがんかめら","ofc_cd":81,"sys_id":1,"sys_cam_id":"20736113","pause":0,"date_type":2,"cam_kind":4,"own_cd":23297}},{"type":"Feature","geometry":{"type":"Point","coordinates":[142.3324171,44.5271904]},"properties":{"id":120736115,"name":"天塩川KP120.6右岸カメラ","name_kana":"てしおがわKP120.6うがんかめら","ofc_cd":81,"sys_id":1,"sys_cam_id":"20736115","pause":0,"date_type":2,"cam_kind":4,"own_cd":23297}},{"type":"Feature","geometry":{"type":"Point","coordinates":[142.3385306,44.4790498]},"properties":{"id":120736116,"name":"天塩川KP128.2右岸カメラ","name_kana":"てしおがわKP128.2うがんかめら","ofc_cd":81,"sys_id":1,"sys_cam_id":"20736116","pause":0,"date_type":2,"cam_kind":4,"own_cd":23297}},{"type":"Feature","geometry":{"type":"Point","coordinates":[142.2706231,44.6385282]},"properties":{"id":120736411,"name":"天塩川KP103.4右岸(堤内)カメラ","name_kana":"てしおがわKP103.4うがん(ていない)かめら","ofc_cd":81,"sys_id":1,"sys_cam_id":"20736411","pause":0,"date_type":2,"cam_kind":4,"own_cd":23297}},{"type":"Feature","geometry":{"type":"Point","coordinates":[142.3323593,44.5383823]},"properties":{"id":120736413,"name":"天塩川KP119.5右岸カメラ","name_kana":"てしおがわKP119.5うがんかめら","ofc_cd":81,"sys_id":1,"sys_cam_id":"20736413","pause":0,"date_type":2,"cam_kind":4,"own_cd":23297}},{"type":"Feature","geometry":{"type":"Point","coordinates":[142.3273274,44.508287]},"properties":{"id":120736414,"name":"天塩川KP124.6右岸カメラ","name_kana":"てしおがわKP124.6うがんかめら","ofc_cd":81,"sys_id":1,"sys_cam_id":"20736414","pause":0,"date_type":2,"cam_kind":4,"own_cd":23297}},{"type":"Feature","geometry":{"type":"Point","coordinates":[142.3369417,44.4813889]},"properties":{"id":223297005,"name":"天塩川　128.0kp　美深橋上流","name_kana":"てしおがわ　128.0kp　びふかばしじょうりゅう","ofc_cd":81,"sys_id":2,"sys_cam_id":"23297005","pause":0,"date_type":0,"cam_kind":3,"own_cd":23297}},{"type":"Feature","geometry":{"type":"Point","coordinates":[142.3013889,44.59138889]},"properties":{"id":223297023,"name":"天塩川　111.7kp　恩根内水位観測所","name_kana":"てしおがわ　111.7kp　おんねないすいいかんそくしょ","ofc_cd":81,"sys_id":2,"sys_cam_id":"23297023","pause":0,"date_type":0,"cam_kind":2,"own_cd":23297}},{"type":"Feature","geometry":{"type":"Point","coordinates":[142.3347222,44.4730556]},"properties":{"id":223297096,"name":"天塩川　KP129.0　美深６線樋門","name_kana":"てしおがわ　KP129.0　びふか６せんひもん","ofc_cd":81,"sys_id":2,"sys_cam_id":"23297100","pause":0,"date_type":0,"cam_kind":2,"own_cd":23297}},{"type":"Feature","geometry":{"type":"Point","coordinates":[142.3341667,44.4858333]},"properties":{"id":223297097,"name":"天塩川　KP127.4　美深右岸第１樋門","name_kana":"てしおがわ　KP127.4　びふかうがんだい１ひもん","ofc_cd":81,"sys_id":2,"sys_cam_id":"23297099","pause":0,"date_type":0,"cam_kind":2,"own_cd":23297}},{"type":"Feature","geometry":{"type":"Point","coordinates":[142.3633333,44.4563889]},"properties":{"id":223297108,"name":"天塩川　KP133.5　恵深橋","name_kana":"てしおがわ　KP133.5　けいしんばし","ofc_cd":81,"sys_id":2,"sys_cam_id":"23297101","pause":0,"date_type":0,"cam_kind":2,"own_cd":23297}},{"type":"Feature","geometry":{"type":"Point","coordinates":[142.3238889,44.5277778]},"properties":{"id":223297109,"name":"天塩川　KP121.3　美深大橋","name_kana":"てしおがわ　KP121.3　びふかおおはし","ofc_cd":81,"sys_id":2,"sys_cam_id":"23297098","pause":0,"date_type":0,"cam_kind":2,"own_cd":23297}}]}