{"type":"FeatureCollection","crs":{"type":"name","properties":{"name":"EPSG:4326"}},"features":[{"type":"Feature","geometry":{"type":"Point","coordinates":[132.79508,35.39907]},"properties":{"id":122303237,"name":"斐伊川8k800右岸","name_kana":"","ofc_cd":87,"sys_id":1,"sys_cam_id":"22303237","pause":0,"date_type":2,"cam_kind":4,"own_cd":22303}},{"type":"Feature","geometry":{"type":"Point","coordinates":[132.785909,35.357403]},"properties":{"id":122303238,"name":"斐伊川13k800左岸　斐伊川放水路分流堰","name_kana":"","ofc_cd":87,"sys_id":1,"sys_cam_id":"22303238","pause":0,"date_type":2,"cam_kind":4,"own_cd":22303}},{"type":"Feature","geometry":{"type":"Point","coordinates":[132.80319,35.34731]},"properties":{"id":122303239,"name":"斐伊川16k000右岸","name_kana":"","ofc_cd":87,"sys_id":1,"sys_cam_id":"22303239","pause":0,"date_type":2,"cam_kind":4,"own_cd":22303}},{"type":"Feature","geometry":{"type":"Point","coordinates":[132.81176,35.3469]},"properties":{"id":122303240,"name":"斐伊川16k6200右岸","name_kana":"","ofc_cd":87,"sys_id":1,"sys_cam_id":"22303240","pause":0,"date_type":2,"cam_kind":4,"own_cd":22303}},{"type":"Feature","geometry":{"type":"Point","coordinates":[132.8519,35.34401]},"properties":{"id":122303241,"name":"斐伊川20k600右岸　森坂大橋","name_kana":"","ofc_cd":87,"sys_id":1,"sys_cam_id":"22303241","pause":0,"date_type":2,"cam_kind":4,"own_cd":22303}},{"type":"Feature","geometry":{"type":"Point","coordinates":[132.87164,35.457776]},"properties":{"id":122303248,"name":"宍道湖18k500左岸　東水位観測所","name_kana":"","ofc_cd":87,"sys_id":1,"sys_cam_id":"22303248","pause":0,"date_type":2,"cam_kind":4,"own_cd":22303}},{"type":"Feature","geometry":{"type":"Point","coordinates":[132.8306083,35.3396333]},"properties":{"id":222303004,"name":"上島(かみしま)左岸18K600","name_kana":"","ofc_cd":87,"sys_id":2,"sys_cam_id":"32010003","pause":0,"date_type":0,"cam_kind":2,"own_cd":22303}},{"type":"Feature","geometry":{"type":"Point","coordinates":[132.7833333,35.3688889]},"properties":{"id":222303005,"name":"大津(おおつ)","name_kana":"","ofc_cd":87,"sys_id":2,"sys_cam_id":"32010004","pause":0,"date_type":0,"cam_kind":2,"own_cd":22303}},{"type":"Feature","geometry":{"type":"Point","coordinates":[132.8341667,35.4275]},"properties":{"id":222303006,"name":"灘分(なだぶん)","name_kana":"","ofc_cd":87,"sys_id":2,"sys_cam_id":"32010005","pause":0,"date_type":0,"cam_kind":2,"own_cd":22303}},{"type":"Feature","geometry":{"type":"Point","coordinates":[132.7638889,35.3369444]},"properties":{"id":222303007,"name":"馬木(まき)水位流量観測所","name_kana":"","ofc_cd":87,"sys_id":2,"sys_cam_id":"32010006","pause":0,"date_type":0,"cam_kind":2,"own_cd":22303}},{"type":"Feature","geometry":{"type":"Point","coordinates":[132.7436083,35.3477778]},"properties":{"id":222303008,"name":"古志(こし)橋","name_kana":"","ofc_cd":87,"sys_id":2,"sys_cam_id":"32010007","pause":0,"date_type":0,"cam_kind":2,"own_cd":22303}},{"type":"Feature","geometry":{"type":"Point","coordinates":[132.87755,35.4396111]},"properties":{"id":222303011,"name":"斐伊川河口","name_kana":"","ofc_cd":87,"sys_id":2,"sys_cam_id":"32010019","pause":0,"date_type":0,"cam_kind":2,"own_cd":22303}},{"type":"Feature","geometry":{"type":"Point","coordinates":[132.6757,35.375466667]},"properties":{"id":222303012,"name":"神戸(かんど)川河口","name_kana":"","ofc_cd":87,"sys_id":2,"sys_cam_id":"32010020","pause":0,"date_type":0,"cam_kind":2,"own_cd":22303}},{"type":"Feature","geometry":{"type":"Point","coordinates":[132.6822194,35.3619444]},"properties":{"id":222303017,"name":"長浜(ながはま)第2放流警報局 左岸1K465","name_kana":"","ofc_cd":87,"sys_id":2,"sys_cam_id":"32010025","pause":0,"date_type":0,"cam_kind":2,"own_cd":22303}},{"type":"Feature","geometry":{"type":"Point","coordinates":[132.6899722,35.3485806]},"properties":{"id":222303018,"name":"妙見(みょうけん)橋","name_kana":"","ofc_cd":87,"sys_id":2,"sys_cam_id":"32010026","pause":0,"date_type":0,"cam_kind":2,"own_cd":22303}},{"type":"Feature","geometry":{"type":"Point","coordinates":[132.7027778,35.3425]},"properties":{"id":222303019,"name":"横浜(よこはま)放流警報局","name_kana":"","ofc_cd":87,"sys_id":2,"sys_cam_id":"32010027","pause":0,"date_type":0,"cam_kind":2,"own_cd":22303}},{"type":"Feature","geometry":{"type":"Point","coordinates":[132.722525,35.3511944]},"properties":{"id":222303020,"name":"大披(おおびらき)放流警報局","name_kana":"","ofc_cd":87,"sys_id":2,"sys_cam_id":"32010028","pause":0,"date_type":0,"cam_kind":2,"own_cd":22303}},{"type":"Feature","geometry":{"type":"Point","coordinates":[132.7297222,35.3511111]},"properties":{"id":222303021,"name":"神戸(かんど)堰下流右岸1","name_kana":"","ofc_cd":87,"sys_id":2,"sys_cam_id":"32010029","pause":0,"date_type":0,"cam_kind":2,"own_cd":22303}},{"type":"Feature","geometry":{"type":"Point","coordinates":[132.7455833,35.3438889]},"properties":{"id":222303022,"name":"神戸(かんど)川 左岸8K860","name_kana":"","ofc_cd":87,"sys_id":2,"sys_cam_id":"32010030","pause":0,"date_type":0,"cam_kind":2,"own_cd":22303}},{"type":"Feature","geometry":{"type":"Point","coordinates":[132.7611111,35.3408333]},"properties":{"id":222303023,"name":"半分(はんぶ)放流警報局","name_kana":"","ofc_cd":87,"sys_id":2,"sys_cam_id":"32010031","pause":0,"date_type":0,"cam_kind":2,"own_cd":22303}},{"type":"Feature","geometry":{"type":"Point","coordinates":[132.7733333,35.3505556]},"properties":{"id":222303024,"name":"菅沢(すげさわ)放流警報局","name_kana":"","ofc_cd":87,"sys_id":2,"sys_cam_id":"32010032","pause":0,"date_type":0,"cam_kind":2,"own_cd":22303}},{"type":"Feature","geometry":{"type":"Point","coordinates":[132.7816639,35.3544444]},"properties":{"id":222303025,"name":"上来原(かみくりはら)放流警報局","name_kana":"","ofc_cd":87,"sys_id":2,"sys_cam_id":"32010033","pause":0,"date_type":0,"cam_kind":2,"own_cd":22303}},{"type":"Feature","geometry":{"type":"Point","coordinates":[132.786,35.35425]},"properties":{"id":222303026,"name":"分流堰左岸下流","name_kana":"","ofc_cd":87,"sys_id":2,"sys_cam_id":"32010034","pause":0,"date_type":0,"cam_kind":2,"own_cd":22303}},{"type":"Feature","geometry":{"type":"Point","coordinates":[132.8557194,35.3410722]},"properties":{"id":222303029,"name":"森坂(もりさか)大橋","name_kana":"","ofc_cd":87,"sys_id":2,"sys_cam_id":"32010037","pause":0,"date_type":0,"cam_kind":2,"own_cd":22303}},{"type":"Feature","geometry":{"type":"Point","coordinates":[132.7944806,35.344775]},"properties":{"id":222303030,"name":"船津(ふなつ)","name_kana":"","ofc_cd":87,"sys_id":2,"sys_cam_id":"32010038","pause":0,"date_type":0,"cam_kind":2,"own_cd":22303}},{"type":"Feature","geometry":{"type":"Point","coordinates":[132.7919,35.3512139]},"properties":{"id":222303031,"name":"斐伊川右岸分流地点","name_kana":"","ofc_cd":87,"sys_id":2,"sys_cam_id":"32010039","pause":0,"date_type":0,"cam_kind":2,"own_cd":22303}},{"type":"Feature","geometry":{"type":"Point","coordinates":[132.7866139,35.3501556]},"properties":{"id":222303032,"name":"分流堰左岸","name_kana":"","ofc_cd":87,"sys_id":2,"sys_cam_id":"32010040","pause":0,"date_type":0,"cam_kind":2,"own_cd":22303}},{"type":"Feature","geometry":{"type":"Point","coordinates":[132.7846722,35.3849917]},"properties":{"id":222303033,"name":"北神立(きたかんだち)橋","name_kana":"","ofc_cd":87,"sys_id":2,"sys_cam_id":"32010041","pause":0,"date_type":0,"cam_kind":2,"own_cd":22303}},{"type":"Feature","geometry":{"type":"Point","coordinates":[132.790539,35.402302]},"properties":{"id":222303034,"name":"美談(みだみ)","name_kana":"","ofc_cd":87,"sys_id":2,"sys_cam_id":"32010042","pause":0,"date_type":0,"cam_kind":2,"own_cd":22303}},{"type":"Feature","geometry":{"type":"Point","coordinates":[132.8155833,35.414975]},"properties":{"id":222303035,"name":"西代(にしだい)橋","name_kana":"","ofc_cd":87,"sys_id":2,"sys_cam_id":"32010043","pause":0,"date_type":0,"cam_kind":2,"own_cd":22303}},{"type":"Feature","geometry":{"type":"Point","coordinates":[132.8450778,35.4271194]},"properties":{"id":222303036,"name":"島村(しまむら)","name_kana":"","ofc_cd":87,"sys_id":2,"sys_cam_id":"32010044","pause":0,"date_type":0,"cam_kind":2,"own_cd":22303}},{"type":"Feature","geometry":{"type":"Point","coordinates":[132.81888888,35.34027777]},"properties":{"id":222303040,"name":"上島(かみしま)排水機場","name_kana":"","ofc_cd":87,"sys_id":2,"sys_cam_id":"32010048","pause":0,"date_type":0,"cam_kind":2,"own_cd":22303}},{"type":"Feature","geometry":{"type":"Point","coordinates":[132.69027777,35.34305555]},"properties":{"id":222303041,"name":"石新田(こくしんでん)放流警報局","name_kana":"","ofc_cd":87,"sys_id":2,"sys_cam_id":"32010049","pause":0,"date_type":0,"cam_kind":2,"own_cd":22303}},{"type":"Feature","geometry":{"type":"Point","coordinates":[132.73888888,35.34713888]},"properties":{"id":222303042,"name":"神戸(かんど)川左岸8K100","name_kana":"","ofc_cd":87,"sys_id":2,"sys_cam_id":"32010050","pause":0,"date_type":0,"cam_kind":2,"own_cd":22303}},{"type":"Feature","geometry":{"type":"Point","coordinates":[132.76766666,35.33438888]},"properties":{"id":222303043,"name":"神戸(かんど)川左岸11K250","name_kana":"","ofc_cd":87,"sys_id":2,"sys_cam_id":"32010051","pause":0,"date_type":0,"cam_kind":2,"own_cd":22303}},{"type":"Feature","geometry":{"type":"Point","coordinates":[132.76611111,35.34555555]},"properties":{"id":222303044,"name":"自彊(じきょう)放流警報局","name_kana":"","ofc_cd":87,"sys_id":2,"sys_cam_id":"32010052","pause":0,"date_type":0,"cam_kind":2,"own_cd":22303}},{"type":"Feature","geometry":{"type":"Point","coordinates":[132.78611111,35.35388888]},"properties":{"id":222303045,"name":"分流堰右岸下流","name_kana":"","ofc_cd":87,"sys_id":2,"sys_cam_id":"32010053","pause":0,"date_type":0,"cam_kind":2,"own_cd":22303}}]}