{"type":"FeatureCollection","crs":{"type":"name","properties":{"name":"EPSG:4326"}},"features":[{"type":"Feature","geometry":{"type":"Point","coordinates":[143.197737222,42.952277778]},"properties":{"id":100257524,"name":"鈴蘭川  1.3Kp","name_kana":"","ofc_cd":81,"sys_id":1,"sys_cam_id":"257524","pause":0,"date_type":2,"cam_kind":4,"own_cd":257}},{"type":"Feature","geometry":{"type":"Point","coordinates":[143.145965556,43.018291667]},"properties":{"id":100257547,"name":"然別川  8.0Kp","name_kana":"","ofc_cd":81,"sys_id":1,"sys_cam_id":"257547","pause":0,"date_type":2,"cam_kind":4,"own_cd":257}},{"type":"Feature","geometry":{"type":"Point","coordinates":[143.205625,42.962238889]},"properties":{"id":100257560,"name":"第二鈴蘭川  1.2Kp","name_kana":"","ofc_cd":81,"sys_id":1,"sys_cam_id":"257560","pause":0,"date_type":2,"cam_kind":4,"own_cd":257}},{"type":"Feature","geometry":{"type":"Point","coordinates":[143.2977167,42.9317333]},"properties":{"id":120736315,"name":"十勝川KP48.2左岸カメラ","name_kana":"とかちがわKP48.2さがんかめら","ofc_cd":81,"sys_id":1,"sys_cam_id":"20736315","pause":0,"date_type":2,"cam_kind":4,"own_cd":23357}},{"type":"Feature","geometry":{"type":"Point","coordinates":[143.22275,42.9393167]},"properties":{"id":120736317,"name":"十勝川KP55.0左岸カメラ","name_kana":"とかちがわKP55.0さがんかめら","ofc_cd":81,"sys_id":1,"sys_cam_id":"20736317","pause":0,"date_type":2,"cam_kind":4,"own_cd":23357}},{"type":"Feature","geometry":{"type":"Point","coordinates":[143.20005,42.94]},"properties":{"id":120736319,"name":"十勝川KP57.2左岸カメラ","name_kana":"とかちがわKP57.2さがんかめら","ofc_cd":81,"sys_id":1,"sys_cam_id":"20736319","pause":0,"date_type":2,"cam_kind":4,"own_cd":23357}},{"type":"Feature","geometry":{"type":"Point","coordinates":[143.2117,42.9413167]},"properties":{"id":120736344,"name":"音更川KP0.6左岸カメラ","name_kana":"おとふけがわKP0.6さがんかめら","ofc_cd":81,"sys_id":1,"sys_cam_id":"20736344","pause":0,"date_type":2,"cam_kind":4,"own_cd":23357}},{"type":"Feature","geometry":{"type":"Point","coordinates":[143.2074333,42.9397167]},"properties":{"id":120736345,"name":"音更川KP0.6右岸カメラ","name_kana":"おとふけがわKP0.6うがんかめら","ofc_cd":81,"sys_id":1,"sys_cam_id":"20736345","pause":0,"date_type":2,"cam_kind":4,"own_cd":23357}},{"type":"Feature","geometry":{"type":"Point","coordinates":[143.1983667,43.0206667]},"properties":{"id":120736347,"name":"音更川KP10.6左岸カメラ","name_kana":"おとふけがわKP10.6さがんかめら","ofc_cd":81,"sys_id":1,"sys_cam_id":"20736347","pause":0,"date_type":2,"cam_kind":4,"own_cd":23357}},{"type":"Feature","geometry":{"type":"Point","coordinates":[143.1946667,43.0198167]},"properties":{"id":120736348,"name":"音更川KP10.6右岸カメラ","name_kana":"おとふけがわKP10.6うがんかめら","ofc_cd":81,"sys_id":1,"sys_cam_id":"20736348","pause":0,"date_type":2,"cam_kind":4,"own_cd":23357}},{"type":"Feature","geometry":{"type":"Point","coordinates":[143.1958833,43.0391]},"properties":{"id":120736349,"name":"音更川KP13.0左岸カメラ","name_kana":"おとふけがわKP13.0さがんかめら","ofc_cd":81,"sys_id":1,"sys_cam_id":"20736349","pause":0,"date_type":2,"cam_kind":4,"own_cd":23357}},{"type":"Feature","geometry":{"type":"Point","coordinates":[143.19685,43.0468833]},"properties":{"id":120736350,"name":"音更川KP14.0左岸カメラ","name_kana":"おとふけがわKP14.0さがんかめら","ofc_cd":81,"sys_id":1,"sys_cam_id":"20736350","pause":0,"date_type":2,"cam_kind":4,"own_cd":23357}},{"type":"Feature","geometry":{"type":"Point","coordinates":[143.1931833,43.0469833]},"properties":{"id":120736351,"name":"音更川KP14.0右岸カメラ","name_kana":"おとふけがわKP14.0うがんかめら","ofc_cd":81,"sys_id":1,"sys_cam_id":"20736351","pause":0,"date_type":2,"cam_kind":4,"own_cd":23357}},{"type":"Feature","geometry":{"type":"Point","coordinates":[143.1969167,43.07035]},"properties":{"id":120736352,"name":"音更川KP16.8右岸カメラ","name_kana":"おとふけがわKP16.8うがんかめら","ofc_cd":81,"sys_id":1,"sys_cam_id":"20736352","pause":0,"date_type":2,"cam_kind":4,"own_cd":23357}},{"type":"Feature","geometry":{"type":"Point","coordinates":[143.2166667,43.16725]},"properties":{"id":120736353,"name":"音更川KP28.0左岸カメラ","name_kana":"おとふけがわKP28.0さがんかめら","ofc_cd":81,"sys_id":1,"sys_cam_id":"20736353","pause":0,"date_type":2,"cam_kind":4,"own_cd":23357}},{"type":"Feature","geometry":{"type":"Point","coordinates":[143.21305,43.1674]},"properties":{"id":120736354,"name":"音更川KP28.0右岸カメラ","name_kana":"おとふけがわKP28.0うがんかめら","ofc_cd":81,"sys_id":1,"sys_cam_id":"20736354","pause":0,"date_type":2,"cam_kind":4,"own_cd":23357}},{"type":"Feature","geometry":{"type":"Point","coordinates":[143.279802597,42.935815761]},"properties":{"id":123357004,"name":"十勝川KP49.6左岸カメラ","name_kana":"とかちがわKP49.6さがんかめら","ofc_cd":81,"sys_id":1,"sys_cam_id":"23357004","pause":0,"date_type":2,"cam_kind":4,"own_cd":23357}},{"type":"Feature","geometry":{"type":"Point","coordinates":[143.192078738,43.038644952]},"properties":{"id":123357012,"name":"音更川KP13.0右岸カメラ","name_kana":"おとふけがわKP13.0うがんかめら","ofc_cd":81,"sys_id":1,"sys_cam_id":"23357012","pause":0,"date_type":2,"cam_kind":4,"own_cd":23357}},{"type":"Feature","geometry":{"type":"Point","coordinates":[143.2036917,42.9346417]},"properties":{"id":223357001,"name":"十勝川　56.6kp　十勝大橋","name_kana":"とかちがわ　56.6kp　とかちおおはし","ofc_cd":81,"sys_id":2,"sys_cam_id":"23357001","pause":0,"date_type":0,"cam_kind":3,"own_cd":23357}},{"type":"Feature","geometry":{"type":"Point","coordinates":[143.1997194,43.0074694]},"properties":{"id":223357013,"name":"音更川　9.1kp　音更橋","name_kana":"おとふけがわ　9.1kp　おとふけばし","ofc_cd":81,"sys_id":2,"sys_cam_id":"23357013","pause":0,"date_type":0,"cam_kind":3,"own_cd":23357}},{"type":"Feature","geometry":{"type":"Point","coordinates":[143.2698889,42.9465556]},"properties":{"id":223357017,"name":"士幌川　1.5kp　旭橋水位観測所","name_kana":"しほろがわ　1.5kp　あさひばしすいいかんそくしょ","ofc_cd":81,"sys_id":2,"sys_cam_id":"23357017","pause":0,"date_type":0,"cam_kind":2,"own_cd":23357}},{"type":"Feature","geometry":{"type":"Point","coordinates":[143.239725,42.9408631]},"properties":{"id":223357032,"name":"十勝川　５３．５ｋｐ　下士幌樋管","name_kana":"とかちがわ　５３．５ｋｐ　しもしほろひかん","ofc_cd":81,"sys_id":2,"sys_cam_id":"23357032","pause":0,"date_type":0,"cam_kind":2,"own_cd":23357}},{"type":"Feature","geometry":{"type":"Point","coordinates":[143.2246389,42.9391939]},"properties":{"id":223357033,"name":"十勝川　５４．８ｋｐ　下士幌樋門","name_kana":"とかちがわ　５４．８ｋｐ　しもしほろひもん","ofc_cd":81,"sys_id":2,"sys_cam_id":"23357033","pause":0,"date_type":0,"cam_kind":2,"own_cd":23357}},{"type":"Feature","geometry":{"type":"Point","coordinates":[143.205805,42.9393081]},"properties":{"id":223357034,"name":"十勝川　５６．３ｋｐ　十勝大橋左岸下流","name_kana":"とかちがわ　５６．３ｋｐ　とかちおおはしさがんかりゅう","ofc_cd":81,"sys_id":2,"sys_cam_id":"23357034","pause":0,"date_type":0,"cam_kind":2,"own_cd":23357}},{"type":"Feature","geometry":{"type":"Point","coordinates":[143.1688333,42.9481111]},"properties":{"id":223357036,"name":"十勝川　６０．１ｋｐ　然別樋門","name_kana":"とかちがわ　６０．１ｋｐ　しかりべつひもん","ofc_cd":81,"sys_id":2,"sys_cam_id":"23357036","pause":0,"date_type":0,"cam_kind":2,"own_cd":23357}},{"type":"Feature","geometry":{"type":"Point","coordinates":[143.2784169,42.9383331]},"properties":{"id":223357059,"name":"士幌川　０．２ｋｐ　相生第１樋門　空間","name_kana":"しほろがわ　０．２ｋｐ　あいおいだい１ひもん　くうかん","ofc_cd":81,"sys_id":2,"sys_cam_id":"23357059","pause":0,"date_type":0,"cam_kind":2,"own_cd":23357}},{"type":"Feature","geometry":{"type":"Point","coordinates":[143.2777211,42.9408361]},"properties":{"id":223357060,"name":"士幌川　０．４ｋｐ　士幌樋門（排水門）　樋門","name_kana":"しほろがわ　０．４ｋｐ　しほろひもん（はいすいもん）　ひもん","ofc_cd":81,"sys_id":2,"sys_cam_id":"23357060","pause":0,"date_type":0,"cam_kind":2,"own_cd":23357}},{"type":"Feature","geometry":{"type":"Point","coordinates":[143.27275,42.9428889]},"properties":{"id":223357061,"name":"士幌川　０．９ｋｐ　相生第２樋門　樋門","name_kana":"しほろがわ　０．９ｋｐ　あいおいだい２ひもん　ひもん","ofc_cd":81,"sys_id":2,"sys_cam_id":"23357061","pause":0,"date_type":0,"cam_kind":2,"own_cd":23357}},{"type":"Feature","geometry":{"type":"Point","coordinates":[143.2702211,42.9461139]},"properties":{"id":223357062,"name":"士幌川　１．３ｋｐ　旭樋門（排水門）　樋門","name_kana":"しほろがわ　１．３ｋｐ　あさひひもん（はいすいもん）　ひもん","ofc_cd":81,"sys_id":2,"sys_cam_id":"23357062","pause":0,"date_type":0,"cam_kind":2,"own_cd":23357}},{"type":"Feature","geometry":{"type":"Point","coordinates":[143.2079722,42.9406667]},"properties":{"id":223357075,"name":"音更川　０．７ｋｐ　木野第１樋門（排水門）　樋門","name_kana":"おとふけがわ　０．７ｋｐ　きのだい１ひもん（はいすいもん）　ひもん","ofc_cd":81,"sys_id":2,"sys_cam_id":"23357075","pause":0,"date_type":0,"cam_kind":2,"own_cd":23357}},{"type":"Feature","geometry":{"type":"Point","coordinates":[143.2120556,42.9418889]},"properties":{"id":223357076,"name":"音更川　０．８ｋｐ　下士幌２号樋門","name_kana":"おとふけがわ　０．８ｋｐ　しもしほろ２ごうひもん","ofc_cd":81,"sys_id":2,"sys_cam_id":"23357076","pause":0,"date_type":0,"cam_kind":2,"own_cd":23357}},{"type":"Feature","geometry":{"type":"Point","coordinates":[143.2086111,42.9436389]},"properties":{"id":223357077,"name":"音更川　１．０ｋｐ　木野樋門（排水門）","name_kana":"おとふけがわ　１．０ｋｐ　きのひもん（はいすいもん）","ofc_cd":81,"sys_id":2,"sys_cam_id":"23357077","pause":0,"date_type":0,"cam_kind":2,"own_cd":23357}},{"type":"Feature","geometry":{"type":"Point","coordinates":[143.2094444,42.9524444]},"properties":{"id":223357078,"name":"音更川　２．０ｋｐ　南音更二号樋門（排水門）","name_kana":"おとふけがわ　２．０ｋｐ　みなみおとふけにごうひもん（はいすいもん）","ofc_cd":81,"sys_id":2,"sys_cam_id":"23357078","pause":0,"date_type":0,"cam_kind":2,"own_cd":23357}},{"type":"Feature","geometry":{"type":"Point","coordinates":[143.21325,42.9623056]},"properties":{"id":223357079,"name":"音更川　３．０ｋｐ　柳町樋門（排水門）　樋門","name_kana":"おとふけがわ　３．０ｋｐ　やなぎまちひもん（はいすいもん）　ひもん","ofc_cd":81,"sys_id":2,"sys_cam_id":"23357079","pause":0,"date_type":0,"cam_kind":2,"own_cd":23357}},{"type":"Feature","geometry":{"type":"Point","coordinates":[143.2098889,42.9938889]},"properties":{"id":223357080,"name":"音更川　７．３ｋｐ　音更樋門（排水門）　樋門","name_kana":"おとふけがわ　７．３ｋｐ　おとふけひもん（はいすいもん）　ひもん","ofc_cd":81,"sys_id":2,"sys_cam_id":"23357080","pause":0,"date_type":0,"cam_kind":2,"own_cd":23357}},{"type":"Feature","geometry":{"type":"Point","coordinates":[143.1968889,43.0109444]},"properties":{"id":223357081,"name":"音更川　９．５ｋｐ　東昭栄樋門（排水門）　樋門","name_kana":"おとふけがわ　９．５ｋｐ　ひがししょうえいひもん（はいすいもん）　ひもん","ofc_cd":81,"sys_id":2,"sys_cam_id":"23357081","pause":0,"date_type":0,"cam_kind":2,"own_cd":23357}},{"type":"Feature","geometry":{"type":"Point","coordinates":[143.19575,43.0335556]},"properties":{"id":223357082,"name":"音更川　１２．３ｋｐ　音更１２号樋門","name_kana":"おとふけがわ　１２．３ｋｐ　おとふけ１２ごうひもん","ofc_cd":81,"sys_id":2,"sys_cam_id":"23357082","pause":0,"date_type":0,"cam_kind":2,"own_cd":23357}},{"type":"Feature","geometry":{"type":"Point","coordinates":[143.1966111,43.0604722]},"properties":{"id":223357083,"name":"音更川　１５．７ｋｐ　武儀樋門","name_kana":"おとふけがわ　１５．７ｋｐ　むぎひもん","ofc_cd":81,"sys_id":2,"sys_cam_id":"23357083","pause":0,"date_type":0,"cam_kind":2,"own_cd":23357}}]}