{"type":"FeatureCollection","crs":{"type":"name","properties":{"name":"EPSG:4326"}},"features":[{"type":"Feature","geometry":{"type":"Point","coordinates":[140.027333,36.479449]},"properties":{"id":102305058,"name":"昭和橋（五行川）真岡市飯貝","name_kana":"","ofc_cd":83,"sys_id":1,"sys_cam_id":"2305058","pause":0,"date_type":2,"cam_kind":4,"own_cd":2305}},{"type":"Feature","geometry":{"type":"Point","coordinates":[139.983575,36.454261]},"properties":{"id":102305059,"name":"亀山橋（江川）真岡市亀山","name_kana":"","ofc_cd":83,"sys_id":1,"sys_cam_id":"2305059","pause":0,"date_type":2,"cam_kind":4,"own_cd":2305}},{"type":"Feature","geometry":{"type":"Point","coordinates":[139.987725,36.425745]},"properties":{"id":102305060,"name":"鬼越橋（江川）真岡市八木岡","name_kana":"","ofc_cd":83,"sys_id":1,"sys_cam_id":"2305060","pause":0,"date_type":2,"cam_kind":4,"own_cd":2305}},{"type":"Feature","geometry":{"type":"Point","coordinates":[139.990047,36.413422]},"properties":{"id":102305061,"name":"横田橋下流（五行川）真岡市横田","name_kana":"","ofc_cd":83,"sys_id":1,"sys_cam_id":"2305061","pause":0,"date_type":2,"cam_kind":4,"own_cd":2305}},{"type":"Feature","geometry":{"type":"Point","coordinates":[139.975958,36.392238]},"properties":{"id":102305072,"name":"二宮遊水地（五行川）真岡市大根田","name_kana":"","ofc_cd":83,"sys_id":1,"sys_cam_id":"2305072","pause":0,"date_type":2,"cam_kind":4,"own_cd":2305}},{"type":"Feature","geometry":{"type":"Point","coordinates":[139.979671,36.385079]},"properties":{"id":102305090,"name":"二宮遊水地②（五行川）真岡市大根田","name_kana":"","ofc_cd":83,"sys_id":1,"sys_cam_id":"2305090","pause":0,"date_type":2,"cam_kind":4,"own_cd":2305}},{"type":"Feature","geometry":{"type":"Point","coordinates":[139.9256914,36.3701015]},"properties":{"id":121261059,"name":"鬼怒川左岸 55.00k","name_kana":"","ofc_cd":83,"sys_id":1,"sys_cam_id":"21261059","pause":0,"date_type":2,"cam_kind":4,"own_cd":21261}},{"type":"Feature","geometry":{"type":"Point","coordinates":[139.9491027,36.4466527]},"properties":{"id":121261062,"name":"鬼怒川左岸 63.75k","name_kana":"","ofc_cd":83,"sys_id":1,"sys_cam_id":"21261062","pause":0,"date_type":2,"cam_kind":4,"own_cd":21261}},{"type":"Feature","geometry":{"type":"Point","coordinates":[139.9667224,36.4896263]},"properties":{"id":121261063,"name":"鬼怒川左岸 69.00k","name_kana":"","ofc_cd":83,"sys_id":1,"sys_cam_id":"21261063","pause":0,"date_type":2,"cam_kind":4,"own_cd":21261}},{"type":"Feature","geometry":{"type":"Point","coordinates":[140.0238429,36.3831634]},"properties":{"id":121261083,"name":"小貝川左岸 70.20k","name_kana":"","ofc_cd":83,"sys_id":1,"sys_cam_id":"21261083","pause":0,"date_type":2,"cam_kind":4,"own_cd":21261}},{"type":"Feature","geometry":{"type":"Point","coordinates":[140.0250615,36.3860264]},"properties":{"id":121261084,"name":"小貝川右岸 70.50k","name_kana":"","ofc_cd":83,"sys_id":1,"sys_cam_id":"21261084","pause":0,"date_type":2,"cam_kind":4,"own_cd":21261}},{"type":"Feature","geometry":{"type":"Point","coordinates":[140.036422,36.4103775]},"properties":{"id":121261085,"name":"小貝川右岸 73.60k","name_kana":"","ofc_cd":83,"sys_id":1,"sys_cam_id":"21261085","pause":0,"date_type":2,"cam_kind":4,"own_cd":21261}},{"type":"Feature","geometry":{"type":"Point","coordinates":[140.0420996,36.412747]},"properties":{"id":121261086,"name":"小貝川左岸 74.20k","name_kana":"","ofc_cd":83,"sys_id":1,"sys_cam_id":"21261086","pause":0,"date_type":2,"cam_kind":4,"own_cd":21261}},{"type":"Feature","geometry":{"type":"Point","coordinates":[140.0676293,36.4333865]},"properties":{"id":121261087,"name":"小貝川右岸 78.15k","name_kana":"","ofc_cd":83,"sys_id":1,"sys_cam_id":"21261087","pause":0,"date_type":2,"cam_kind":4,"own_cd":21261}},{"type":"Feature","geometry":{"type":"Point","coordinates":[140.0313861,36.3919417]},"properties":{"id":221261047,"name":"三谷水位観測所","name_kana":"","ofc_cd":83,"sys_id":2,"sys_cam_id":"9010004","pause":0,"date_type":0,"cam_kind":2,"own_cd":21261}},{"type":"Feature","geometry":{"type":"Point","coordinates":[139.9592389,36.4826056]},"properties":{"id":221261048,"name":"勝瓜（上）水位観測所","name_kana":"","ofc_cd":83,"sys_id":2,"sys_cam_id":"9010019","pause":0,"date_type":0,"cam_kind":2,"own_cd":21261}},{"type":"Feature","geometry":{"type":"Point","coordinates":[139.9338306,36.3807361]},"properties":{"id":221261055,"name":"砂ヶ原橋","name_kana":"","ofc_cd":83,"sys_id":2,"sys_cam_id":"9010027","pause":0,"date_type":0,"cam_kind":2,"own_cd":21261}},{"type":"Feature","geometry":{"type":"Point","coordinates":[140.0374972,36.4061083]},"properties":{"id":221261056,"name":"阿部岡橋","name_kana":"","ofc_cd":83,"sys_id":2,"sys_cam_id":"9010028","pause":0,"date_type":0,"cam_kind":2,"own_cd":21261}}]}