{"type":"FeatureCollection","crs":{"type":"name","properties":{"name":"EPSG:4326"}},"features":[{"type":"Feature","geometry":{"type":"Point","coordinates":[140.137696,38.705238]},"properties":{"id":101537039,"name":"角川（鹿ノ沢橋付近）","name_kana":"","ofc_cd":82,"sys_id":1,"sys_cam_id":"1537039","pause":0,"date_type":2,"cam_kind":4,"own_cd":1537}},{"type":"Feature","geometry":{"type":"Point","coordinates":[140.13095277,38.74005833]},"properties":{"id":121054196,"name":"上台 (最上川 39.1k 左岸)","name_kana":"うわだい","ofc_cd":82,"sys_id":1,"sys_cam_id":"21054196","pause":0,"date_type":2,"cam_kind":4,"own_cd":21054}},{"type":"Feature","geometry":{"type":"Point","coordinates":[140.05986111,38.76169722]},"properties":{"id":121054199,"name":"土湯 (最上川 32.7k 左岸)","name_kana":"つちゆ ","ofc_cd":82,"sys_id":1,"sys_cam_id":"21054199","pause":0,"date_type":2,"cam_kind":4,"own_cd":21054}},{"type":"Feature","geometry":{"type":"Point","coordinates":[140.14720833,38.73893888]},"properties":{"id":121054203,"name":"古口 (最上川 40.5k 左岸)","name_kana":"ふるくち","ofc_cd":82,"sys_id":1,"sys_cam_id":"21054203","pause":0,"date_type":2,"cam_kind":4,"own_cd":21054}},{"type":"Feature","geometry":{"type":"Point","coordinates":[140.205666,38.768124]},"properties":{"id":121054210,"name":"向松坂 (鮭川 7.6k 左岸)","name_kana":"むかいまつざか","ofc_cd":82,"sys_id":1,"sys_cam_id":"21054210","pause":0,"date_type":0,"cam_kind":4,"own_cd":21054}},{"type":"Feature","geometry":{"type":"Point","coordinates":[140.19041388,38.73965833]},"properties":{"id":121054211,"name":"津谷 (鮭川 2.6k 右岸)","name_kana":"つや","ofc_cd":82,"sys_id":1,"sys_cam_id":"21054211","pause":0,"date_type":2,"cam_kind":4,"own_cd":21054}},{"type":"Feature","geometry":{"type":"Point","coordinates":[140.19875,38.75463611]},"properties":{"id":121054214,"name":"名高 (鮭川 5.4k 右岸)","name_kana":"なだか","ofc_cd":82,"sys_id":1,"sys_cam_id":"21054214","pause":0,"date_type":2,"cam_kind":4,"own_cd":21054}},{"type":"Feature","geometry":{"type":"Point","coordinates":[140.16060555,38.73864722]},"properties":{"id":121054224,"name":"真柄 (最上川 41.9k 左岸)","name_kana":"","ofc_cd":82,"sys_id":1,"sys_cam_id":"21054224","pause":0,"date_type":2,"cam_kind":4,"own_cd":21054}},{"type":"Feature","geometry":{"type":"Point","coordinates":[140.16642777,38.73179722]},"properties":{"id":121054225,"name":"皿島 (最上川 42.7k 右岸)","name_kana":"さらしま","ofc_cd":82,"sys_id":1,"sys_cam_id":"21054225","pause":0,"date_type":2,"cam_kind":4,"own_cd":21054}},{"type":"Feature","geometry":{"type":"Point","coordinates":[140.19106388,38.73047222]},"properties":{"id":121054226,"name":"津谷 (最上川 45.7k 右岸)","name_kana":"","ofc_cd":82,"sys_id":1,"sys_cam_id":"21054226","pause":0,"date_type":2,"cam_kind":4,"own_cd":21054}},{"type":"Feature","geometry":{"type":"Point","coordinates":[140.19585833,38.72627777]},"properties":{"id":121054227,"name":"金打坊 (最上川 45.9k 右岸)","name_kana":"","ofc_cd":82,"sys_id":1,"sys_cam_id":"21054227","pause":0,"date_type":2,"cam_kind":4,"own_cd":21054}},{"type":"Feature","geometry":{"type":"Point","coordinates":[140.18868333,38.74245833]},"properties":{"id":121054233,"name":"岩清水 (鮭川 3.0k 左岸)","name_kana":"","ofc_cd":82,"sys_id":1,"sys_cam_id":"21054233","pause":0,"date_type":2,"cam_kind":4,"own_cd":21054}},{"type":"Feature","geometry":{"type":"Point","coordinates":[140.197316,38.765618]},"properties":{"id":121054234,"name":"松坂 (鮭川 6.8k 右岸)","name_kana":"","ofc_cd":82,"sys_id":1,"sys_cam_id":"21054234","pause":0,"date_type":2,"cam_kind":4,"own_cd":21054}},{"type":"Feature","geometry":{"type":"Point","coordinates":[140.187802,38.725851]},"properties":{"id":221054010,"name":"角間沢排水樋管","name_kana":"","ofc_cd":82,"sys_id":2,"sys_cam_id":"21054016","pause":0,"date_type":0,"cam_kind":2,"own_cd":21054}},{"type":"Feature","geometry":{"type":"Point","coordinates":[140.139193,38.738895]},"properties":{"id":221054011,"name":"古口排水機場　外水","name_kana":"","ofc_cd":82,"sys_id":2,"sys_cam_id":"21054017","pause":0,"date_type":0,"cam_kind":2,"own_cd":21054}},{"type":"Feature","geometry":{"type":"Point","coordinates":[140.139191,38.738613]},"properties":{"id":221054012,"name":"古口排水機場　内水","name_kana":"","ofc_cd":82,"sys_id":2,"sys_cam_id":"21054018","pause":0,"date_type":0,"cam_kind":2,"own_cd":21054}},{"type":"Feature","geometry":{"type":"Point","coordinates":[140.16807,38.723916]},"properties":{"id":221054013,"name":"古巻沢排水樋管","name_kana":"","ofc_cd":82,"sys_id":2,"sys_cam_id":"21054019","pause":0,"date_type":0,"cam_kind":2,"own_cd":21054}},{"type":"Feature","geometry":{"type":"Point","coordinates":[140.123892,38.650834]},"properties":{"id":221054028,"name":"鹿の入沢砂防堰堤","name_kana":"","ofc_cd":82,"sys_id":2,"sys_cam_id":"21054028","pause":0,"date_type":0,"cam_kind":2,"own_cd":21054}},{"type":"Feature","geometry":{"type":"Point","coordinates":[140.12306,38.708618]},"properties":{"id":221054039,"name":"中沢砂防堰堤","name_kana":"","ofc_cd":82,"sys_id":2,"sys_cam_id":"21054039","pause":0,"date_type":0,"cam_kind":2,"own_cd":21054}}]}