{"type":"FeatureCollection","crs":{"type":"name","properties":{"name":"EPSG:4326"}},"features":[{"type":"Feature","geometry":{"type":"Point","coordinates":[140.360265,38.2485134]},"properties":{"id":101537002,"name":"馬見ヶ崎川（愛宕橋付近）","name_kana":"","ofc_cd":82,"sys_id":1,"sys_cam_id":"1537002","pause":0,"date_type":2,"cam_kind":4,"own_cd":1537}},{"type":"Feature","geometry":{"type":"Point","coordinates":[140.3209897,38.3174809]},"properties":{"id":101537003,"name":"馬見ヶ崎川（諏訪橋付近）","name_kana":"","ofc_cd":82,"sys_id":1,"sys_cam_id":"1537003","pause":0,"date_type":2,"cam_kind":4,"own_cd":1537}},{"type":"Feature","geometry":{"type":"Point","coordinates":[140.336695,38.299468]},"properties":{"id":101537004,"name":"馬見ヶ崎川（右京橋付近）","name_kana":"","ofc_cd":82,"sys_id":1,"sys_cam_id":"1537004","pause":0,"date_type":2,"cam_kind":4,"own_cd":1537}},{"type":"Feature","geometry":{"type":"Point","coordinates":[140.349956,38.299906]},"properties":{"id":101537005,"name":"村山高瀬川（北柳橋付近）","name_kana":"","ofc_cd":82,"sys_id":1,"sys_cam_id":"1537005","pause":0,"date_type":2,"cam_kind":4,"own_cd":1537}},{"type":"Feature","geometry":{"type":"Point","coordinates":[140.429564,38.311053]},"properties":{"id":101537006,"name":"立谷川（山寺芭蕉橋付近）","name_kana":"","ofc_cd":82,"sys_id":1,"sys_cam_id":"1537006","pause":0,"date_type":2,"cam_kind":4,"own_cd":1537}},{"type":"Feature","geometry":{"type":"Point","coordinates":[140.388064,38.242764]},"properties":{"id":101537016,"name":"馬見ヶ崎川（唐松橋付近）","name_kana":"","ofc_cd":82,"sys_id":1,"sys_cam_id":"1537016","pause":0,"date_type":2,"cam_kind":4,"own_cd":1537}},{"type":"Feature","geometry":{"type":"Point","coordinates":[140.311815,38.217675]},"properties":{"id":101537093,"name":"須川（常盤橋付近）","name_kana":"","ofc_cd":82,"sys_id":1,"sys_cam_id":"1537093","pause":0,"date_type":1,"cam_kind":4,"own_cd":1537}},{"type":"Feature","geometry":{"type":"Point","coordinates":[140.2793146,38.2681883]},"properties":{"id":10601201001,"name":"山形市くぬぎさわ西","name_kana":"やまがたしくぬぎさわにし","ofc_cd":82,"sys_id":1,"sys_cam_id":"601201001","pause":0,"date_type":2,"cam_kind":4,"own_cd":601201}},{"type":"Feature","geometry":{"type":"Point","coordinates":[140.2803145,38.2817072]},"properties":{"id":10601201002,"name":"山形市志戸田","name_kana":"やまがたししとだ","ofc_cd":82,"sys_id":1,"sys_cam_id":"601201002","pause":0,"date_type":2,"cam_kind":4,"own_cd":601201}},{"type":"Feature","geometry":{"type":"Point","coordinates":[140.2808334,38.2920721]},"properties":{"id":10601201003,"name":"山形市鮨洗","name_kana":"やまがたしすしあらい","ofc_cd":82,"sys_id":1,"sys_cam_id":"601201003","pause":0,"date_type":2,"cam_kind":4,"own_cd":601201}},{"type":"Feature","geometry":{"type":"Point","coordinates":[140.32223,38.208381]},"properties":{"id":10601201004,"name":"山形市蔵王成沢","name_kana":"やまがたしざおうなりさわ","ofc_cd":82,"sys_id":1,"sys_cam_id":"601201004","pause":0,"date_type":2,"cam_kind":4,"own_cd":601201}},{"type":"Feature","geometry":{"type":"Point","coordinates":[140.413195,38.218932]},"properties":{"id":10601201005,"name":"山形市上宝沢","name_kana":"やまがたしかみほうざわ","ofc_cd":82,"sys_id":1,"sys_cam_id":"601201005","pause":0,"date_type":2,"cam_kind":4,"own_cd":601201}},{"type":"Feature","geometry":{"type":"Point","coordinates":[140.277132,38.274122]},"properties":{"id":10601201006,"name":"山形市志戸田","name_kana":"やまがたししとだ","ofc_cd":82,"sys_id":1,"sys_cam_id":"601201006","pause":0,"date_type":2,"cam_kind":4,"own_cd":601201}},{"type":"Feature","geometry":{"type":"Point","coordinates":[140.34309,38.233291]},"properties":{"id":10601201007,"name":"山形市南原三丁目","name_kana":"やまがたしみなみはらさんちょうめ","ofc_cd":82,"sys_id":1,"sys_cam_id":"601201007","pause":0,"date_type":2,"cam_kind":4,"own_cd":601201}},{"type":"Feature","geometry":{"type":"Point","coordinates":[140.27879,38.260711]},"properties":{"id":10601201008,"name":"山形市飯塚","name_kana":"やまがたしいいづか","ofc_cd":82,"sys_id":1,"sys_cam_id":"601201008","pause":0,"date_type":2,"cam_kind":4,"own_cd":601201}},{"type":"Feature","geometry":{"type":"Point","coordinates":[140.408763,38.284495]},"properties":{"id":10601201009,"name":"山形市上東山","name_kana":"やまがたしかみひがしやま","ofc_cd":82,"sys_id":1,"sys_cam_id":"601201009","pause":0,"date_type":2,"cam_kind":4,"own_cd":601201}},{"type":"Feature","geometry":{"type":"Point","coordinates":[140.323101,38.201814]},"properties":{"id":10601201010,"name":"山形市蔵王成沢","name_kana":"やまがたしざおうなりさわ","ofc_cd":82,"sys_id":1,"sys_cam_id":"601201010","pause":0,"date_type":2,"cam_kind":4,"own_cd":601201}},{"type":"Feature","geometry":{"type":"Point","coordinates":[140.395116,38.163215]},"properties":{"id":10601201011,"name":"山形市蔵王温泉","name_kana":"やまがたしざおうおんせん","ofc_cd":82,"sys_id":1,"sys_cam_id":"601201011","pause":0,"date_type":2,"cam_kind":4,"own_cd":601201}},{"type":"Feature","geometry":{"type":"Point","coordinates":[140.3074756,38.3304689]},"properties":{"id":121053187,"name":"馬見ヶ崎川合流簡易カメラ","name_kana":"まみがさきがわごうりゅうかんいかめら","ofc_cd":82,"sys_id":1,"sys_cam_id":"21053187","pause":0,"date_type":2,"cam_kind":4,"own_cd":21053}},{"type":"Feature","geometry":{"type":"Point","coordinates":[140.300079,38.312124]},"properties":{"id":121053195,"name":"貴船川簡易カメラ","name_kana":"きぶねがわかんいかめら","ofc_cd":82,"sys_id":1,"sys_cam_id":"21053195","pause":0,"date_type":2,"cam_kind":4,"own_cd":21053}},{"type":"Feature","geometry":{"type":"Point","coordinates":[140.309444444,38.335]},"properties":{"id":221053048,"name":"中野目橋","name_kana":"","ofc_cd":82,"sys_id":2,"sys_cam_id":"21053045","pause":0,"date_type":0,"cam_kind":2,"own_cd":21053}},{"type":"Feature","geometry":{"type":"Point","coordinates":[140.303647222,38.317480556]},"properties":{"id":221053049,"name":"貴船川水門","name_kana":"","ofc_cd":82,"sys_id":2,"sys_cam_id":"21053057","pause":0,"date_type":0,"cam_kind":2,"own_cd":21053}},{"type":"Feature","geometry":{"type":"Point","coordinates":[140.291666667,38.310555556]},"properties":{"id":221053050,"name":"船町橋","name_kana":"","ofc_cd":82,"sys_id":2,"sys_cam_id":"21053046","pause":0,"date_type":0,"cam_kind":2,"own_cd":21053}},{"type":"Feature","geometry":{"type":"Point","coordinates":[140.279922222,38.291697222]},"properties":{"id":221053051,"name":"鮨洗水位観測所","name_kana":"","ofc_cd":82,"sys_id":2,"sys_cam_id":"21053018","pause":0,"date_type":0,"cam_kind":2,"own_cd":21053}},{"type":"Feature","geometry":{"type":"Point","coordinates":[140.279738889,38.281675]},"properties":{"id":221053052,"name":"志戸田排水樋管","name_kana":"","ofc_cd":82,"sys_id":2,"sys_cam_id":"21053058","pause":0,"date_type":0,"cam_kind":2,"own_cd":21053}},{"type":"Feature","geometry":{"type":"Point","coordinates":[140.278619444,38.268069444]},"properties":{"id":221053054,"name":"王川排水樋門","name_kana":"","ofc_cd":82,"sys_id":2,"sys_cam_id":"21053059","pause":0,"date_type":0,"cam_kind":2,"own_cd":21053}},{"type":"Feature","geometry":{"type":"Point","coordinates":[140.278036111,38.260047222]},"properties":{"id":221053055,"name":"飯塚橋","name_kana":"","ofc_cd":82,"sys_id":2,"sys_cam_id":"21053049","pause":0,"date_type":0,"cam_kind":2,"own_cd":21053}},{"type":"Feature","geometry":{"type":"Point","coordinates":[140.152287,37.862623]},"properties":{"id":101537043,"name":"羽黒川（羽黒橋付近）","name_kana":"","ofc_cd":82,"sys_id":1,"sys_cam_id":"1537043","pause":0,"date_type":2,"cam_kind":4,"own_cd":1537}},{"type":"Feature","geometry":{"type":"Point","coordinates":[140.130358,37.921045]},"properties":{"id":101537044,"name":"羽黒川（羽黒川橋付近）","name_kana":"","ofc_cd":82,"sys_id":1,"sys_cam_id":"1537044","pause":0,"date_type":2,"cam_kind":4,"own_cd":1537}},{"type":"Feature","geometry":{"type":"Point","coordinates":[140.067487,37.913563]},"properties":{"id":101537045,"name":"鬼面川（大樽橋付近）","name_kana":"","ofc_cd":82,"sys_id":1,"sys_cam_id":"1537045","pause":0,"date_type":2,"cam_kind":4,"own_cd":1537}},{"type":"Feature","geometry":{"type":"Point","coordinates":[140.102892,37.919589]},"properties":{"id":101537046,"name":"堀立川（掘立川中央橋付近）","name_kana":"","ofc_cd":82,"sys_id":1,"sys_cam_id":"1537046","pause":0,"date_type":2,"cam_kind":4,"own_cd":1537}},{"type":"Feature","geometry":{"type":"Point","coordinates":[140.155678,37.962031]},"properties":{"id":101537047,"name":"天王川（天王川橋付近）","name_kana":"","ofc_cd":82,"sys_id":1,"sys_cam_id":"1537047","pause":0,"date_type":2,"cam_kind":4,"own_cd":1537}},{"type":"Feature","geometry":{"type":"Point","coordinates":[140.1192715,37.9138069]},"properties":{"id":101537049,"name":"最上川（松川橋付近）","name_kana":"","ofc_cd":82,"sys_id":1,"sys_cam_id":"1537049","pause":0,"date_type":2,"cam_kind":4,"own_cd":1537}},{"type":"Feature","geometry":{"type":"Point","coordinates":[140.144438,37.973496]},"properties":{"id":121053194,"name":"天王川合流簡易カメラ","name_kana":"てんのうがわごうりゅうかんいかめら","ofc_cd":82,"sys_id":1,"sys_cam_id":"21053194","pause":0,"date_type":2,"cam_kind":4,"own_cd":21053}},{"type":"Feature","geometry":{"type":"Point","coordinates":[140.131944444,37.953055556]},"properties":{"id":221053044,"name":"置賜橋上流","name_kana":"","ofc_cd":82,"sys_id":2,"sys_cam_id":"21053020","pause":0,"date_type":0,"cam_kind":2,"own_cd":21053}},{"type":"Feature","geometry":{"type":"Point","coordinates":[140.129977778,37.939108333]},"properties":{"id":221053045,"name":"上新田水位観測所","name_kana":"","ofc_cd":82,"sys_id":2,"sys_cam_id":"21053019","pause":0,"date_type":0,"cam_kind":2,"own_cd":21053}},{"type":"Feature","geometry":{"type":"Point","coordinates":[140.120833333,37.933611111]},"properties":{"id":221053046,"name":"堀立川合流点","name_kana":"","ofc_cd":82,"sys_id":2,"sys_cam_id":"21053043","pause":0,"date_type":0,"cam_kind":2,"own_cd":21053}},{"type":"Feature","geometry":{"type":"Point","coordinates":[140.293611111,37.804722222]},"properties":{"id":221063069,"name":"蟹ヶ沢第７堰堤","name_kana":"かにがさわだいななえんてい","ofc_cd":82,"sys_id":2,"sys_cam_id":"21063001","pause":0,"date_type":0,"cam_kind":2,"own_cd":21063}},{"type":"Feature","geometry":{"type":"Point","coordinates":[140.276666667,37.810833333]},"properties":{"id":221063070,"name":"板谷沢第一堰堤","name_kana":"いたやざわだいいちえんてい","ofc_cd":82,"sys_id":2,"sys_cam_id":"21063002","pause":0,"date_type":0,"cam_kind":2,"own_cd":21063}},{"type":"Feature","geometry":{"type":"Point","coordinates":[139.9325988,38.7812704]},"properties":{"id":101537061,"name":"京田川（京田橋付近）","name_kana":"","ofc_cd":82,"sys_id":1,"sys_cam_id":"1537061","pause":0,"date_type":2,"cam_kind":4,"own_cd":1537}},{"type":"Feature","geometry":{"type":"Point","coordinates":[139.897242,38.764725]},"properties":{"id":101537064,"name":"藤島川（藤浪橋付近）","name_kana":"","ofc_cd":82,"sys_id":1,"sys_cam_id":"1537064","pause":0,"date_type":2,"cam_kind":4,"own_cd":1537}},{"type":"Feature","geometry":{"type":"Point","coordinates":[139.766221,38.74585]},"properties":{"id":101537065,"name":"大山川（尾浦橋付近）","name_kana":"","ofc_cd":82,"sys_id":1,"sys_cam_id":"1537065","pause":0,"date_type":2,"cam_kind":4,"own_cd":1537}},{"type":"Feature","geometry":{"type":"Point","coordinates":[139.809179,38.782826]},"properties":{"id":101537066,"name":"大山川（観山橋付近）","name_kana":"","ofc_cd":82,"sys_id":1,"sys_cam_id":"1537066","pause":0,"date_type":2,"cam_kind":4,"own_cd":1537}},{"type":"Feature","geometry":{"type":"Point","coordinates":[139.620695,38.671908]},"properties":{"id":101537070,"name":"五十川（ＪＲ橋付近）","name_kana":"","ofc_cd":82,"sys_id":1,"sys_cam_id":"1537070","pause":0,"date_type":2,"cam_kind":4,"own_cd":1537}},{"type":"Feature","geometry":{"type":"Point","coordinates":[139.577093,38.604563]},"properties":{"id":101537071,"name":"庄内小国川（岩川橋付近）","name_kana":"","ofc_cd":82,"sys_id":1,"sys_cam_id":"1537071","pause":0,"date_type":2,"cam_kind":4,"own_cd":1537}},{"type":"Feature","geometry":{"type":"Point","coordinates":[139.617391,38.535477]},"properties":{"id":101537072,"name":"鼠ヶ関川（田元橋付近）","name_kana":"","ofc_cd":82,"sys_id":1,"sys_cam_id":"1537072","pause":0,"date_type":2,"cam_kind":4,"own_cd":1537}},{"type":"Feature","geometry":{"type":"Point","coordinates":[139.8290193,38.6796152]},"properties":{"id":101537076,"name":"青竜寺川（丸岡分水付近）","name_kana":"","ofc_cd":82,"sys_id":1,"sys_cam_id":"1537076","pause":0,"date_type":2,"cam_kind":4,"own_cd":1537}},{"type":"Feature","geometry":{"type":"Point","coordinates":[139.781842,38.727807]},"properties":{"id":101537078,"name":"湯尻川（白山関根橋付近）","name_kana":"","ofc_cd":82,"sys_id":1,"sys_cam_id":"1537078","pause":0,"date_type":2,"cam_kind":4,"own_cd":1537}},{"type":"Feature","geometry":{"type":"Point","coordinates":[139.808707,38.705104]},"properties":{"id":101537079,"name":"青竜寺川（高坂橋付近）","name_kana":"","ofc_cd":82,"sys_id":1,"sys_cam_id":"1537079","pause":0,"date_type":2,"cam_kind":4,"own_cd":1537}},{"type":"Feature","geometry":{"type":"Point","coordinates":[139.840164,38.7281047]},"properties":{"id":101537082,"name":"内川（上内川橋付近）","name_kana":"","ofc_cd":82,"sys_id":1,"sys_cam_id":"1537082","pause":0,"date_type":2,"cam_kind":4,"own_cd":1537}},{"type":"Feature","geometry":{"type":"Point","coordinates":[139.888444,38.72861]},"properties":{"id":101537083,"name":"黒瀬川（荒富橋付近）","name_kana":"","ofc_cd":82,"sys_id":1,"sys_cam_id":"1537083","pause":0,"date_type":2,"cam_kind":4,"own_cd":1537}},{"type":"Feature","geometry":{"type":"Point","coordinates":[139.6705101,38.7044801]},"properties":{"id":101537084,"name":"三瀬川（宮前橋付近）","name_kana":"","ofc_cd":82,"sys_id":1,"sys_cam_id":"1537084","pause":0,"date_type":2,"cam_kind":4,"own_cd":1537}},{"type":"Feature","geometry":{"type":"Point","coordinates":[139.785275,38.524768]},"properties":{"id":101537085,"name":"倉沢川（仙納橋付近）","name_kana":"","ofc_cd":82,"sys_id":1,"sys_cam_id":"1537085","pause":0,"date_type":2,"cam_kind":4,"own_cd":1537}},{"type":"Feature","geometry":{"type":"Point","coordinates":[139.610052,38.614758]},"properties":{"id":101537086,"name":"温海川（月見橋付近）","name_kana":"","ofc_cd":82,"sys_id":1,"sys_cam_id":"1537086","pause":0,"date_type":2,"cam_kind":4,"own_cd":1537}},{"type":"Feature","geometry":{"type":"Point","coordinates":[139.550271,38.557697]},"properties":{"id":101537090,"name":"鼠ヶ関川（鼠ヶ関川橋付近）","name_kana":"","ofc_cd":82,"sys_id":1,"sys_cam_id":"1537090","pause":0,"date_type":2,"cam_kind":4,"own_cd":1537}},{"type":"Feature","geometry":{"type":"Point","coordinates":[139.8321078,38.6111461]},"properties":{"id":101537091,"name":"赤川（本郷橋付近）","name_kana":"","ofc_cd":82,"sys_id":1,"sys_cam_id":"1537091","pause":0,"date_type":2,"cam_kind":4,"own_cd":1537}},{"type":"Feature","geometry":{"type":"Point","coordinates":[139.839236,38.777293]},"properties":{"id":101537097,"name":"青竜寺川（栄橋付近）","name_kana":"しょうりゅうじがわ（さかえばしふきん）","ofc_cd":82,"sys_id":1,"sys_cam_id":"1537097","pause":0,"date_type":2,"cam_kind":4,"own_cd":1537}},{"type":"Feature","geometry":{"type":"Point","coordinates":[139.850975,38.76064]},"properties":{"id":121055261,"name":"文下（赤川 13.6k 左岸)","name_kana":"ほうだし","ofc_cd":82,"sys_id":1,"sys_cam_id":"21055261","pause":0,"date_type":2,"cam_kind":4,"own_cd":21055}},{"type":"Feature","geometry":{"type":"Point","coordinates":[139.845613,38.737568]},"properties":{"id":121055264,"name":"大宝寺（内川 1.8k 左岸)","name_kana":"だいほうじ","ofc_cd":82,"sys_id":1,"sys_cam_id":"21055264","pause":0,"date_type":2,"cam_kind":4,"own_cd":21055}},{"type":"Feature","geometry":{"type":"Point","coordinates":[139.85819,38.705982]},"properties":{"id":121055265,"name":"我老林（赤川 20.4k 左岸)","name_kana":"がろうばやし","ofc_cd":82,"sys_id":1,"sys_cam_id":"21055265","pause":0,"date_type":2,"cam_kind":4,"own_cd":21055}},{"type":"Feature","geometry":{"type":"Point","coordinates":[139.862393,38.678556]},"properties":{"id":121055267,"name":"黒川（赤川 23.4k 右岸)","name_kana":"くろかわ","ofc_cd":82,"sys_id":1,"sys_cam_id":"21055267","pause":0,"date_type":2,"cam_kind":4,"own_cd":21055}},{"type":"Feature","geometry":{"type":"Point","coordinates":[139.849177,38.62972]},"properties":{"id":121055268,"name":"村西（赤川 29.6k 右岸)","name_kana":"むらにし","ofc_cd":82,"sys_id":1,"sys_cam_id":"21055268","pause":0,"date_type":2,"cam_kind":4,"own_cd":21055}},{"type":"Feature","geometry":{"type":"Point","coordinates":[139.844988,38.625636]},"properties":{"id":121055269,"name":"熊出黒沢（赤川 30.2k 右岸)","name_kana":"くまいでくろさわ","ofc_cd":82,"sys_id":1,"sys_cam_id":"21055269","pause":0,"date_type":2,"cam_kind":4,"own_cd":21055}},{"type":"Feature","geometry":{"type":"Point","coordinates":[139.753077778,38.525580556]},"properties":{"id":221054033,"name":"倉沢川砂防堰堤","name_kana":"","ofc_cd":82,"sys_id":2,"sys_cam_id":"21054033","pause":0,"date_type":0,"cam_kind":2,"own_cd":21054}},{"type":"Feature","geometry":{"type":"Point","coordinates":[139.929738889,38.571675]},"properties":{"id":221054034,"name":"田麦川砂防堰堤","name_kana":"","ofc_cd":82,"sys_id":2,"sys_cam_id":"21054034","pause":0,"date_type":0,"cam_kind":2,"own_cd":21054}},{"type":"Feature","geometry":{"type":"Point","coordinates":[139.825011111,38.571388889]},"properties":{"id":221054035,"name":"戸沢川砂防堰堤","name_kana":"","ofc_cd":82,"sys_id":2,"sys_cam_id":"21054035","pause":0,"date_type":0,"cam_kind":2,"own_cd":21054}},{"type":"Feature","geometry":{"type":"Point","coordinates":[139.778358333,38.548888889]},"properties":{"id":221054036,"name":"松沢川砂防堰堤","name_kana":"","ofc_cd":82,"sys_id":2,"sys_cam_id":"21054036","pause":0,"date_type":0,"cam_kind":2,"own_cd":21054}},{"type":"Feature","geometry":{"type":"Point","coordinates":[139.799733333,38.519172222]},"properties":{"id":221054037,"name":"上田沢川砂防堰堤","name_kana":"","ofc_cd":82,"sys_id":2,"sys_cam_id":"21054037","pause":0,"date_type":0,"cam_kind":2,"own_cd":21054}},{"type":"Feature","geometry":{"type":"Point","coordinates":[139.792225,38.448888889]},"properties":{"id":221054053,"name":"東大鳥川砂防堰堤","name_kana":"","ofc_cd":82,"sys_id":2,"sys_cam_id":"21054053","pause":0,"date_type":0,"cam_kind":2,"own_cd":21054}},{"type":"Feature","geometry":{"type":"Point","coordinates":[139.765002778,38.443905556]},"properties":{"id":221054054,"name":"西大鳥川第２砂防堰堤","name_kana":"","ofc_cd":82,"sys_id":2,"sys_cam_id":"21054054","pause":0,"date_type":0,"cam_kind":2,"own_cd":21054}},{"type":"Feature","geometry":{"type":"Point","coordinates":[139.848897222,38.773338889]},"properties":{"id":221055019,"name":"横山水位観測所","name_kana":"","ofc_cd":82,"sys_id":2,"sys_cam_id":"21055021","pause":0,"date_type":0,"cam_kind":2,"own_cd":21055}},{"type":"Feature","geometry":{"type":"Point","coordinates":[139.8514,38.726136111]},"properties":{"id":221055020,"name":"羽黒橋","name_kana":"","ofc_cd":82,"sys_id":2,"sys_cam_id":"21055005","pause":0,"date_type":0,"cam_kind":2,"own_cd":21055}},{"type":"Feature","geometry":{"type":"Point","coordinates":[139.847888889,38.63105]},"properties":{"id":221055021,"name":"熊出","name_kana":"","ofc_cd":82,"sys_id":2,"sys_cam_id":"21055006","pause":0,"date_type":0,"cam_kind":2,"own_cd":21055}},{"type":"Feature","geometry":{"type":"Point","coordinates":[139.847797222,38.751688889]},"properties":{"id":221055022,"name":"内川合流点","name_kana":"","ofc_cd":82,"sys_id":2,"sys_cam_id":"21055022","pause":0,"date_type":0,"cam_kind":2,"own_cd":21055}},{"type":"Feature","geometry":{"type":"Point","coordinates":[139.838613889,38.615836111]},"properties":{"id":221055023,"name":"落合","name_kana":"","ofc_cd":82,"sys_id":2,"sys_cam_id":"21055024","pause":0,"date_type":0,"cam_kind":2,"own_cd":21055}},{"type":"Feature","geometry":{"type":"Point","coordinates":[139.860847222,38.711963889]},"properties":{"id":221055025,"name":"松尾","name_kana":"","ofc_cd":82,"sys_id":2,"sys_cam_id":"21055025","pause":0,"date_type":0,"cam_kind":2,"own_cd":21055}},{"type":"Feature","geometry":{"type":"Point","coordinates":[139.895911111,38.57575]},"properties":{"id":221058001,"name":"月山ダム　和尚峠","name_kana":"がっさんだむ　おしょうとうげ","ofc_cd":82,"sys_id":2,"sys_cam_id":"21058004","pause":0,"date_type":0,"cam_kind":2,"own_cd":21058}},{"type":"Feature","geometry":{"type":"Point","coordinates":[139.893975,38.582627778]},"properties":{"id":221058002,"name":"月山ダム　湖面監視","name_kana":"がっさんだむ　こめんかんし","ofc_cd":82,"sys_id":2,"sys_cam_id":"21058001","pause":0,"date_type":0,"cam_kind":2,"own_cd":21058}},{"type":"Feature","geometry":{"type":"Point","coordinates":[139.894902778,38.584833333]},"properties":{"id":221058003,"name":"月山ダム　ダム右岸下流","name_kana":"がっさんだむ　だむうがんかりゅう","ofc_cd":82,"sys_id":2,"sys_cam_id":"21058002","pause":0,"date_type":0,"cam_kind":2,"own_cd":21058}},{"type":"Feature","geometry":{"type":"Point","coordinates":[139.899086111,38.583675]},"properties":{"id":221058004,"name":"月山ダム　堤体監視","name_kana":"がっさんだむ　ていたいかんし","ofc_cd":82,"sys_id":2,"sys_cam_id":"21058003","pause":0,"date_type":0,"cam_kind":2,"own_cd":21058}},{"type":"Feature","geometry":{"type":"Point","coordinates":[139.872758333,38.587466667]},"properties":{"id":221058005,"name":"月山　梵字川長瀞橋","name_kana":"がっさん　ぼんじがわながとろばし","ofc_cd":82,"sys_id":2,"sys_cam_id":"21058005","pause":0,"date_type":0,"cam_kind":2,"own_cd":21058}},{"type":"Feature","geometry":{"type":"Point","coordinates":[139.851058333,38.589641667]},"properties":{"id":221058006,"name":"月山　梵字川三栗屋橋","name_kana":"がっさん　ぼんじがわみくりやばし","ofc_cd":82,"sys_id":2,"sys_cam_id":"21058006","pause":0,"date_type":0,"cam_kind":2,"own_cd":21058}},{"type":"Feature","geometry":{"type":"Point","coordinates":[139.838275,38.611111111]},"properties":{"id":221058007,"name":"月山　梵字川立岩橋","name_kana":"がっさん　ぼんじがわたていわばし","ofc_cd":82,"sys_id":2,"sys_cam_id":"21058007","pause":0,"date_type":0,"cam_kind":2,"own_cd":21058}},{"type":"Feature","geometry":{"type":"Point","coordinates":[139.902358333,38.559811111]},"properties":{"id":221058008,"name":"月山ダム　ノコト沢","name_kana":"がっさんだむ　のことざわ","ofc_cd":82,"sys_id":2,"sys_cam_id":"21058008","pause":0,"date_type":0,"cam_kind":2,"own_cd":21058}},{"type":"Feature","geometry":{"type":"Point","coordinates":[139.847133333,38.736033333]},"properties":{"id":221058009,"name":"月山　赤川切添","name_kana":"がっさん　あかがわきりぞえ","ofc_cd":82,"sys_id":2,"sys_cam_id":"21058009","pause":0,"date_type":0,"cam_kind":2,"own_cd":21058}},{"type":"Feature","geometry":{"type":"Point","coordinates":[139.857405556,38.680605556]},"properties":{"id":221058010,"name":"月山　赤川三千刈","name_kana":"がっさん　あかがわさんぜんがり","ofc_cd":82,"sys_id":2,"sys_cam_id":"21058010","pause":0,"date_type":0,"cam_kind":2,"own_cd":21058}},{"type":"Feature","geometry":{"type":"Point","coordinates":[139.979253,38.893839]},"properties":{"id":101537060,"name":"相沢川（田沢橋付近）","name_kana":"","ofc_cd":82,"sys_id":1,"sys_cam_id":"1537060","pause":0,"date_type":2,"cam_kind":4,"own_cd":1537}},{"type":"Feature","geometry":{"type":"Point","coordinates":[139.8472717,38.860381]},"properties":{"id":101537063,"name":"京田川（山田橋上流付近）","name_kana":"","ofc_cd":82,"sys_id":1,"sys_cam_id":"1537063","pause":0,"date_type":2,"cam_kind":4,"own_cd":1537}},{"type":"Feature","geometry":{"type":"Point","coordinates":[139.934578,38.96635]},"properties":{"id":101537068,"name":"荒瀬川（八幡橋付近）","name_kana":"","ofc_cd":82,"sys_id":1,"sys_cam_id":"1537068","pause":0,"date_type":2,"cam_kind":4,"own_cd":1537}},{"type":"Feature","geometry":{"type":"Point","coordinates":[139.852824,38.922725]},"properties":{"id":101537069,"name":"新井田川（旭新橋付近）","name_kana":"","ofc_cd":82,"sys_id":1,"sys_cam_id":"1537069","pause":0,"date_type":2,"cam_kind":4,"own_cd":1537}},{"type":"Feature","geometry":{"type":"Point","coordinates":[139.8683646,38.979322]},"properties":{"id":101537073,"name":"日向川（日向橋付近）","name_kana":"","ofc_cd":82,"sys_id":1,"sys_cam_id":"1537073","pause":0,"date_type":2,"cam_kind":4,"own_cd":1537}},{"type":"Feature","geometry":{"type":"Point","coordinates":[139.855399,38.895074]},"properties":{"id":101537077,"name":"小牧川（こがね橋付近）","name_kana":"","ofc_cd":82,"sys_id":1,"sys_cam_id":"1537077","pause":0,"date_type":2,"cam_kind":4,"own_cd":1537}},{"type":"Feature","geometry":{"type":"Point","coordinates":[139.980111,38.891534]},"properties":{"id":101537080,"name":"田沢川（相沢橋付近）","name_kana":"","ofc_cd":82,"sys_id":1,"sys_cam_id":"1537080","pause":0,"date_type":2,"cam_kind":4,"own_cd":1537}},{"type":"Feature","geometry":{"type":"Point","coordinates":[139.875944,38.874814]},"properties":{"id":121055239,"name":"落野目（最上川 7.8k 左岸)","name_kana":"おちのめ","ofc_cd":82,"sys_id":1,"sys_cam_id":"21055239","pause":0,"date_type":2,"cam_kind":4,"own_cd":21055}},{"type":"Feature","geometry":{"type":"Point","coordinates":[139.881584,38.876126]},"properties":{"id":121055240,"name":"新堀（最上川 8.2k 左岸)","name_kana":"にいぼり","ofc_cd":82,"sys_id":1,"sys_cam_id":"21055240","pause":0,"date_type":2,"cam_kind":4,"own_cd":21055}},{"type":"Feature","geometry":{"type":"Point","coordinates":[139.879146,38.881397]},"properties":{"id":121055241,"name":"遊摺部（最上川 8.2k 右岸)","name_kana":"ゆするべ","ofc_cd":82,"sys_id":1,"sys_cam_id":"21055241","pause":0,"date_type":2,"cam_kind":4,"own_cd":21055}},{"type":"Feature","geometry":{"type":"Point","coordinates":[139.923506,38.88164]},"properties":{"id":121055244,"name":"飛鳥中島（最上川 11.8k 右岸)","name_kana":"あすかなかじま","ofc_cd":82,"sys_id":1,"sys_cam_id":"21055244","pause":0,"date_type":2,"cam_kind":4,"own_cd":21055}},{"type":"Feature","geometry":{"type":"Point","coordinates":[139.928972,38.880005]},"properties":{"id":121055245,"name":"飛鳥神内（最上川 12.2k 右岸)","name_kana":"あすかかみない","ofc_cd":82,"sys_id":1,"sys_cam_id":"21055245","pause":0,"date_type":2,"cam_kind":4,"own_cd":21055}},{"type":"Feature","geometry":{"type":"Point","coordinates":[139.945442,38.866695]},"properties":{"id":121055246,"name":"中牧田（最上川 14.2k 右岸)","name_kana":"なかまきた","ofc_cd":82,"sys_id":1,"sys_cam_id":"21055246","pause":0,"date_type":2,"cam_kind":4,"own_cd":21055}},{"type":"Feature","geometry":{"type":"Point","coordinates":[139.954316,38.841917]},"properties":{"id":121055247,"name":"山寺（最上川 17.2k 右岸)","name_kana":"やまでら","ofc_cd":82,"sys_id":1,"sys_cam_id":"21055247","pause":0,"date_type":2,"cam_kind":4,"own_cd":21055}},{"type":"Feature","geometry":{"type":"Point","coordinates":[139.993,38.810049]},"properties":{"id":121055250,"name":"地見興屋（最上川 22.0k 右岸)","name_kana":"じみこうや","ofc_cd":82,"sys_id":1,"sys_cam_id":"21055250","pause":0,"date_type":2,"cam_kind":4,"own_cd":21055}},{"type":"Feature","geometry":{"type":"Point","coordinates":[140.014727,38.795666]},"properties":{"id":121055251,"name":"成興野（最上川 25.8k 右岸)","name_kana":"なりこうや","ofc_cd":82,"sys_id":1,"sys_cam_id":"21055251","pause":0,"date_type":2,"cam_kind":4,"own_cd":21055}},{"type":"Feature","geometry":{"type":"Point","coordinates":[139.976394444,38.820013889]},"properties":{"id":221055004,"name":"臼ヶ沢","name_kana":"","ofc_cd":82,"sys_id":2,"sys_cam_id":"21055011","pause":0,"date_type":0,"cam_kind":2,"own_cd":21055}},{"type":"Feature","geometry":{"type":"Point","coordinates":[139.95835,38.836691667]},"properties":{"id":221055005,"name":"鈴川排水機場","name_kana":"","ofc_cd":82,"sys_id":2,"sys_cam_id":"21055010","pause":0,"date_type":0,"cam_kind":2,"own_cd":21055}},{"type":"Feature","geometry":{"type":"Point","coordinates":[139.946136111,38.864447222]},"properties":{"id":221055006,"name":"竹田排水機場","name_kana":"","ofc_cd":82,"sys_id":2,"sys_cam_id":"21055009","pause":0,"date_type":0,"cam_kind":2,"own_cd":21055}},{"type":"Feature","geometry":{"type":"Point","coordinates":[139.907516667,38.881402778]},"properties":{"id":221055007,"name":"砂越","name_kana":"","ofc_cd":82,"sys_id":2,"sys_cam_id":"21055017","pause":0,"date_type":0,"cam_kind":2,"own_cd":21055}},{"type":"Feature","geometry":{"type":"Point","coordinates":[139.885558333,38.883888889]},"properties":{"id":221055008,"name":"酒田上水道取入口","name_kana":"","ofc_cd":82,"sys_id":2,"sys_cam_id":"21055016","pause":0,"date_type":0,"cam_kind":2,"own_cd":21055}},{"type":"Feature","geometry":{"type":"Point","coordinates":[139.849725,38.886691667]},"properties":{"id":221055009,"name":"小牧川水門","name_kana":"","ofc_cd":82,"sys_id":2,"sys_cam_id":"21055004","pause":0,"date_type":0,"cam_kind":2,"own_cd":21055}},{"type":"Feature","geometry":{"type":"Point","coordinates":[139.844741667,38.891391667]},"properties":{"id":221055010,"name":"両羽橋","name_kana":"","ofc_cd":82,"sys_id":2,"sys_cam_id":"21055003","pause":0,"date_type":0,"cam_kind":2,"own_cd":21055}},{"type":"Feature","geometry":{"type":"Point","coordinates":[139.834463889,38.902236111]},"properties":{"id":221055011,"name":"出羽大橋（スワンパーク）","name_kana":"","ofc_cd":82,"sys_id":2,"sys_cam_id":"21055002","pause":0,"date_type":0,"cam_kind":2,"own_cd":21055}},{"type":"Feature","geometry":{"type":"Point","coordinates":[139.827238889,38.911113889]},"properties":{"id":221055012,"name":"下瀬","name_kana":"","ofc_cd":82,"sys_id":2,"sys_cam_id":"21055007","pause":0,"date_type":0,"cam_kind":2,"own_cd":21055}},{"type":"Feature","geometry":{"type":"Point","coordinates":[139.809733333,38.924736111]},"properties":{"id":221055013,"name":"最上川河口","name_kana":"","ofc_cd":82,"sys_id":2,"sys_cam_id":"21055001","pause":0,"date_type":0,"cam_kind":2,"own_cd":21055}},{"type":"Feature","geometry":{"type":"Point","coordinates":[139.942511111,38.886416667]},"properties":{"id":221055014,"name":"石名坂","name_kana":"","ofc_cd":82,"sys_id":2,"sys_cam_id":"21055008","pause":0,"date_type":0,"cam_kind":2,"own_cd":21055}},{"type":"Feature","geometry":{"type":"Point","coordinates":[139.793058333,38.846672222]},"properties":{"id":221055015,"name":"赤川河口","name_kana":"","ofc_cd":82,"sys_id":2,"sys_cam_id":"21055013","pause":0,"date_type":0,"cam_kind":2,"own_cd":21055}},{"type":"Feature","geometry":{"type":"Point","coordinates":[139.815280556,38.8414]},"properties":{"id":221055016,"name":"浜中","name_kana":"","ofc_cd":82,"sys_id":2,"sys_cam_id":"21055020","pause":0,"date_type":0,"cam_kind":2,"own_cd":21055}},{"type":"Feature","geometry":{"type":"Point","coordinates":[139.84083333,38.82709444]},"properties":{"id":221055017,"name":"おばこ大橋","name_kana":"おばこおおはし","ofc_cd":82,"sys_id":2,"sys_cam_id":"21055014","pause":0,"date_type":0,"cam_kind":2,"own_cd":21055}},{"type":"Feature","geometry":{"type":"Point","coordinates":[140.032802778,38.778888889]},"properties":{"id":221055024,"name":"さみだれ大堰上流右岸","name_kana":"","ofc_cd":82,"sys_id":2,"sys_cam_id":"21055023","pause":0,"date_type":0,"cam_kind":2,"own_cd":21055}},{"type":"Feature","geometry":{"type":"Point","coordinates":[139.837797222,38.8839]},"properties":{"id":221055026,"name":"広田水位観測所","name_kana":"","ofc_cd":82,"sys_id":2,"sys_cam_id":"21055026","pause":0,"date_type":0,"cam_kind":2,"own_cd":21055}},{"type":"Feature","geometry":{"type":"Point","coordinates":[139.931683333,38.878072222]},"properties":{"id":221055027,"name":"相沢川合流点","name_kana":"","ofc_cd":82,"sys_id":2,"sys_cam_id":"21055027","pause":0,"date_type":0,"cam_kind":2,"own_cd":21055}},{"type":"Feature","geometry":{"type":"Point","coordinates":[140.234342,38.748996]},"properties":{"id":101537035,"name":"升形川（八幡橋付近）","name_kana":"","ofc_cd":82,"sys_id":1,"sys_cam_id":"1537035","pause":0,"date_type":2,"cam_kind":4,"own_cd":1537}},{"type":"Feature","geometry":{"type":"Point","coordinates":[140.357552,38.814566]},"properties":{"id":101537036,"name":"大以良川（西宿橋付近）","name_kana":"","ofc_cd":82,"sys_id":1,"sys_cam_id":"1537036","pause":0,"date_type":2,"cam_kind":4,"own_cd":1537}},{"type":"Feature","geometry":{"type":"Point","coordinates":[140.290561,38.767904]},"properties":{"id":101537040,"name":"指首野川（西山橋付近）","name_kana":"","ofc_cd":82,"sys_id":1,"sys_cam_id":"1537040","pause":0,"date_type":2,"cam_kind":4,"own_cd":1537}},{"type":"Feature","geometry":{"type":"Point","coordinates":[140.3644978,38.8274104]},"properties":{"id":101537087,"name":"泉田川（仁田山橋付近）","name_kana":"","ofc_cd":82,"sys_id":1,"sys_cam_id":"1537087","pause":0,"date_type":2,"cam_kind":4,"own_cd":1537}},{"type":"Feature","geometry":{"type":"Point","coordinates":[140.20825833,38.72877222]},"properties":{"id":121054216,"name":"畑 (最上川 47.7k 左岸)","name_kana":"","ofc_cd":82,"sys_id":1,"sys_cam_id":"21054216","pause":0,"date_type":2,"cam_kind":4,"own_cd":21054}},{"type":"Feature","geometry":{"type":"Point","coordinates":[140.226688889,38.728075]},"properties":{"id":221054014,"name":"本合海","name_kana":"","ofc_cd":82,"sys_id":2,"sys_cam_id":"21054021","pause":0,"date_type":0,"cam_kind":2,"own_cd":21054}},{"type":"Feature","geometry":{"type":"Point","coordinates":[140.2768563,38.3726277]},"properties":{"id":101537018,"name":"沼川（幸田橋付近）","name_kana":"","ofc_cd":82,"sys_id":1,"sys_cam_id":"1537018","pause":0,"date_type":2,"cam_kind":4,"own_cd":1537}},{"type":"Feature","geometry":{"type":"Point","coordinates":[140.239632,38.369022]},"properties":{"id":121053183,"name":"中郷簡易カメラ","name_kana":"なかごうかんいかめら","ofc_cd":82,"sys_id":1,"sys_cam_id":"21053183","pause":0,"date_type":2,"cam_kind":4,"own_cd":21053}},{"type":"Feature","geometry":{"type":"Point","coordinates":[140.314616667,38.371444444]},"properties":{"id":221053020,"name":"沼川水門上流","name_kana":"","ofc_cd":82,"sys_id":2,"sys_cam_id":"21053012","pause":0,"date_type":0,"cam_kind":2,"own_cd":21053}},{"type":"Feature","geometry":{"type":"Point","coordinates":[140.314616667,38.371444444]},"properties":{"id":221053021,"name":"沼川合流点","name_kana":"","ofc_cd":82,"sys_id":2,"sys_cam_id":"21053017","pause":0,"date_type":0,"cam_kind":2,"own_cd":21053}},{"type":"Feature","geometry":{"type":"Point","coordinates":[140.283038889,38.342994444]},"properties":{"id":221053024,"name":"長崎水位観測所","name_kana":"","ofc_cd":82,"sys_id":2,"sys_cam_id":"21053015","pause":0,"date_type":0,"cam_kind":2,"own_cd":21053}},{"type":"Feature","geometry":{"type":"Point","coordinates":[140.277694444,38.346]},"properties":{"id":221053025,"name":"皿沼","name_kana":"","ofc_cd":82,"sys_id":2,"sys_cam_id":"21053056","pause":0,"date_type":0,"cam_kind":2,"own_cd":21053}},{"type":"Feature","geometry":{"type":"Point","coordinates":[140.268611111,38.4025]},"properties":{"id":221057022,"name":"道生","name_kana":"","ofc_cd":82,"sys_id":2,"sys_cam_id":"21057021","pause":0,"date_type":0,"cam_kind":2,"own_cd":21057}},{"type":"Feature","geometry":{"type":"Point","coordinates":[140.282916667,38.396805556]},"properties":{"id":221057023,"name":"寒河江川橋","name_kana":"","ofc_cd":82,"sys_id":2,"sys_cam_id":"21057022","pause":0,"date_type":0,"cam_kind":2,"own_cd":21057}},{"type":"Feature","geometry":{"type":"Point","coordinates":[140.238277778,38.408472222]},"properties":{"id":221057035,"name":"陣ヶ峯","name_kana":"","ofc_cd":82,"sys_id":2,"sys_cam_id":"21057035","pause":0,"date_type":0,"cam_kind":2,"own_cd":21057}},{"type":"Feature","geometry":{"type":"Point","coordinates":[140.306354,38.099273]},"properties":{"id":101537001,"name":"須川（嘉平橋付近）","name_kana":"","ofc_cd":82,"sys_id":1,"sys_cam_id":"1537001","pause":0,"date_type":2,"cam_kind":4,"own_cd":1537}},{"type":"Feature","geometry":{"type":"Point","coordinates":[140.282836,38.159295]},"properties":{"id":101537010,"name":"前川（喜多松橋付近）","name_kana":"","ofc_cd":82,"sys_id":1,"sys_cam_id":"1537010","pause":0,"date_type":2,"cam_kind":4,"own_cd":1537}},{"type":"Feature","geometry":{"type":"Point","coordinates":[140.281162,38.14637]},"properties":{"id":101537092,"name":"須川（東宮橋付近）","name_kana":"","ofc_cd":82,"sys_id":1,"sys_cam_id":"1537092","pause":0,"date_type":1,"cam_kind":4,"own_cd":1537}},{"type":"Feature","geometry":{"type":"Point","coordinates":[140.271018,38.149289]},"properties":{"id":101537095,"name":"前川（前川新橋付近）","name_kana":"","ofc_cd":82,"sys_id":1,"sys_cam_id":"1537095","pause":0,"date_type":1,"cam_kind":4,"own_cd":1537}},{"type":"Feature","geometry":{"type":"Point","coordinates":[140.336008,38.542829]},"properties":{"id":101537022,"name":"富並川（富並川橋付近）","name_kana":"","ofc_cd":82,"sys_id":1,"sys_cam_id":"1537022","pause":0,"date_type":2,"cam_kind":4,"own_cd":1537}},{"type":"Feature","geometry":{"type":"Point","coordinates":[140.396862,38.503076]},"properties":{"id":101537029,"name":"大旦川（大旦橋付近）","name_kana":"","ofc_cd":82,"sys_id":1,"sys_cam_id":"1537029","pause":0,"date_type":2,"cam_kind":4,"own_cd":1537}},{"type":"Feature","geometry":{"type":"Point","coordinates":[140.362229,38.480335]},"properties":{"id":101537031,"name":"大旦川（二ツ橋付近）","name_kana":"","ofc_cd":82,"sys_id":1,"sys_cam_id":"1537031","pause":0,"date_type":2,"cam_kind":4,"own_cd":1537}},{"type":"Feature","geometry":{"type":"Point","coordinates":[140.35402,38.516692]},"properties":{"id":121053179,"name":"大淀簡易カメラ","name_kana":"おおよどかんいかめら","ofc_cd":82,"sys_id":1,"sys_cam_id":"21053179","pause":0,"date_type":2,"cam_kind":4,"own_cd":21053}},{"type":"Feature","geometry":{"type":"Point","coordinates":[140.337027778,38.518538889]},"properties":{"id":221053001,"name":"三ヶ瀬橋","name_kana":"","ofc_cd":82,"sys_id":2,"sys_cam_id":"21053031","pause":0,"date_type":0,"cam_kind":2,"own_cd":21053}},{"type":"Feature","geometry":{"type":"Point","coordinates":[140.348933333,38.480602778]},"properties":{"id":221053002,"name":"稲下水位観測所","name_kana":"","ofc_cd":82,"sys_id":2,"sys_cam_id":"21053001","pause":0,"date_type":0,"cam_kind":2,"own_cd":21053}},{"type":"Feature","geometry":{"type":"Point","coordinates":[140.345058333,38.479166667]},"properties":{"id":221053003,"name":"大久保遊水地第一","name_kana":"","ofc_cd":82,"sys_id":2,"sys_cam_id":"21053003","pause":0,"date_type":0,"cam_kind":2,"own_cd":21053}},{"type":"Feature","geometry":{"type":"Point","coordinates":[140.350155556,38.476755556]},"properties":{"id":221053004,"name":"大久保管理所屋上","name_kana":"","ofc_cd":82,"sys_id":2,"sys_cam_id":"21053002","pause":0,"date_type":0,"cam_kind":2,"own_cd":21053}},{"type":"Feature","geometry":{"type":"Point","coordinates":[140.349569444,38.476402778]},"properties":{"id":221053005,"name":"大旦川合流点","name_kana":"","ofc_cd":82,"sys_id":2,"sys_cam_id":"21053007","pause":0,"date_type":0,"cam_kind":2,"own_cd":21053}},{"type":"Feature","geometry":{"type":"Point","coordinates":[140.338916667,38.464536111]},"properties":{"id":221053006,"name":"千座川合流点","name_kana":"","ofc_cd":82,"sys_id":2,"sys_cam_id":"21053032","pause":0,"date_type":0,"cam_kind":2,"own_cd":21053}},{"type":"Feature","geometry":{"type":"Point","coordinates":[140.339205556,38.462347222]},"properties":{"id":221053007,"name":"大久保遊水地第二外","name_kana":"","ofc_cd":82,"sys_id":2,"sys_cam_id":"21053004","pause":0,"date_type":0,"cam_kind":2,"own_cd":21053}},{"type":"Feature","geometry":{"type":"Point","coordinates":[140.339205556,38.462347222]},"properties":{"id":221053008,"name":"大久保遊水地第二","name_kana":"","ofc_cd":82,"sys_id":2,"sys_cam_id":"21053005","pause":0,"date_type":0,"cam_kind":2,"own_cd":21053}},{"type":"Feature","geometry":{"type":"Point","coordinates":[140.350394444,38.477419444]},"properties":{"id":221053060,"name":"大旦川排水除塵機","name_kana":"","ofc_cd":82,"sys_id":2,"sys_cam_id":"21053006","pause":0,"date_type":0,"cam_kind":2,"own_cd":21053}},{"type":"Feature","geometry":{"type":"Point","coordinates":[139.989429,38.098243]},"properties":{"id":101537058,"name":"置賜野川（平泉橋付近）","name_kana":"","ofc_cd":82,"sys_id":1,"sys_cam_id":"1537058","pause":0,"date_type":2,"cam_kind":4,"own_cd":1537}},{"type":"Feature","geometry":{"type":"Point","coordinates":[140.058539,38.070375]},"properties":{"id":121053196,"name":"河井山簡易カメラ","name_kana":"かわいやまかんいかめら","ofc_cd":82,"sys_id":1,"sys_cam_id":"21053196","pause":0,"date_type":2,"cam_kind":4,"own_cd":21053}},{"type":"Feature","geometry":{"type":"Point","coordinates":[140.048144444,38.116561111]},"properties":{"id":221053033,"name":"小出水位観測所","name_kana":"","ofc_cd":82,"sys_id":2,"sys_cam_id":"21053026","pause":0,"date_type":0,"cam_kind":2,"own_cd":21053}},{"type":"Feature","geometry":{"type":"Point","coordinates":[140.041861111,38.095166667]},"properties":{"id":221053034,"name":"さくら大橋","name_kana":"","ofc_cd":82,"sys_id":2,"sys_cam_id":"21053029","pause":0,"date_type":0,"cam_kind":2,"own_cd":21053}},{"type":"Feature","geometry":{"type":"Point","coordinates":[140.045,38.081111111]},"properties":{"id":221053035,"name":"置賜白川合流点","name_kana":"","ofc_cd":82,"sys_id":2,"sys_cam_id":"21053040","pause":0,"date_type":0,"cam_kind":2,"own_cd":21053}},{"type":"Feature","geometry":{"type":"Point","coordinates":[139.954766667,38.102133333]},"properties":{"id":221057003,"name":"長井ダム　堤体右岸","name_kana":"","ofc_cd":82,"sys_id":2,"sys_cam_id":"21057028","pause":0,"date_type":0,"cam_kind":2,"own_cd":21057}},{"type":"Feature","geometry":{"type":"Point","coordinates":[139.95915,38.101283333]},"properties":{"id":221057029,"name":"長井ダム　堤体左岸","name_kana":"","ofc_cd":82,"sys_id":2,"sys_cam_id":"21057029","pause":0,"date_type":0,"cam_kind":2,"own_cd":21057}},{"type":"Feature","geometry":{"type":"Point","coordinates":[139.95745,38.099216667]},"properties":{"id":221057030,"name":"長井ダム　堤体下流","name_kana":"","ofc_cd":82,"sys_id":2,"sys_cam_id":"21057030","pause":0,"date_type":0,"cam_kind":2,"own_cd":21057}},{"type":"Feature","geometry":{"type":"Point","coordinates":[139.9335,38.118283333]},"properties":{"id":221057031,"name":"長井ダム　合地沢","name_kana":"","ofc_cd":82,"sys_id":2,"sys_cam_id":"21057031","pause":0,"date_type":0,"cam_kind":2,"own_cd":21057}},{"type":"Feature","geometry":{"type":"Point","coordinates":[139.980216667,38.095366667]},"properties":{"id":221057032,"name":"長井ダム　平山","name_kana":"","ofc_cd":82,"sys_id":2,"sys_cam_id":"21057032","pause":0,"date_type":0,"cam_kind":2,"own_cd":21057}},{"type":"Feature","geometry":{"type":"Point","coordinates":[140.027,38.1155]},"properties":{"id":221057033,"name":"長井ダム　谷地橋","name_kana":"","ofc_cd":82,"sys_id":2,"sys_cam_id":"21057033","pause":0,"date_type":0,"cam_kind":2,"own_cd":21057}},{"type":"Feature","geometry":{"type":"Point","coordinates":[140.048166667,38.124783333]},"properties":{"id":221057034,"name":"長井ダム　置賜野川合流点","name_kana":"","ofc_cd":82,"sys_id":2,"sys_cam_id":"21057034","pause":0,"date_type":0,"cam_kind":2,"own_cd":21057}},{"type":"Feature","geometry":{"type":"Point","coordinates":[139.9519,38.106083333]},"properties":{"id":221057036,"name":"長井ダム　竜神大橋","name_kana":"","ofc_cd":82,"sys_id":2,"sys_cam_id":"21057036","pause":0,"date_type":0,"cam_kind":2,"own_cd":21057}},{"type":"Feature","geometry":{"type":"Point","coordinates":[140.404748,38.382365]},"properties":{"id":101537007,"name":"押切川（新原崎橋付近）","name_kana":"","ofc_cd":82,"sys_id":1,"sys_cam_id":"1537007","pause":0,"date_type":2,"cam_kind":4,"own_cd":1537}},{"type":"Feature","geometry":{"type":"Point","coordinates":[140.36871,38.362118]},"properties":{"id":101537008,"name":"倉津川（みどり橋付近）","name_kana":"","ofc_cd":82,"sys_id":1,"sys_cam_id":"1537008","pause":0,"date_type":2,"cam_kind":4,"own_cd":1537}},{"type":"Feature","geometry":{"type":"Point","coordinates":[140.417968,38.39235]},"properties":{"id":101537009,"name":"乱川（本郷橋付近）","name_kana":"","ofc_cd":82,"sys_id":1,"sys_cam_id":"1537009","pause":0,"date_type":2,"cam_kind":4,"own_cd":1537}},{"type":"Feature","geometry":{"type":"Point","coordinates":[140.34884,38.394617]},"properties":{"id":101537011,"name":"乱川（中乱川橋付近）","name_kana":"","ofc_cd":82,"sys_id":1,"sys_cam_id":"1537011","pause":0,"date_type":2,"cam_kind":4,"own_cd":1537}},{"type":"Feature","geometry":{"type":"Point","coordinates":[140.348325,38.324218]},"properties":{"id":101537012,"name":"立谷川（立谷川橋付近）","name_kana":"","ofc_cd":82,"sys_id":1,"sys_cam_id":"1537012","pause":0,"date_type":2,"cam_kind":4,"own_cd":1537}},{"type":"Feature","geometry":{"type":"Point","coordinates":[140.343347,38.371069]},"properties":{"id":101537015,"name":"倉津川（上宿橋付近）","name_kana":"","ofc_cd":82,"sys_id":1,"sys_cam_id":"1537015","pause":0,"date_type":2,"cam_kind":4,"own_cd":1537}},{"type":"Feature","geometry":{"type":"Point","coordinates":[140.3195176,38.3700546]},"properties":{"id":121053182,"name":"蔵増簡易カメラ","name_kana":"くらぞうかんいかめら","ofc_cd":82,"sys_id":1,"sys_cam_id":"21053182","pause":0,"date_type":2,"cam_kind":4,"own_cd":21053}},{"type":"Feature","geometry":{"type":"Point","coordinates":[140.329758333,38.395477778]},"properties":{"id":221053017,"name":"今町排水樋管","name_kana":"","ofc_cd":82,"sys_id":2,"sys_cam_id":"21053011","pause":0,"date_type":0,"cam_kind":2,"own_cd":21053}},{"type":"Feature","geometry":{"type":"Point","coordinates":[140.328519444,38.375180556]},"properties":{"id":221053019,"name":"樽川排水樋門","name_kana":"","ofc_cd":82,"sys_id":2,"sys_cam_id":"21053035","pause":0,"date_type":0,"cam_kind":2,"own_cd":21053}},{"type":"Feature","geometry":{"type":"Point","coordinates":[140.311111111,38.343611111]},"properties":{"id":221053047,"name":"落合橋","name_kana":"","ofc_cd":82,"sys_id":2,"sys_cam_id":"21053044","pause":0,"date_type":0,"cam_kind":2,"own_cd":21053}},{"type":"Feature","geometry":{"type":"Point","coordinates":[140.478787,38.413551]},"properties":{"id":101537019,"name":"乱川（養老橋付近）","name_kana":"","ofc_cd":82,"sys_id":1,"sys_cam_id":"1537019","pause":0,"date_type":2,"cam_kind":4,"own_cd":1537}},{"type":"Feature","geometry":{"type":"Point","coordinates":[140.380726,38.420915]},"properties":{"id":101537020,"name":"村山野川（野川橋付近）","name_kana":"","ofc_cd":82,"sys_id":1,"sys_cam_id":"1537020","pause":0,"date_type":2,"cam_kind":4,"own_cd":1537}},{"type":"Feature","geometry":{"type":"Point","coordinates":[140.368023,38.447405]},"properties":{"id":101537021,"name":"白水川（蟹沢橋付近）","name_kana":"","ofc_cd":82,"sys_id":1,"sys_cam_id":"1537021","pause":0,"date_type":2,"cam_kind":4,"own_cd":1537}},{"type":"Feature","geometry":{"type":"Point","coordinates":[140.400939,38.438565]},"properties":{"id":101537028,"name":"日塔川（柳町一本橋付近）","name_kana":"","ofc_cd":82,"sys_id":1,"sys_cam_id":"1537028","pause":0,"date_type":2,"cam_kind":4,"own_cd":1537}},{"type":"Feature","geometry":{"type":"Point","coordinates":[140.4015864,38.4372402]},"properties":{"id":101537032,"name":"白水川（源氏坂橋付近）","name_kana":"","ofc_cd":82,"sys_id":1,"sys_cam_id":"1537032","pause":0,"date_type":2,"cam_kind":4,"own_cd":1537}},{"type":"Feature","geometry":{"type":"Point","coordinates":[140.381262,38.445573]},"properties":{"id":101537033,"name":"白水川（新白水川橋付近）","name_kana":"","ofc_cd":82,"sys_id":1,"sys_cam_id":"1537033","pause":0,"date_type":2,"cam_kind":4,"own_cd":1537}},{"type":"Feature","geometry":{"type":"Point","coordinates":[140.350266,38.425157]},"properties":{"id":121053188,"name":"村山野川簡易カメラ","name_kana":"むらやまのがわかんいかめら","ofc_cd":82,"sys_id":1,"sys_cam_id":"21053188","pause":0,"date_type":2,"cam_kind":4,"own_cd":21053}},{"type":"Feature","geometry":{"type":"Point","coordinates":[140.346413889,38.427733333]},"properties":{"id":221053056,"name":"荷口川合流点","name_kana":"","ofc_cd":82,"sys_id":2,"sys_cam_id":"21053050","pause":0,"date_type":0,"cam_kind":2,"own_cd":21053}},{"type":"Feature","geometry":{"type":"Point","coordinates":[140.401025,38.594401]},"properties":{"id":101537023,"name":"朧気川（朧気橋付近）","name_kana":"","ofc_cd":82,"sys_id":1,"sys_cam_id":"1537023","pause":0,"date_type":2,"cam_kind":4,"own_cd":1537}},{"type":"Feature","geometry":{"type":"Point","coordinates":[140.4951841,38.5962106]},"properties":{"id":101537024,"name":"丹生川（母袋橋付近）","name_kana":"","ofc_cd":82,"sys_id":1,"sys_cam_id":"1537024","pause":0,"date_type":2,"cam_kind":4,"own_cd":1537}},{"type":"Feature","geometry":{"type":"Point","coordinates":[140.475787,38.6154598]},"properties":{"id":101537025,"name":"丹生川（行沢橋付近）","name_kana":"","ofc_cd":82,"sys_id":1,"sys_cam_id":"1537025","pause":0,"date_type":2,"cam_kind":4,"own_cd":1537}},{"type":"Feature","geometry":{"type":"Point","coordinates":[140.382142,38.633701]},"properties":{"id":101537027,"name":"野尻川（野尻川橋付近）","name_kana":"","ofc_cd":82,"sys_id":1,"sys_cam_id":"1537027","pause":0,"date_type":2,"cam_kind":4,"own_cd":1537}},{"type":"Feature","geometry":{"type":"Point","coordinates":[140.45006,38.6147218]},"properties":{"id":101537030,"name":"丹生川（萱刈畑橋付近）","name_kana":"","ofc_cd":82,"sys_id":1,"sys_cam_id":"1537030","pause":0,"date_type":2,"cam_kind":4,"own_cd":1537}},{"type":"Feature","geometry":{"type":"Point","coordinates":[140.32921666,38.66277499]},"properties":{"id":121054205,"name":"毒沢 (最上川 69.9k 左岸)","name_kana":"どくさわ","ofc_cd":82,"sys_id":1,"sys_cam_id":"21054205","pause":0,"date_type":2,"cam_kind":4,"own_cd":21054}},{"type":"Feature","geometry":{"type":"Point","coordinates":[140.3434472,38.6560056]},"properties":{"id":121054231,"name":"大向 (最上川 74.1k 左岸)","name_kana":"","ofc_cd":82,"sys_id":1,"sys_cam_id":"21054231","pause":0,"date_type":2,"cam_kind":4,"own_cd":21054}},{"type":"Feature","geometry":{"type":"Point","coordinates":[140.34585,38.659175]},"properties":{"id":221054008,"name":"名木沢消流雪","name_kana":"","ofc_cd":82,"sys_id":2,"sys_cam_id":"21054014","pause":0,"date_type":0,"cam_kind":2,"own_cd":21054}},{"type":"Feature","geometry":{"type":"Point","coordinates":[140.158854,38.052315]},"properties":{"id":101537050,"name":"吉野川（花見橋付近）","name_kana":"","ofc_cd":82,"sys_id":1,"sys_cam_id":"1537050","pause":0,"date_type":2,"cam_kind":4,"own_cd":1537}},{"type":"Feature","geometry":{"type":"Point","coordinates":[140.1719776,38.1497519]},"properties":{"id":101537051,"name":"吉野川（長畑橋付近）","name_kana":"","ofc_cd":82,"sys_id":1,"sys_cam_id":"1537051","pause":0,"date_type":2,"cam_kind":4,"own_cd":1537}},{"type":"Feature","geometry":{"type":"Point","coordinates":[140.122848,38.070511]},"properties":{"id":101537056,"name":"織機川（織機橋付近）","name_kana":"","ofc_cd":82,"sys_id":1,"sys_cam_id":"1537056","pause":0,"date_type":2,"cam_kind":4,"own_cd":1537}},{"type":"Feature","geometry":{"type":"Point","coordinates":[140.210309,38.096977]},"properties":{"id":101537094,"name":"前川（南陽市小岩沢付近）","name_kana":"","ofc_cd":82,"sys_id":1,"sys_cam_id":"1537094","pause":0,"date_type":1,"cam_kind":4,"own_cd":1537}},{"type":"Feature","geometry":{"type":"Point","coordinates":[140.084306,38.047445]},"properties":{"id":121053185,"name":"梨郷簡易カメラ","name_kana":"りんごうかんいかめら","ofc_cd":82,"sys_id":1,"sys_cam_id":"21053185","pause":0,"date_type":2,"cam_kind":4,"own_cd":21053}},{"type":"Feature","geometry":{"type":"Point","coordinates":[140.119291667,38.024013889]},"properties":{"id":221053040,"name":"淞郷堰","name_kana":"","ofc_cd":82,"sys_id":2,"sys_cam_id":"21053022","pause":0,"date_type":0,"cam_kind":2,"own_cd":21053}},{"type":"Feature","geometry":{"type":"Point","coordinates":[140.262564,38.30424]},"properties":{"id":101537013,"name":"小鶴沢川（小鶴沢橋付近）","name_kana":"","ofc_cd":82,"sys_id":1,"sys_cam_id":"1537013","pause":0,"date_type":2,"cam_kind":4,"own_cd":1537}},{"type":"Feature","geometry":{"type":"Point","coordinates":[140.2765,38.27925]},"properties":{"id":221053053,"name":"三河橋","name_kana":"","ofc_cd":82,"sys_id":2,"sys_cam_id":"21053060","pause":0,"date_type":0,"cam_kind":2,"own_cd":21053}},{"type":"Feature","geometry":{"type":"Point","coordinates":[140.264554,38.328696]},"properties":{"id":101537014,"name":"石子沢川（柳沢１号橋付近）","name_kana":"","ofc_cd":82,"sys_id":1,"sys_cam_id":"1537014","pause":0,"date_type":2,"cam_kind":4,"own_cd":1537}},{"type":"Feature","geometry":{"type":"Point","coordinates":[140.3007901,38.317938]},"properties":{"id":121053186,"name":"中野簡易カメラ","name_kana":"なかのかんいかめら","ofc_cd":82,"sys_id":1,"sys_cam_id":"21053186","pause":0,"date_type":2,"cam_kind":4,"own_cd":21053}},{"type":"Feature","geometry":{"type":"Point","coordinates":[140.2797757,38.3355605]},"properties":{"id":121053189,"name":"石子沢川簡易カメラ","name_kana":"いしこざわがわかんいかめら","ofc_cd":82,"sys_id":1,"sys_cam_id":"21053189","pause":0,"date_type":2,"cam_kind":4,"own_cd":21053}},{"type":"Feature","geometry":{"type":"Point","coordinates":[140.299566667,38.348197222]},"properties":{"id":221053022,"name":"須川合流点","name_kana":"","ofc_cd":82,"sys_id":2,"sys_cam_id":"21053013","pause":0,"date_type":0,"cam_kind":2,"own_cd":21053}},{"type":"Feature","geometry":{"type":"Point","coordinates":[140.286961111,38.338736111]},"properties":{"id":221053023,"name":"石子沢川合流点","name_kana":"","ofc_cd":82,"sys_id":2,"sys_cam_id":"21053014","pause":0,"date_type":0,"cam_kind":2,"own_cd":21053}},{"type":"Feature","geometry":{"type":"Point","coordinates":[140.346413889,38.427733333]},"properties":{"id":221053057,"name":"荷口川排水樋門","name_kana":"","ofc_cd":82,"sys_id":2,"sys_cam_id":"21053052","pause":0,"date_type":0,"cam_kind":2,"own_cd":21053}},{"type":"Feature","geometry":{"type":"Point","coordinates":[140.286388889,38.337777778]},"properties":{"id":221053058,"name":"石子沢川","name_kana":"","ofc_cd":82,"sys_id":2,"sys_cam_id":"21053053","pause":0,"date_type":0,"cam_kind":2,"own_cd":21053}},{"type":"Feature","geometry":{"type":"Point","coordinates":[140.3308023,38.4363049]},"properties":{"id":121053180,"name":"谷地簡易カメラ","name_kana":"やちかんいかめら","ofc_cd":82,"sys_id":1,"sys_cam_id":"21053180","pause":0,"date_type":2,"cam_kind":4,"own_cd":21053}},{"type":"Feature","geometry":{"type":"Point","coordinates":[140.345069444,38.454991667]},"properties":{"id":221053009,"name":"荒小屋","name_kana":"","ofc_cd":82,"sys_id":2,"sys_cam_id":"21053033","pause":0,"date_type":0,"cam_kind":2,"own_cd":21053}},{"type":"Feature","geometry":{"type":"Point","coordinates":[140.335991667,38.45035]},"properties":{"id":221053010,"name":"新田川合流点","name_kana":"","ofc_cd":82,"sys_id":2,"sys_cam_id":"21053016","pause":0,"date_type":0,"cam_kind":2,"own_cd":21053}},{"type":"Feature","geometry":{"type":"Point","coordinates":[140.335991667,38.45035]},"properties":{"id":221053011,"name":"新田川排水門上流","name_kana":"","ofc_cd":82,"sys_id":2,"sys_cam_id":"21053051","pause":0,"date_type":0,"cam_kind":2,"own_cd":21053}},{"type":"Feature","geometry":{"type":"Point","coordinates":[140.325558333,38.446366667]},"properties":{"id":221053012,"name":"法師川合流点","name_kana":"","ofc_cd":82,"sys_id":2,"sys_cam_id":"21053054","pause":0,"date_type":0,"cam_kind":2,"own_cd":21053}},{"type":"Feature","geometry":{"type":"Point","coordinates":[140.326091667,38.422736111]},"properties":{"id":221053013,"name":"渋川合流点","name_kana":"しぶかわごうりゅうてん","ofc_cd":82,"sys_id":2,"sys_cam_id":"21053008","pause":0,"date_type":0,"cam_kind":2,"own_cd":21053}},{"type":"Feature","geometry":{"type":"Point","coordinates":[140.326363889,38.421033333]},"properties":{"id":221053014,"name":"下野水位観測所","name_kana":"","ofc_cd":82,"sys_id":2,"sys_cam_id":"21053009","pause":0,"date_type":0,"cam_kind":2,"own_cd":21053}},{"type":"Feature","geometry":{"type":"Point","coordinates":[140.334786111,38.413427778]},"properties":{"id":221053015,"name":"谷地橋","name_kana":"","ofc_cd":82,"sys_id":2,"sys_cam_id":"21053010","pause":0,"date_type":0,"cam_kind":2,"own_cd":21053}},{"type":"Feature","geometry":{"type":"Point","coordinates":[140.328894444,38.413205556]},"properties":{"id":221053016,"name":"河北河川公園","name_kana":"","ofc_cd":82,"sys_id":2,"sys_cam_id":"21053055","pause":0,"date_type":0,"cam_kind":2,"own_cd":21053}},{"type":"Feature","geometry":{"type":"Point","coordinates":[140.320663889,38.378583333]},"properties":{"id":221053018,"name":"寒河江川合流点","name_kana":"","ofc_cd":82,"sys_id":2,"sys_cam_id":"21053034","pause":0,"date_type":0,"cam_kind":2,"own_cd":21053}},{"type":"Feature","geometry":{"type":"Point","coordinates":[140.306111111,38.389166667]},"properties":{"id":221057024,"name":"溝延橋","name_kana":"","ofc_cd":82,"sys_id":2,"sys_cam_id":"21057023","pause":0,"date_type":0,"cam_kind":2,"own_cd":21057}},{"type":"Feature","geometry":{"type":"Point","coordinates":[139.971130556,38.391113889]},"properties":{"id":221054055,"name":"大井沢第２砂防堰堤","name_kana":"","ofc_cd":82,"sys_id":2,"sys_cam_id":"21054055","pause":0,"date_type":0,"cam_kind":2,"own_cd":21054}},{"type":"Feature","geometry":{"type":"Point","coordinates":[139.954169444,38.33195]},"properties":{"id":221054056,"name":"根子川第２砂防堰堤","name_kana":"","ofc_cd":82,"sys_id":2,"sys_cam_id":"21054056","pause":0,"date_type":0,"cam_kind":2,"own_cd":21054}},{"type":"Feature","geometry":{"type":"Point","coordinates":[140.032,38.456138889]},"properties":{"id":221057002,"name":"管理所屋上","name_kana":"","ofc_cd":82,"sys_id":2,"sys_cam_id":"21057004","pause":0,"date_type":0,"cam_kind":2,"own_cd":21057}},{"type":"Feature","geometry":{"type":"Point","coordinates":[140.040277778,38.453333333]},"properties":{"id":221057004,"name":"洪水吐右岸導流壁","name_kana":"","ofc_cd":82,"sys_id":2,"sys_cam_id":"21057001","pause":0,"date_type":0,"cam_kind":2,"own_cd":21057}},{"type":"Feature","geometry":{"type":"Point","coordinates":[140.044444444,38.453055556]},"properties":{"id":221057005,"name":"洪水吐左岸下流","name_kana":"","ofc_cd":82,"sys_id":2,"sys_cam_id":"21057002","pause":0,"date_type":0,"cam_kind":2,"own_cd":21057}},{"type":"Feature","geometry":{"type":"Point","coordinates":[140.039166667,38.453055556]},"properties":{"id":221057006,"name":"洪水吐右岸上流","name_kana":"","ofc_cd":82,"sys_id":2,"sys_cam_id":"21057003","pause":0,"date_type":0,"cam_kind":2,"own_cd":21057}},{"type":"Feature","geometry":{"type":"Point","coordinates":[140.044722222,38.457777778]},"properties":{"id":221057007,"name":"フィル堤体左岸下流","name_kana":"","ofc_cd":82,"sys_id":2,"sys_cam_id":"21057005","pause":0,"date_type":0,"cam_kind":2,"own_cd":21057}},{"type":"Feature","geometry":{"type":"Point","coordinates":[140.035833333,38.4525]},"properties":{"id":221057008,"name":"選択取水塔","name_kana":"","ofc_cd":82,"sys_id":2,"sys_cam_id":"21057006","pause":0,"date_type":0,"cam_kind":2,"own_cd":21057}},{"type":"Feature","geometry":{"type":"Point","coordinates":[140.053611111,38.449166667]},"properties":{"id":221057009,"name":"月岡橋","name_kana":"","ofc_cd":82,"sys_id":2,"sys_cam_id":"21057007","pause":0,"date_type":0,"cam_kind":2,"own_cd":21057}},{"type":"Feature","geometry":{"type":"Point","coordinates":[140.058888889,38.450833333]},"properties":{"id":221057010,"name":"本道寺","name_kana":"","ofc_cd":82,"sys_id":2,"sys_cam_id":"21057008","pause":0,"date_type":0,"cam_kind":2,"own_cd":21057}},{"type":"Feature","geometry":{"type":"Point","coordinates":[140.016527778,38.455888889]},"properties":{"id":221057025,"name":"一本木","name_kana":"","ofc_cd":82,"sys_id":2,"sys_cam_id":"21057024","pause":0,"date_type":0,"cam_kind":2,"own_cd":21057}},{"type":"Feature","geometry":{"type":"Point","coordinates":[139.995722222,38.392666667]},"properties":{"id":221057026,"name":"中村","name_kana":"","ofc_cd":82,"sys_id":2,"sys_cam_id":"21057025","pause":0,"date_type":0,"cam_kind":2,"own_cd":21057}},{"type":"Feature","geometry":{"type":"Point","coordinates":[140.179055556,38.417555556]},"properties":{"id":221057027,"name":"睦合","name_kana":"","ofc_cd":82,"sys_id":2,"sys_cam_id":"21057026","pause":0,"date_type":0,"cam_kind":2,"own_cd":21057}},{"type":"Feature","geometry":{"type":"Point","coordinates":[140.136666667,38.304166667]},"properties":{"id":221053027,"name":"五百川橋","name_kana":"","ofc_cd":82,"sys_id":2,"sys_cam_id":"21053037","pause":0,"date_type":0,"cam_kind":2,"own_cd":21053}},{"type":"Feature","geometry":{"type":"Point","coordinates":[140.134686111,38.297561111]},"properties":{"id":221053028,"name":"助の巻","name_kana":"","ofc_cd":82,"sys_id":2,"sys_cam_id":"21053038","pause":0,"date_type":0,"cam_kind":2,"own_cd":21053}},{"type":"Feature","geometry":{"type":"Point","coordinates":[140.104166667,38.255]},"properties":{"id":221053029,"name":"大船木","name_kana":"","ofc_cd":82,"sys_id":2,"sys_cam_id":"21053039","pause":0,"date_type":0,"cam_kind":2,"own_cd":21053}},{"type":"Feature","geometry":{"type":"Point","coordinates":[140.205991,38.375661]},"properties":{"id":101537017,"name":"市の沢川（市の沢川樋門付近）","name_kana":"","ofc_cd":82,"sys_id":1,"sys_cam_id":"1537017","pause":0,"date_type":2,"cam_kind":4,"own_cd":1537}},{"type":"Feature","geometry":{"type":"Point","coordinates":[140.213611111,38.384444444]},"properties":{"id":221053026,"name":"最上橋","name_kana":"","ofc_cd":82,"sys_id":2,"sys_cam_id":"21053036","pause":0,"date_type":0,"cam_kind":2,"own_cd":21053}},{"type":"Feature","geometry":{"type":"Point","coordinates":[140.374975,38.605201]},"properties":{"id":101537026,"name":"丹生川（丹生川大橋付近）","name_kana":"","ofc_cd":82,"sys_id":1,"sys_cam_id":"1537026","pause":0,"date_type":2,"cam_kind":4,"own_cd":1537}},{"type":"Feature","geometry":{"type":"Point","coordinates":[140.35644722,38.59530277]},"properties":{"id":121054197,"name":"黒滝 (最上川 84.7k 左岸)","name_kana":"くろたき","ofc_cd":82,"sys_id":1,"sys_cam_id":"21054197","pause":0,"date_type":2,"cam_kind":4,"own_cd":21054}},{"type":"Feature","geometry":{"type":"Point","coordinates":[140.33783888,38.625325]},"properties":{"id":121054207,"name":"駒籠 (最上川 80.1k 右岸)","name_kana":"こまごめ","ofc_cd":82,"sys_id":1,"sys_cam_id":"21054207","pause":0,"date_type":2,"cam_kind":4,"own_cd":21054}},{"type":"Feature","geometry":{"type":"Point","coordinates":[140.36214444,38.59289722]},"properties":{"id":121054208,"name":"大石田 (最上川 85.5k 右岸)","name_kana":"おおいしだ ","ofc_cd":82,"sys_id":1,"sys_cam_id":"21054208","pause":0,"date_type":2,"cam_kind":4,"own_cd":21054}},{"type":"Feature","geometry":{"type":"Point","coordinates":[140.36608055,38.60403611]},"properties":{"id":121054209,"name":"豊田 (丹生川 1.40k 左岸)","name_kana":"とよだ","ofc_cd":82,"sys_id":1,"sys_cam_id":"21054209","pause":0,"date_type":2,"cam_kind":4,"own_cd":21054}},{"type":"Feature","geometry":{"type":"Point","coordinates":[140.35826666,38.58818055]},"properties":{"id":121054221,"name":"横山 (最上川 85.5k 左岸)","name_kana":"よこやま","ofc_cd":82,"sys_id":1,"sys_cam_id":"21054221","pause":0,"date_type":2,"cam_kind":4,"own_cd":21054}},{"type":"Feature","geometry":{"type":"Point","coordinates":[140.35205833,38.60916388]},"properties":{"id":121054232,"name":"豊田 (最上川 82.7k 右岸)","name_kana":"とよだ","ofc_cd":82,"sys_id":1,"sys_cam_id":"21054232","pause":0,"date_type":2,"cam_kind":4,"own_cd":21054}},{"type":"Feature","geometry":{"type":"Point","coordinates":[140.382502778,38.582788889]},"properties":{"id":221054001,"name":"大石田出張所","name_kana":"","ofc_cd":82,"sys_id":2,"sys_cam_id":"21054001","pause":0,"date_type":0,"cam_kind":2,"own_cd":21054}},{"type":"Feature","geometry":{"type":"Point","coordinates":[140.363888889,38.587227778]},"properties":{"id":221054002,"name":"横山第４排水樋管","name_kana":"","ofc_cd":82,"sys_id":2,"sys_cam_id":"21054002","pause":0,"date_type":0,"cam_kind":2,"own_cd":21054}},{"type":"Feature","geometry":{"type":"Point","coordinates":[140.354183333,38.610025]},"properties":{"id":221054003,"name":"豊田第２排水樋管","name_kana":"","ofc_cd":82,"sys_id":2,"sys_cam_id":"21054003","pause":0,"date_type":0,"cam_kind":2,"own_cd":21054}},{"type":"Feature","geometry":{"type":"Point","coordinates":[140.346122222,38.621138889]},"properties":{"id":221054004,"name":"川前第２排水樋管","name_kana":"","ofc_cd":82,"sys_id":2,"sys_cam_id":"21054008","pause":0,"date_type":0,"cam_kind":2,"own_cd":21054}},{"type":"Feature","geometry":{"type":"Point","coordinates":[140.330011111,38.627777778]},"properties":{"id":221054005,"name":"大浦第１排水樋管","name_kana":"","ofc_cd":82,"sys_id":2,"sys_cam_id":"21054009","pause":0,"date_type":0,"cam_kind":2,"own_cd":21054}},{"type":"Feature","geometry":{"type":"Point","coordinates":[140.373352778,38.585558333]},"properties":{"id":221054006,"name":"横山第２排水樋管","name_kana":"","ofc_cd":82,"sys_id":2,"sys_cam_id":"21054010","pause":0,"date_type":0,"cam_kind":2,"own_cd":21054}},{"type":"Feature","geometry":{"type":"Point","coordinates":[140.334592,38.884452]},"properties":{"id":101537037,"name":"金山川（金山中付近）","name_kana":"","ofc_cd":82,"sys_id":1,"sys_cam_id":"1537037","pause":0,"date_type":2,"cam_kind":4,"own_cd":1537}},{"type":"Feature","geometry":{"type":"Point","coordinates":[140.3437731,38.8559706]},"properties":{"id":101537038,"name":"上台川（下野明橋付近）","name_kana":"","ofc_cd":82,"sys_id":1,"sys_cam_id":"1537038","pause":0,"date_type":2,"cam_kind":4,"own_cd":1537}},{"type":"Feature","geometry":{"type":"Point","coordinates":[140.30571111,38.85305]},"properties":{"id":121054202,"name":"三枝 (金山川 5.2k 右岸)","name_kana":"さんし","ofc_cd":82,"sys_id":1,"sys_cam_id":"21054202","pause":0,"date_type":2,"cam_kind":4,"own_cd":21054}},{"type":"Feature","geometry":{"type":"Point","coordinates":[140.4160147,38.7549853]},"properties":{"id":101537034,"name":"最上小国川（義経大橋付近）","name_kana":"","ofc_cd":82,"sys_id":1,"sys_cam_id":"1537034","pause":0,"date_type":2,"cam_kind":4,"own_cd":1537}},{"type":"Feature","geometry":{"type":"Point","coordinates":[140.554233,38.710295]},"properties":{"id":101537096,"name":"最上小国川（赤倉温泉付近）","name_kana":"","ofc_cd":82,"sys_id":1,"sys_cam_id":"1537096","pause":0,"date_type":2,"cam_kind":4,"own_cd":1537}},{"type":"Feature","geometry":{"type":"Point","coordinates":[140.3295567,38.6957572]},"properties":{"id":101537042,"name":"最上小国川（舟形小付近）","name_kana":"","ofc_cd":82,"sys_id":1,"sys_cam_id":"1537042","pause":0,"date_type":2,"cam_kind":4,"own_cd":1537}},{"type":"Feature","geometry":{"type":"Point","coordinates":[140.26638611,38.67059722]},"properties":{"id":121054218,"name":"本堀内 (最上川 60.5k 左岸)","name_kana":"","ofc_cd":82,"sys_id":1,"sys_cam_id":"21054218","pause":0,"date_type":2,"cam_kind":4,"own_cd":21054}},{"type":"Feature","geometry":{"type":"Point","coordinates":[140.27291111,38.66429444]},"properties":{"id":121054219,"name":"堀内 (最上川 61.3k 左岸)","name_kana":"ほりのうち","ofc_cd":82,"sys_id":1,"sys_cam_id":"21054219","pause":0,"date_type":2,"cam_kind":4,"own_cd":21054}},{"type":"Feature","geometry":{"type":"Point","coordinates":[140.27324722,38.68358333]},"properties":{"id":121054230,"name":"富田 (最上小国川 1.8k 左岸)","name_kana":"","ofc_cd":82,"sys_id":1,"sys_cam_id":"21054230","pause":0,"date_type":2,"cam_kind":4,"own_cd":21054}},{"type":"Feature","geometry":{"type":"Point","coordinates":[140.2561879,38.9017694]},"properties":{"id":101537041,"name":"真室川（真室川町川ノ内）","name_kana":"","ofc_cd":82,"sys_id":1,"sys_cam_id":"1537041","pause":0,"date_type":2,"cam_kind":4,"own_cd":1537}},{"type":"Feature","geometry":{"type":"Point","coordinates":[140.2161361,38.8861655]},"properties":{"id":101537088,"name":"鮭川（大沢橋付近）","name_kana":"","ofc_cd":82,"sys_id":1,"sys_cam_id":"1537088","pause":0,"date_type":2,"cam_kind":4,"own_cd":1537}},{"type":"Feature","geometry":{"type":"Point","coordinates":[140.2534194,38.86786111]},"properties":{"id":121054201,"name":"高沢 (真室川 4.0k 右岸)","name_kana":"たかさわ ","ofc_cd":82,"sys_id":1,"sys_cam_id":"21054201","pause":0,"date_type":2,"cam_kind":4,"own_cd":21054}},{"type":"Feature","geometry":{"type":"Point","coordinates":[140.25432777,38.86211111]},"properties":{"id":121054212,"name":"安久土 (金山川 0.0k 右岸)","name_kana":"あくど","ofc_cd":82,"sys_id":1,"sys_cam_id":"21054212","pause":0,"date_type":2,"cam_kind":4,"own_cd":21054}},{"type":"Feature","geometry":{"type":"Point","coordinates":[140.25984722,38.86256944]},"properties":{"id":121054213,"name":"平岡 (金山川 0.6k 左岸)","name_kana":"ひらおか","ofc_cd":82,"sys_id":1,"sys_cam_id":"21054213","pause":0,"date_type":2,"cam_kind":4,"own_cd":21054}},{"type":"Feature","geometry":{"type":"Point","coordinates":[140.28275,38.86450555]},"properties":{"id":121054215,"name":"平岡橋 (金山川 2.6k 左岸)","name_kana":"ひらおかばし","ofc_cd":82,"sys_id":1,"sys_cam_id":"21054215","pause":0,"date_type":2,"cam_kind":4,"own_cd":21054}},{"type":"Feature","geometry":{"type":"Point","coordinates":[140.2457222,38.85339722]},"properties":{"id":121054220,"name":"真室川第二排水樋管（真室川2.0k 左岸）","name_kana":"まむろがわだいにはいすいひかん","ofc_cd":82,"sys_id":1,"sys_cam_id":"21054220","pause":0,"date_type":2,"cam_kind":4,"own_cd":21054}},{"type":"Feature","geometry":{"type":"Point","coordinates":[140.24238055,38.84205277]},"properties":{"id":121054223,"name":"木ノ下 (真室川 0.6k 右岸)","name_kana":"きのした","ofc_cd":82,"sys_id":1,"sys_cam_id":"21054223","pause":0,"date_type":2,"cam_kind":4,"own_cd":21054}},{"type":"Feature","geometry":{"type":"Point","coordinates":[140.24823888,38.85921388]},"properties":{"id":121054238,"name":"真室川 (真室川 3.0k 左岸)","name_kana":"","ofc_cd":82,"sys_id":1,"sys_cam_id":"21054238","pause":0,"date_type":2,"cam_kind":4,"own_cd":21054}},{"type":"Feature","geometry":{"type":"Point","coordinates":[140.254455556,38.860852778]},"properties":{"id":221054017,"name":"新橋","name_kana":"","ofc_cd":82,"sys_id":2,"sys_cam_id":"21054006","pause":0,"date_type":0,"cam_kind":2,"own_cd":21054}},{"type":"Feature","geometry":{"type":"Point","coordinates":[140.246675,38.85195]},"properties":{"id":221054018,"name":"真室川防災ＳＴ","name_kana":"","ofc_cd":82,"sys_id":2,"sys_cam_id":"21054020","pause":0,"date_type":0,"cam_kind":2,"own_cd":21054}},{"type":"Feature","geometry":{"type":"Point","coordinates":[140.246388889,38.845563889]},"properties":{"id":221054019,"name":"真鶴橋","name_kana":"","ofc_cd":82,"sys_id":2,"sys_cam_id":"21054022","pause":0,"date_type":0,"cam_kind":2,"own_cd":21054}},{"type":"Feature","geometry":{"type":"Point","coordinates":[140.428627778,38.953908333]},"properties":{"id":221054023,"name":"塩根川砂防堰堤","name_kana":"","ofc_cd":82,"sys_id":2,"sys_cam_id":"21054023","pause":0,"date_type":0,"cam_kind":2,"own_cd":21054}},{"type":"Feature","geometry":{"type":"Point","coordinates":[140.358913889,39.0025]},"properties":{"id":221054024,"name":"朴木沢第２砂防堰堤","name_kana":"","ofc_cd":82,"sys_id":2,"sys_cam_id":"21054024","pause":0,"date_type":0,"cam_kind":2,"own_cd":21054}},{"type":"Feature","geometry":{"type":"Point","coordinates":[140.379747222,38.966944444]},"properties":{"id":221054025,"name":"金打沢砂防堰堤","name_kana":"","ofc_cd":82,"sys_id":2,"sys_cam_id":"21054025","pause":0,"date_type":0,"cam_kind":2,"own_cd":21054}},{"type":"Feature","geometry":{"type":"Point","coordinates":[140.373613889,38.981402778]},"properties":{"id":221054026,"name":"小六郎沢砂防堰堤","name_kana":"","ofc_cd":82,"sys_id":2,"sys_cam_id":"21054026","pause":0,"date_type":0,"cam_kind":2,"own_cd":21054}},{"type":"Feature","geometry":{"type":"Point","coordinates":[140.235016667,38.968061111]},"properties":{"id":221054027,"name":"小又川砂防堰堤","name_kana":"","ofc_cd":82,"sys_id":2,"sys_cam_id":"21054027","pause":0,"date_type":0,"cam_kind":2,"own_cd":21054}},{"type":"Feature","geometry":{"type":"Point","coordinates":[140.282786111,38.968902778]},"properties":{"id":221054031,"name":"八敷代第３砂防堰堤","name_kana":"","ofc_cd":82,"sys_id":2,"sys_cam_id":"21054031","pause":0,"date_type":0,"cam_kind":2,"own_cd":21054}},{"type":"Feature","geometry":{"type":"Point","coordinates":[140.317222222,38.9903]},"properties":{"id":221054032,"name":"小荒沢第１砂防堰堤","name_kana":"","ofc_cd":82,"sys_id":2,"sys_cam_id":"21054032","pause":0,"date_type":0,"cam_kind":2,"own_cd":21054}},{"type":"Feature","geometry":{"type":"Point","coordinates":[140.247051,38.688974]},"properties":{"id":121054204,"name":"烏川 (最上川 57.9k 左岸)","name_kana":"","ofc_cd":82,"sys_id":1,"sys_cam_id":"21054204","pause":0,"date_type":2,"cam_kind":4,"own_cd":21054}},{"type":"Feature","geometry":{"type":"Point","coordinates":[140.23995555,38.69946388]},"properties":{"id":121054217,"name":"白須賀 (最上川 56.5k 左岸)","name_kana":"しらすか","ofc_cd":82,"sys_id":1,"sys_cam_id":"21054217","pause":0,"date_type":2,"cam_kind":4,"own_cd":21054}},{"type":"Feature","geometry":{"type":"Point","coordinates":[140.22217777,38.71639444]},"properties":{"id":121054228,"name":"作の巻 (最上川 53.3k 左岸)","name_kana":"","ofc_cd":82,"sys_id":1,"sys_cam_id":"21054228","pause":0,"date_type":2,"cam_kind":4,"own_cd":21054}},{"type":"Feature","geometry":{"type":"Point","coordinates":[140.227725,38.70276944]},"properties":{"id":121054229,"name":"清水 (最上川 55.3k 右岸)","name_kana":"","ofc_cd":82,"sys_id":1,"sys_cam_id":"21054229","pause":0,"date_type":2,"cam_kind":4,"own_cd":21054}},{"type":"Feature","geometry":{"type":"Point","coordinates":[140.235016667,38.702519444]},"properties":{"id":221054007,"name":"清水消流雪","name_kana":"","ofc_cd":82,"sys_id":2,"sys_cam_id":"21054013","pause":0,"date_type":0,"cam_kind":2,"own_cd":21054}},{"type":"Feature","geometry":{"type":"Point","coordinates":[140.225277778,38.710563889]},"properties":{"id":221054009,"name":"清水排水樋管","name_kana":"","ofc_cd":82,"sys_id":2,"sys_cam_id":"21054015","pause":0,"date_type":0,"cam_kind":2,"own_cd":21054}},{"type":"Feature","geometry":{"type":"Point","coordinates":[140.182230556,38.583338889]},"properties":{"id":221054020,"name":"祓川第３砂防堰堤","name_kana":"","ofc_cd":82,"sys_id":2,"sys_cam_id":"21054007","pause":0,"date_type":0,"cam_kind":2,"own_cd":21054}},{"type":"Feature","geometry":{"type":"Point","coordinates":[140.173058333,38.612233333]},"properties":{"id":221054038,"name":"小松淵下流（左岸部）","name_kana":"","ofc_cd":82,"sys_id":2,"sys_cam_id":"21054038","pause":0,"date_type":0,"cam_kind":2,"own_cd":21054}},{"type":"Feature","geometry":{"type":"Point","coordinates":[140.170852778,38.609191667]},"properties":{"id":221054040,"name":"肘折","name_kana":"","ofc_cd":82,"sys_id":2,"sys_cam_id":"21054040","pause":0,"date_type":0,"cam_kind":2,"own_cd":21054}},{"type":"Feature","geometry":{"type":"Point","coordinates":[140.170008333,38.611680556]},"properties":{"id":221054041,"name":"小松淵","name_kana":"","ofc_cd":82,"sys_id":2,"sys_cam_id":"21054041","pause":0,"date_type":0,"cam_kind":2,"own_cd":21054}},{"type":"Feature","geometry":{"type":"Point","coordinates":[140.22299722,38.81610277]},"properties":{"id":121054198,"name":"観音寺 (鮭川 16.0k 右岸)","name_kana":"","ofc_cd":82,"sys_id":1,"sys_cam_id":"21054198","pause":0,"date_type":2,"cam_kind":4,"own_cd":21054}},{"type":"Feature","geometry":{"type":"Point","coordinates":[140.24213611,38.83909166]},"properties":{"id":121054200,"name":"石名坂 (真室川 0.4k 左岸)","name_kana":"","ofc_cd":82,"sys_id":1,"sys_cam_id":"21054200","pause":0,"date_type":2,"cam_kind":4,"own_cd":21054}},{"type":"Feature","geometry":{"type":"Point","coordinates":[140.22883611,38.847]},"properties":{"id":121054206,"name":"岩木 (鮭川 20.0k 右岸)","name_kana":"","ofc_cd":82,"sys_id":1,"sys_cam_id":"21054206","pause":0,"date_type":2,"cam_kind":4,"own_cd":21054}},{"type":"Feature","geometry":{"type":"Point","coordinates":[140.22354166,38.77452777]},"properties":{"id":121054222,"name":"川口 (鮭川 10.8k 左岸)","name_kana":"","ofc_cd":82,"sys_id":1,"sys_cam_id":"21054222","pause":0,"date_type":2,"cam_kind":4,"own_cd":21054}},{"type":"Feature","geometry":{"type":"Point","coordinates":[140.21460833,38.78667499]},"properties":{"id":121054235,"name":"上大渕 (鮭川 12.2k 左岸)","name_kana":"かみおおぶち","ofc_cd":82,"sys_id":1,"sys_cam_id":"21054235","pause":0,"date_type":2,"cam_kind":4,"own_cd":21054}},{"type":"Feature","geometry":{"type":"Point","coordinates":[140.21376666,38.79563333]},"properties":{"id":121054236,"name":"庭月 (鮭川 13.4k 左岸)","name_kana":"","ofc_cd":82,"sys_id":1,"sys_cam_id":"21054236","pause":0,"date_type":2,"cam_kind":4,"own_cd":21054}},{"type":"Feature","geometry":{"type":"Point","coordinates":[140.2251944,38.81673333]},"properties":{"id":121054237,"name":"西村 (鮭川 16.0k 左岸)","name_kana":"にしむら","ofc_cd":82,"sys_id":1,"sys_cam_id":"21054237","pause":0,"date_type":2,"cam_kind":4,"own_cd":21054}},{"type":"Feature","geometry":{"type":"Point","coordinates":[140.216397222,38.801136111]},"properties":{"id":221054015,"name":"鮭川橋","name_kana":"","ofc_cd":82,"sys_id":2,"sys_cam_id":"21054004","pause":0,"date_type":0,"cam_kind":2,"own_cd":21054}},{"type":"Feature","geometry":{"type":"Point","coordinates":[140.225016667,38.816408333]},"properties":{"id":221054016,"name":"観音寺橋","name_kana":"","ofc_cd":82,"sys_id":2,"sys_cam_id":"21054005","pause":0,"date_type":0,"cam_kind":2,"own_cd":21054}},{"type":"Feature","geometry":{"type":"Point","coordinates":[140.137696,38.705238]},"properties":{"id":101537039,"name":"角川（鹿ノ沢橋付近）","name_kana":"","ofc_cd":82,"sys_id":1,"sys_cam_id":"1537039","pause":0,"date_type":2,"cam_kind":4,"own_cd":1537}},{"type":"Feature","geometry":{"type":"Point","coordinates":[140.13095277,38.74005833]},"properties":{"id":121054196,"name":"上台 (最上川 39.1k 左岸)","name_kana":"うわだい","ofc_cd":82,"sys_id":1,"sys_cam_id":"21054196","pause":0,"date_type":2,"cam_kind":4,"own_cd":21054}},{"type":"Feature","geometry":{"type":"Point","coordinates":[140.05986111,38.76169722]},"properties":{"id":121054199,"name":"土湯 (最上川 32.7k 左岸)","name_kana":"つちゆ ","ofc_cd":82,"sys_id":1,"sys_cam_id":"21054199","pause":0,"date_type":2,"cam_kind":4,"own_cd":21054}},{"type":"Feature","geometry":{"type":"Point","coordinates":[140.14720833,38.73893888]},"properties":{"id":121054203,"name":"古口 (最上川 40.5k 左岸)","name_kana":"ふるくち","ofc_cd":82,"sys_id":1,"sys_cam_id":"21054203","pause":0,"date_type":2,"cam_kind":4,"own_cd":21054}},{"type":"Feature","geometry":{"type":"Point","coordinates":[140.205666,38.768124]},"properties":{"id":121054210,"name":"向松坂 (鮭川 7.6k 左岸)","name_kana":"むかいまつざか","ofc_cd":82,"sys_id":1,"sys_cam_id":"21054210","pause":0,"date_type":0,"cam_kind":4,"own_cd":21054}},{"type":"Feature","geometry":{"type":"Point","coordinates":[140.19041388,38.73965833]},"properties":{"id":121054211,"name":"津谷 (鮭川 2.6k 右岸)","name_kana":"つや","ofc_cd":82,"sys_id":1,"sys_cam_id":"21054211","pause":0,"date_type":2,"cam_kind":4,"own_cd":21054}},{"type":"Feature","geometry":{"type":"Point","coordinates":[140.19875,38.75463611]},"properties":{"id":121054214,"name":"名高 (鮭川 5.4k 右岸)","name_kana":"なだか","ofc_cd":82,"sys_id":1,"sys_cam_id":"21054214","pause":0,"date_type":2,"cam_kind":4,"own_cd":21054}},{"type":"Feature","geometry":{"type":"Point","coordinates":[140.16060555,38.73864722]},"properties":{"id":121054224,"name":"真柄 (最上川 41.9k 左岸)","name_kana":"","ofc_cd":82,"sys_id":1,"sys_cam_id":"21054224","pause":0,"date_type":2,"cam_kind":4,"own_cd":21054}},{"type":"Feature","geometry":{"type":"Point","coordinates":[140.16642777,38.73179722]},"properties":{"id":121054225,"name":"皿島 (最上川 42.7k 右岸)","name_kana":"さらしま","ofc_cd":82,"sys_id":1,"sys_cam_id":"21054225","pause":0,"date_type":2,"cam_kind":4,"own_cd":21054}},{"type":"Feature","geometry":{"type":"Point","coordinates":[140.19106388,38.73047222]},"properties":{"id":121054226,"name":"津谷 (最上川 45.7k 右岸)","name_kana":"","ofc_cd":82,"sys_id":1,"sys_cam_id":"21054226","pause":0,"date_type":2,"cam_kind":4,"own_cd":21054}},{"type":"Feature","geometry":{"type":"Point","coordinates":[140.19585833,38.72627777]},"properties":{"id":121054227,"name":"金打坊 (最上川 45.9k 右岸)","name_kana":"","ofc_cd":82,"sys_id":1,"sys_cam_id":"21054227","pause":0,"date_type":2,"cam_kind":4,"own_cd":21054}},{"type":"Feature","geometry":{"type":"Point","coordinates":[140.18868333,38.74245833]},"properties":{"id":121054233,"name":"岩清水 (鮭川 3.0k 左岸)","name_kana":"","ofc_cd":82,"sys_id":1,"sys_cam_id":"21054233","pause":0,"date_type":2,"cam_kind":4,"own_cd":21054}},{"type":"Feature","geometry":{"type":"Point","coordinates":[140.197316,38.765618]},"properties":{"id":121054234,"name":"松坂 (鮭川 6.8k 右岸)","name_kana":"","ofc_cd":82,"sys_id":1,"sys_cam_id":"21054234","pause":0,"date_type":2,"cam_kind":4,"own_cd":21054}},{"type":"Feature","geometry":{"type":"Point","coordinates":[140.187802778,38.72585]},"properties":{"id":221054010,"name":"角間沢排水樋管","name_kana":"","ofc_cd":82,"sys_id":2,"sys_cam_id":"21054016","pause":0,"date_type":0,"cam_kind":2,"own_cd":21054}},{"type":"Feature","geometry":{"type":"Point","coordinates":[140.139191667,38.738894444]},"properties":{"id":221054011,"name":"古口排水機場　外水","name_kana":"","ofc_cd":82,"sys_id":2,"sys_cam_id":"21054017","pause":0,"date_type":0,"cam_kind":2,"own_cd":21054}},{"type":"Feature","geometry":{"type":"Point","coordinates":[140.139191667,38.738613889]},"properties":{"id":221054012,"name":"古口排水機場　内水","name_kana":"","ofc_cd":82,"sys_id":2,"sys_cam_id":"21054018","pause":0,"date_type":0,"cam_kind":2,"own_cd":21054}},{"type":"Feature","geometry":{"type":"Point","coordinates":[140.168069444,38.723916667]},"properties":{"id":221054013,"name":"古巻沢排水樋管","name_kana":"","ofc_cd":82,"sys_id":2,"sys_cam_id":"21054019","pause":0,"date_type":0,"cam_kind":2,"own_cd":21054}},{"type":"Feature","geometry":{"type":"Point","coordinates":[140.123891667,38.650833333]},"properties":{"id":221054028,"name":"鹿の入沢砂防堰堤","name_kana":"","ofc_cd":82,"sys_id":2,"sys_cam_id":"21054028","pause":0,"date_type":0,"cam_kind":2,"own_cd":21054}},{"type":"Feature","geometry":{"type":"Point","coordinates":[140.123061111,38.708616667]},"properties":{"id":221054039,"name":"中沢砂防堰堤","name_kana":"","ofc_cd":82,"sys_id":2,"sys_cam_id":"21054039","pause":0,"date_type":0,"cam_kind":2,"own_cd":21054}},{"type":"Feature","geometry":{"type":"Point","coordinates":[140.1977104,38.0056429]},"properties":{"id":101537048,"name":"屋代川（中橋付近）","name_kana":"","ofc_cd":82,"sys_id":1,"sys_cam_id":"1537048","pause":0,"date_type":2,"cam_kind":4,"own_cd":1537}},{"type":"Feature","geometry":{"type":"Point","coordinates":[140.1499295,37.9864712]},"properties":{"id":101537053,"name":"砂川（鶴巻橋付近）","name_kana":"","ofc_cd":82,"sys_id":1,"sys_cam_id":"1537053","pause":0,"date_type":2,"cam_kind":4,"own_cd":1537}},{"type":"Feature","geometry":{"type":"Point","coordinates":[140.2410294,38.0137042]},"properties":{"id":101537089,"name":"屋代川（屋代川橋付近）","name_kana":"","ofc_cd":82,"sys_id":1,"sys_cam_id":"1537089","pause":0,"date_type":2,"cam_kind":4,"own_cd":1537}},{"type":"Feature","geometry":{"type":"Point","coordinates":[140.142562,38.02244]},"properties":{"id":121053192,"name":"大橋簡易カメラ","name_kana":"おおはしかんいかめら","ofc_cd":82,"sys_id":1,"sys_cam_id":"21053192","pause":0,"date_type":2,"cam_kind":4,"own_cd":21053}},{"type":"Feature","geometry":{"type":"Point","coordinates":[140.131021,38.021692]},"properties":{"id":121053193,"name":"吉野川合流簡易カメラ","name_kana":"よしのがわごうりゅうかんいかめら","ofc_cd":82,"sys_id":1,"sys_cam_id":"21053193","pause":0,"date_type":2,"cam_kind":4,"own_cd":21053}},{"type":"Feature","geometry":{"type":"Point","coordinates":[140.137225,38.000316667]},"properties":{"id":221053042,"name":"平柳橋下流","name_kana":"","ofc_cd":82,"sys_id":2,"sys_cam_id":"21053042","pause":0,"date_type":0,"cam_kind":2,"own_cd":21053}},{"type":"Feature","geometry":{"type":"Point","coordinates":[140.140027778,37.986194444]},"properties":{"id":221053043,"name":"糠野目水位観測所","name_kana":"","ofc_cd":82,"sys_id":2,"sys_cam_id":"21053021","pause":0,"date_type":0,"cam_kind":2,"own_cd":21053}},{"type":"Feature","geometry":{"type":"Point","coordinates":[140.1475,38.013333333]},"properties":{"id":221053059,"name":"津久茂橋下流","name_kana":"","ofc_cd":82,"sys_id":2,"sys_cam_id":"21053047","pause":0,"date_type":0,"cam_kind":2,"own_cd":21053}},{"type":"Feature","geometry":{"type":"Point","coordinates":[140.052681,38.01493]},"properties":{"id":101537052,"name":"犬川（橋本橋付近）","name_kana":"","ofc_cd":82,"sys_id":1,"sys_cam_id":"1537052","pause":0,"date_type":2,"cam_kind":4,"own_cd":1537}},{"type":"Feature","geometry":{"type":"Point","coordinates":[140.074911,37.990007]},"properties":{"id":101537054,"name":"誕生川（莅橋付近）","name_kana":"","ofc_cd":82,"sys_id":1,"sys_cam_id":"1537054","pause":0,"date_type":2,"cam_kind":4,"own_cd":1537}},{"type":"Feature","geometry":{"type":"Point","coordinates":[140.0812737,38.0206817]},"properties":{"id":101537055,"name":"黒川（新馬場橋付近）","name_kana":"","ofc_cd":82,"sys_id":1,"sys_cam_id":"1537055","pause":0,"date_type":2,"cam_kind":4,"own_cd":1537}},{"type":"Feature","geometry":{"type":"Point","coordinates":[140.099538,38.024093]},"properties":{"id":121053190,"name":"誕生川簡易カメラ","name_kana":"たんじょうがわかんいかめら","ofc_cd":82,"sys_id":1,"sys_cam_id":"21053190","pause":0,"date_type":2,"cam_kind":4,"own_cd":21053}},{"type":"Feature","geometry":{"type":"Point","coordinates":[140.102561,38.028395]},"properties":{"id":121053191,"name":"誕生川合流簡易カメラ","name_kana":"たんじょうがわごうりゅうかんいかめら","ofc_cd":82,"sys_id":1,"sys_cam_id":"21053191","pause":0,"date_type":2,"cam_kind":4,"own_cd":21053}},{"type":"Feature","geometry":{"type":"Point","coordinates":[140.063694444,38.065569444]},"properties":{"id":221053036,"name":"西大塚水位観測所","name_kana":"","ofc_cd":82,"sys_id":2,"sys_cam_id":"21053025","pause":0,"date_type":0,"cam_kind":2,"own_cd":21053}},{"type":"Feature","geometry":{"type":"Point","coordinates":[140.069619444,38.053816667]},"properties":{"id":221053037,"name":"元宿川合流点","name_kana":"","ofc_cd":82,"sys_id":2,"sys_cam_id":"21053024","pause":0,"date_type":0,"cam_kind":2,"own_cd":21053}},{"type":"Feature","geometry":{"type":"Point","coordinates":[140.091388889,38.044166667]},"properties":{"id":221053038,"name":"犬川合流点","name_kana":"","ofc_cd":82,"sys_id":2,"sys_cam_id":"21053041","pause":0,"date_type":0,"cam_kind":2,"own_cd":21053}},{"type":"Feature","geometry":{"type":"Point","coordinates":[140.100027778,38.03075]},"properties":{"id":221053039,"name":"下田水位観測所","name_kana":"","ofc_cd":82,"sys_id":2,"sys_cam_id":"21053023","pause":0,"date_type":0,"cam_kind":2,"own_cd":21053}},{"type":"Feature","geometry":{"type":"Point","coordinates":[140.133325,38.008138889]},"properties":{"id":221053041,"name":"鬼面川合流点","name_kana":"","ofc_cd":82,"sys_id":2,"sys_cam_id":"21053048","pause":0,"date_type":0,"cam_kind":2,"own_cd":21053}},{"type":"Feature","geometry":{"type":"Point","coordinates":[139.739876,38.140311]},"properties":{"id":101537098,"name":"荒川（越中里橋付近）","name_kana":"あらかわ（えっちゅうざとばしふきん）","ofc_cd":82,"sys_id":1,"sys_cam_id":"1537098","pause":0,"date_type":2,"cam_kind":4,"own_cd":1537}},{"type":"Feature","geometry":{"type":"Point","coordinates":[139.745273,38.103589]},"properties":{"id":101537099,"name":"荒川（沖庭橋付近）","name_kana":"あらかわ（おきにわばしふきん）","ofc_cd":82,"sys_id":1,"sys_cam_id":"1537099","pause":0,"date_type":2,"cam_kind":4,"own_cd":1537}},{"type":"Feature","geometry":{"type":"Point","coordinates":[139.779472,38.152825]},"properties":{"id":221526001,"name":"荒川・虚空蔵橋（荒川流路工）","name_kana":"あらかわ・こくぞうばし","ofc_cd":84,"sys_id":2,"sys_cam_id":"21526001","pause":0,"date_type":0,"cam_kind":3,"own_cd":21526}},{"type":"Feature","geometry":{"type":"Point","coordinates":[139.719452,38.076216]},"properties":{"id":221526008,"name":"荒川・赤芝峡","name_kana":"あらかわ・あかしばきょう","ofc_cd":84,"sys_id":2,"sys_cam_id":"21526008","pause":0,"date_type":0,"cam_kind":3,"own_cd":21526}},{"type":"Feature","geometry":{"type":"Point","coordinates":[139.86608,38.033955]},"properties":{"id":221526011,"name":"桜川・小国町沼沢","name_kana":"さくらがわ・おぐにまちぬまざわ","ofc_cd":84,"sys_id":2,"sys_cam_id":"21526011","pause":0,"date_type":0,"cam_kind":3,"own_cd":21526}},{"type":"Feature","geometry":{"type":"Point","coordinates":[139.680208,37.917702]},"properties":{"id":221526012,"name":"梅花皮沢第１号砂防堰堤","name_kana":"かいらぎさわだい１ごうさぼうえんてい","ofc_cd":84,"sys_id":2,"sys_cam_id":"21526012","pause":0,"date_type":0,"cam_kind":3,"own_cd":21526}},{"type":"Feature","geometry":{"type":"Point","coordinates":[139.8063194,38.0042917]},"properties":{"id":221528039,"name":"下叶水","name_kana":"","ofc_cd":84,"sys_id":2,"sys_cam_id":"6010027","pause":0,"date_type":0,"cam_kind":3,"own_cd":21528}},{"type":"Feature","geometry":{"type":"Point","coordinates":[139.7471083,38.0582472]},"properties":{"id":221528040,"name":"小国町","name_kana":"","ofc_cd":84,"sys_id":2,"sys_cam_id":"6010028","pause":0,"date_type":0,"cam_kind":3,"own_cd":21528}},{"type":"Feature","geometry":{"type":"Point","coordinates":[139.8153889,38.010375]},"properties":{"id":221528041,"name":"市野々","name_kana":"","ofc_cd":84,"sys_id":2,"sys_cam_id":"6010029","pause":0,"date_type":0,"cam_kind":3,"own_cd":21528}},{"type":"Feature","geometry":{"type":"Point","coordinates":[139.8276361,38.0407194]},"properties":{"id":221528042,"name":"ダム下流","name_kana":"","ofc_cd":84,"sys_id":2,"sys_cam_id":"6010034","pause":0,"date_type":0,"cam_kind":3,"own_cd":21528}},{"type":"Feature","geometry":{"type":"Point","coordinates":[139.8241639,38.034525]},"properties":{"id":221528043,"name":"ダム上流","name_kana":"","ofc_cd":84,"sys_id":2,"sys_cam_id":"6010035","pause":0,"date_type":0,"cam_kind":3,"own_cd":21528}},{"type":"Feature","geometry":{"type":"Point","coordinates":[140.102138889,38.197722222]},"properties":{"id":221053030,"name":"菖蒲水位観測所","name_kana":"","ofc_cd":82,"sys_id":2,"sys_cam_id":"21053028","pause":0,"date_type":0,"cam_kind":2,"own_cd":21053}},{"type":"Feature","geometry":{"type":"Point","coordinates":[140.092027778,38.186722222]},"properties":{"id":221053031,"name":"白鷹大橋(旧荒砥橋)","name_kana":"","ofc_cd":82,"sys_id":2,"sys_cam_id":"21053027","pause":0,"date_type":0,"cam_kind":2,"own_cd":21053}},{"type":"Feature","geometry":{"type":"Point","coordinates":[140.061277778,38.159605556]},"properties":{"id":221053032,"name":"睦橋","name_kana":"","ofc_cd":82,"sys_id":2,"sys_cam_id":"21053030","pause":0,"date_type":0,"cam_kind":2,"own_cd":21053}},{"type":"Feature","geometry":{"type":"Point","coordinates":[139.973459,38.019089]},"properties":{"id":101537057,"name":"置賜白川（中郷橋付近）","name_kana":"","ofc_cd":82,"sys_id":1,"sys_cam_id":"1537057","pause":0,"date_type":2,"cam_kind":4,"own_cd":1537}},{"type":"Feature","geometry":{"type":"Point","coordinates":[139.977043,38.023627]},"properties":{"id":101537100,"name":"小白川（大巻橋付近）","name_kana":"こしらかわ（おおまきばしふきん）","ofc_cd":82,"sys_id":1,"sys_cam_id":"1537100","pause":0,"date_type":2,"cam_kind":4,"own_cd":1537}},{"type":"Feature","geometry":{"type":"Point","coordinates":[139.990743,38.058375]},"properties":{"id":101537101,"name":"萩生川（二反田橋付近）","name_kana":"はぎゅうがわ（にたんだばしふきん）","ofc_cd":82,"sys_id":1,"sys_cam_id":"1537101","pause":0,"date_type":2,"cam_kind":4,"own_cd":1537}},{"type":"Feature","geometry":{"type":"Point","coordinates":[139.922833333,37.974833333]},"properties":{"id":221057001,"name":"支所屋上","name_kana":"","ofc_cd":82,"sys_id":2,"sys_cam_id":"21057010","pause":0,"date_type":0,"cam_kind":2,"own_cd":21057}},{"type":"Feature","geometry":{"type":"Point","coordinates":[139.922277778,37.974416667]},"properties":{"id":221057011,"name":"余水吐上流","name_kana":"","ofc_cd":82,"sys_id":2,"sys_cam_id":"21057009","pause":0,"date_type":0,"cam_kind":2,"own_cd":21057}},{"type":"Feature","geometry":{"type":"Point","coordinates":[139.923083333,37.973583333]},"properties":{"id":221057012,"name":"堤体天端","name_kana":"","ofc_cd":82,"sys_id":2,"sys_cam_id":"21057011","pause":0,"date_type":0,"cam_kind":2,"own_cd":21057}},{"type":"Feature","geometry":{"type":"Point","coordinates":[139.923027778,37.974166667]},"properties":{"id":221057013,"name":"余水吐下流","name_kana":"","ofc_cd":82,"sys_id":2,"sys_cam_id":"21057012","pause":0,"date_type":0,"cam_kind":2,"own_cd":21057}},{"type":"Feature","geometry":{"type":"Point","coordinates":[139.92775,37.974833333]},"properties":{"id":221057014,"name":"堤体下流","name_kana":"","ofc_cd":82,"sys_id":2,"sys_cam_id":"21057013","pause":0,"date_type":0,"cam_kind":2,"own_cd":21057}},{"type":"Feature","geometry":{"type":"Point","coordinates":[139.902805556,37.931361111]},"properties":{"id":221057015,"name":"湖岸公園","name_kana":"","ofc_cd":82,"sys_id":2,"sys_cam_id":"21057014","pause":0,"date_type":0,"cam_kind":2,"own_cd":21057}},{"type":"Feature","geometry":{"type":"Point","coordinates":[139.908611111,37.934638889]},"properties":{"id":221057016,"name":"貯砂ダム","name_kana":"","ofc_cd":82,"sys_id":2,"sys_cam_id":"21057015","pause":0,"date_type":0,"cam_kind":2,"own_cd":21057}},{"type":"Feature","geometry":{"type":"Point","coordinates":[139.918333333,37.94975]},"properties":{"id":221057017,"name":"中津川橋","name_kana":"","ofc_cd":82,"sys_id":2,"sys_cam_id":"21057016","pause":0,"date_type":0,"cam_kind":2,"own_cd":21057}},{"type":"Feature","geometry":{"type":"Point","coordinates":[139.9165,37.97125]},"properties":{"id":221057018,"name":"石取沢","name_kana":"","ofc_cd":82,"sys_id":2,"sys_cam_id":"21057017","pause":0,"date_type":0,"cam_kind":2,"own_cd":21057}},{"type":"Feature","geometry":{"type":"Point","coordinates":[139.967222222,38.011666667]},"properties":{"id":221057019,"name":"手ノ子","name_kana":"","ofc_cd":82,"sys_id":2,"sys_cam_id":"21057018","pause":0,"date_type":0,"cam_kind":2,"own_cd":21057}},{"type":"Feature","geometry":{"type":"Point","coordinates":[139.986805556,38.026277778]},"properties":{"id":221057020,"name":"椿","name_kana":"","ofc_cd":82,"sys_id":2,"sys_cam_id":"21057019","pause":0,"date_type":0,"cam_kind":2,"own_cd":21057}},{"type":"Feature","geometry":{"type":"Point","coordinates":[139.912583333,37.928444444]},"properties":{"id":221057021,"name":"須郷橋","name_kana":"","ofc_cd":82,"sys_id":2,"sys_cam_id":"21057020","pause":0,"date_type":0,"cam_kind":2,"own_cd":21057}},{"type":"Feature","geometry":{"type":"Point","coordinates":[139.885666667,37.918222222]},"properties":{"id":221057028,"name":"下屋地観測所","name_kana":"","ofc_cd":82,"sys_id":2,"sys_cam_id":"21057027","pause":0,"date_type":0,"cam_kind":2,"own_cd":21057}},{"type":"Feature","geometry":{"type":"Point","coordinates":[139.824885,38.832985]},"properties":{"id":121055253,"name":"成田（赤川 4.2k 左岸)","name_kana":"なりた","ofc_cd":82,"sys_id":1,"sys_cam_id":"21055253","pause":0,"date_type":2,"cam_kind":4,"own_cd":21055}},{"type":"Feature","geometry":{"type":"Point","coordinates":[139.838629,38.823216]},"properties":{"id":121055255,"name":"猪子（赤川 5.8k 左岸)","name_kana":"いのこ","ofc_cd":82,"sys_id":1,"sys_cam_id":"21055255","pause":0,"date_type":2,"cam_kind":4,"own_cd":21055}},{"type":"Feature","geometry":{"type":"Point","coordinates":[139.851857,38.804335]},"properties":{"id":121055257,"name":"対馬（赤川 8.0k 右岸)","name_kana":"つしま","ofc_cd":82,"sys_id":1,"sys_cam_id":"21055257","pause":0,"date_type":2,"cam_kind":4,"own_cd":21055}},{"type":"Feature","geometry":{"type":"Point","coordinates":[139.842855,38.802368]},"properties":{"id":121055258,"name":"神花（赤川 8.6k 左岸)","name_kana":"かんばな","ofc_cd":82,"sys_id":1,"sys_cam_id":"21055258","pause":0,"date_type":2,"cam_kind":4,"own_cd":21055}},{"type":"Feature","geometry":{"type":"Point","coordinates":[139.841447,38.794133]},"properties":{"id":121055259,"name":"青山仲島（赤川 9.4k 左岸)","name_kana":"あおやまなかしま","ofc_cd":82,"sys_id":1,"sys_cam_id":"21055259","pause":0,"date_type":2,"cam_kind":4,"own_cd":21055}},{"type":"Feature","geometry":{"type":"Point","coordinates":[139.841478,38.79116]},"properties":{"id":121055260,"name":"青山（赤川 9.8k 左岸)","name_kana":"あおやま","ofc_cd":82,"sys_id":1,"sys_cam_id":"21055260","pause":0,"date_type":2,"cam_kind":4,"own_cd":21055}},{"type":"Feature","geometry":{"type":"Point","coordinates":[139.853448,38.758461]},"properties":{"id":121055262,"name":"横山（赤川 13.6k 右岸)","name_kana":"よこやま","ofc_cd":82,"sys_id":1,"sys_cam_id":"21055262","pause":0,"date_type":2,"cam_kind":4,"own_cd":21055}},{"type":"Feature","geometry":{"type":"Point","coordinates":[139.852516,38.751077]},"properties":{"id":121055263,"name":"助川（赤川 14.8k 右岸)","name_kana":"すけがわ","ofc_cd":82,"sys_id":1,"sys_cam_id":"21055263","pause":0,"date_type":2,"cam_kind":4,"own_cd":21055}},{"type":"Feature","geometry":{"type":"Point","coordinates":[139.848352778,38.813613889]},"properties":{"id":221055018,"name":"両田川橋","name_kana":"","ofc_cd":82,"sys_id":2,"sys_cam_id":"21055015","pause":0,"date_type":0,"cam_kind":2,"own_cd":21055}},{"type":"Feature","geometry":{"type":"Point","coordinates":[139.815019444,38.833588889]},"properties":{"id":221055028,"name":"大山川カメラ","name_kana":"","ofc_cd":82,"sys_id":2,"sys_cam_id":"21055028","pause":0,"date_type":0,"cam_kind":2,"own_cd":21055}},{"type":"Feature","geometry":{"type":"Point","coordinates":[139.841033333,38.787727778]},"properties":{"id":221055029,"name":"青龍寺川水門","name_kana":"","ofc_cd":82,"sys_id":2,"sys_cam_id":"21055029","pause":0,"date_type":0,"cam_kind":2,"own_cd":21055}},{"type":"Feature","geometry":{"type":"Point","coordinates":[140.0070442,38.7147151]},"properties":{"id":101537059,"name":"立谷沢川（木ノ沢橋付近）","name_kana":"","ofc_cd":82,"sys_id":1,"sys_cam_id":"1537059","pause":0,"date_type":2,"cam_kind":4,"own_cd":1537}},{"type":"Feature","geometry":{"type":"Point","coordinates":[139.8688216,38.8274391]},"properties":{"id":101537062,"name":"京田川（落合橋上流付近）","name_kana":"","ofc_cd":82,"sys_id":1,"sys_cam_id":"1537062","pause":0,"date_type":2,"cam_kind":4,"own_cd":1537}},{"type":"Feature","geometry":{"type":"Point","coordinates":[139.934748,38.870511]},"properties":{"id":121055242,"name":"千河原（最上川 13.2k 左岸)","name_kana":"ちがわら","ofc_cd":82,"sys_id":1,"sys_cam_id":"21055242","pause":0,"date_type":2,"cam_kind":4,"own_cd":21055}},{"type":"Feature","geometry":{"type":"Point","coordinates":[139.940282,38.86504]},"properties":{"id":121055243,"name":"槇島（最上川 14.2k 左岸)","name_kana":"まぎしま","ofc_cd":82,"sys_id":1,"sys_cam_id":"21055243","pause":0,"date_type":2,"cam_kind":4,"own_cd":21055}},{"type":"Feature","geometry":{"type":"Point","coordinates":[139.962909,38.822311]},"properties":{"id":121055248,"name":"古関（最上川 19.4k 左岸)","name_kana":"ふるせき","ofc_cd":82,"sys_id":1,"sys_cam_id":"21055248","pause":0,"date_type":2,"cam_kind":4,"own_cd":21055}},{"type":"Feature","geometry":{"type":"Point","coordinates":[139.986769,38.808767]},"properties":{"id":121055249,"name":"狩川（最上川 21.8k 左岸)","name_kana":"かりかわ","ofc_cd":82,"sys_id":1,"sys_cam_id":"21055249","pause":0,"date_type":2,"cam_kind":4,"own_cd":21055}},{"type":"Feature","geometry":{"type":"Point","coordinates":[140.024624,38.78964]},"properties":{"id":121055252,"name":"清川（最上川 26.8k 左岸)","name_kana":"きよかわ","ofc_cd":82,"sys_id":1,"sys_cam_id":"21055252","pause":0,"date_type":2,"cam_kind":4,"own_cd":21055}},{"type":"Feature","geometry":{"type":"Point","coordinates":[140.033055556,38.624727778]},"properties":{"id":221054021,"name":"潜岩第２砂防堰堤　左岸","name_kana":"","ofc_cd":82,"sys_id":2,"sys_cam_id":"21054011","pause":0,"date_type":0,"cam_kind":2,"own_cd":21054}},{"type":"Feature","geometry":{"type":"Point","coordinates":[140.003625,38.634188889]},"properties":{"id":221054045,"name":"玉川第７砂防堰堤","name_kana":"","ofc_cd":82,"sys_id":2,"sys_cam_id":"21054045","pause":0,"date_type":0,"cam_kind":2,"own_cd":21054}},{"type":"Feature","geometry":{"type":"Point","coordinates":[140.045861111,38.622241667]},"properties":{"id":221054046,"name":"本沢赤沢合流点","name_kana":"","ofc_cd":82,"sys_id":2,"sys_cam_id":"21054046","pause":0,"date_type":0,"cam_kind":2,"own_cd":21054}},{"type":"Feature","geometry":{"type":"Point","coordinates":[140.005577778,38.648080556]},"properties":{"id":221054047,"name":"瀬場","name_kana":"","ofc_cd":82,"sys_id":2,"sys_cam_id":"21054047","pause":0,"date_type":0,"cam_kind":2,"own_cd":21054}},{"type":"Feature","geometry":{"type":"Point","coordinates":[140.012222222,38.735555556]},"properties":{"id":221054048,"name":"板敷","name_kana":"","ofc_cd":82,"sys_id":2,"sys_cam_id":"21054048","pause":0,"date_type":0,"cam_kind":2,"own_cd":21054}},{"type":"Feature","geometry":{"type":"Point","coordinates":[140.047519444,38.614738889]},"properties":{"id":221054049,"name":"濁沢第１砂防堰堤","name_kana":"","ofc_cd":82,"sys_id":2,"sys_cam_id":"21054049","pause":0,"date_type":0,"cam_kind":2,"own_cd":21054}},{"type":"Feature","geometry":{"type":"Point","coordinates":[140.048630556,38.606133333]},"properties":{"id":221054050,"name":"濁沢第４砂防堰堤","name_kana":"","ofc_cd":82,"sys_id":2,"sys_cam_id":"21054050","pause":0,"date_type":0,"cam_kind":2,"own_cd":21054}},{"type":"Feature","geometry":{"type":"Point","coordinates":[140.008358333,38.713894444]},"properties":{"id":221054051,"name":"木の沢","name_kana":"","ofc_cd":82,"sys_id":2,"sys_cam_id":"21054051","pause":0,"date_type":0,"cam_kind":2,"own_cd":21054}},{"type":"Feature","geometry":{"type":"Point","coordinates":[139.999730556,38.666963889]},"properties":{"id":221054052,"name":"新田橋","name_kana":"","ofc_cd":82,"sys_id":2,"sys_cam_id":"21054052","pause":0,"date_type":0,"cam_kind":2,"own_cd":21054}},{"type":"Feature","geometry":{"type":"Point","coordinates":[140.06445,38.758358333]},"properties":{"id":221055001,"name":"高屋","name_kana":"","ofc_cd":82,"sys_id":2,"sys_cam_id":"21055019","pause":0,"date_type":0,"cam_kind":2,"own_cd":21055}},{"type":"Feature","geometry":{"type":"Point","coordinates":[140.026519444,38.784172222]},"properties":{"id":221055002,"name":"立谷沢川合流点","name_kana":"","ofc_cd":82,"sys_id":2,"sys_cam_id":"21055018","pause":0,"date_type":0,"cam_kind":2,"own_cd":21055}},{"type":"Feature","geometry":{"type":"Point","coordinates":[139.997786111,38.790569444]},"properties":{"id":221055003,"name":"東興野","name_kana":"","ofc_cd":82,"sys_id":2,"sys_cam_id":"21055012","pause":0,"date_type":0,"cam_kind":2,"own_cd":21055}},{"type":"Feature","geometry":{"type":"Point","coordinates":[139.8823909,39.0671802]},"properties":{"id":101537067,"name":"月光川（鳥海大橋付近）","name_kana":"","ofc_cd":82,"sys_id":1,"sys_cam_id":"1537067","pause":0,"date_type":2,"cam_kind":4,"own_cd":1537}},{"type":"Feature","geometry":{"type":"Point","coordinates":[139.9384782,38.9883368]},"properties":{"id":101537074,"name":"日向川（鳥海橋上付近）","name_kana":"","ofc_cd":82,"sys_id":1,"sys_cam_id":"1537074","pause":0,"date_type":2,"cam_kind":4,"own_cd":1537}},{"type":"Feature","geometry":{"type":"Point","coordinates":[139.908872,39.020617]},"properties":{"id":101537075,"name":"月光川（尻引橋付近）","name_kana":"","ofc_cd":82,"sys_id":1,"sys_cam_id":"1537075","pause":0,"date_type":2,"cam_kind":4,"own_cd":1537}},{"type":"Feature","geometry":{"type":"Point","coordinates":[139.9111385,39.0350011]},"properties":{"id":101537081,"name":"庄内高瀬川（月見橋付近）","name_kana":"","ofc_cd":82,"sys_id":1,"sys_cam_id":"1537081","pause":0,"date_type":2,"cam_kind":4,"own_cd":1537}}]}