{"type":"FeatureCollection","crs":{"type":"name","properties":{"name":"EPSG:4326"}},"features":[{"type":"Feature","geometry":{"type":"Point","coordinates":[138.484429,36.219085]},"properties":{"id":105121001,"name":"鍛冶屋","name_kana":"かじや","ofc_cd":84,"sys_id":1,"sys_cam_id":"5121001","pause":0,"date_type":2,"cam_kind":4,"own_cd":5121}},{"type":"Feature","geometry":{"type":"Point","coordinates":[138.483815,36.194866]},"properties":{"id":105121009,"name":"臼田橋","name_kana":"うすだばし","ofc_cd":84,"sys_id":1,"sys_cam_id":"5121009","pause":0,"date_type":2,"cam_kind":4,"own_cd":5121}},{"type":"Feature","geometry":{"type":"Point","coordinates":[138.445899,36.225537]},"properties":{"id":105121010,"name":"前山橋","name_kana":"まえやまばし","ofc_cd":84,"sys_id":1,"sys_cam_id":"5121010","pause":0,"date_type":2,"cam_kind":4,"own_cd":5121}},{"type":"Feature","geometry":{"type":"Point","coordinates":[138.476694,36.240276]},"properties":{"id":105121011,"name":"滑津橋","name_kana":"なめづばし","ofc_cd":84,"sys_id":1,"sys_cam_id":"5121011","pause":0,"date_type":2,"cam_kind":4,"own_cd":5121}},{"type":"Feature","geometry":{"type":"Point","coordinates":[138.365059,36.262481]},"properties":{"id":105121012,"name":"望月橋","name_kana":"もちづきばし","ofc_cd":84,"sys_id":1,"sys_cam_id":"5121012","pause":0,"date_type":2,"cam_kind":4,"own_cd":5121}},{"type":"Feature","geometry":{"type":"Point","coordinates":[138.475376,36.226431]},"properties":{"id":105121015,"name":"野沢橋","name_kana":"のざわばし","ofc_cd":84,"sys_id":1,"sys_cam_id":"5121015","pause":0,"date_type":2,"cam_kind":4,"own_cd":5121}},{"type":"Feature","geometry":{"type":"Point","coordinates":[138.418534,36.270901]},"properties":{"id":105121016,"name":"中津橋","name_kana":"なかつばし","ofc_cd":84,"sys_id":1,"sys_cam_id":"5121016","pause":0,"date_type":2,"cam_kind":4,"own_cd":5121}},{"type":"Feature","geometry":{"type":"Point","coordinates":[138.461563453,36.279058156]},"properties":{"id":105121017,"name":"前田橋","name_kana":"まえだばし","ofc_cd":84,"sys_id":1,"sys_cam_id":"5121017","pause":0,"date_type":2,"cam_kind":4,"own_cd":5121}},{"type":"Feature","geometry":{"type":"Point","coordinates":[138.487284,36.270377]},"properties":{"id":105121018,"name":"鼻顔橋","name_kana":"はなづらばし","ofc_cd":84,"sys_id":1,"sys_cam_id":"5121018","pause":0,"date_type":2,"cam_kind":4,"own_cd":5121}},{"type":"Feature","geometry":{"type":"Point","coordinates":[138.486395,36.202347]},"properties":{"id":105121019,"name":"天の川橋、雨川橋","name_kana":"あまのがわばし、あまかわばし","ofc_cd":84,"sys_id":1,"sys_cam_id":"5121019","pause":0,"date_type":2,"cam_kind":4,"own_cd":5121}},{"type":"Feature","geometry":{"type":"Point","coordinates":[138.483649,36.228778]},"properties":{"id":105121020,"name":"平賀橋","name_kana":"ひらかばし","ofc_cd":84,"sys_id":1,"sys_cam_id":"5121020","pause":0,"date_type":2,"cam_kind":4,"own_cd":5121}},{"type":"Feature","geometry":{"type":"Point","coordinates":[138.37630277,36.24991388]},"properties":{"id":105121021,"name":"曲沢橋","name_kana":"まがりさわばし","ofc_cd":84,"sys_id":1,"sys_cam_id":"5121021","pause":0,"date_type":2,"cam_kind":4,"own_cd":5121}},{"type":"Feature","geometry":{"type":"Point","coordinates":[138.518671989,36.251229764]},"properties":{"id":105121170,"name":"安坂橋","name_kana":"やすざかばし","ofc_cd":84,"sys_id":1,"sys_cam_id":"5121170","pause":0,"date_type":2,"cam_kind":4,"own_cd":5121}},{"type":"Feature","geometry":{"type":"Point","coordinates":[138.506183624,36.218414205]},"properties":{"id":105121171,"name":"常和橋","name_kana":"ときわばし","ofc_cd":84,"sys_id":1,"sys_cam_id":"5121171","pause":0,"date_type":2,"cam_kind":4,"own_cd":5121}},{"type":"Feature","geometry":{"type":"Point","coordinates":[138.495841026,36.177202187]},"properties":{"id":105121172,"name":"谷川橋","name_kana":"やがわばし","ofc_cd":84,"sys_id":1,"sys_cam_id":"5121172","pause":0,"date_type":2,"cam_kind":4,"own_cd":5121}},{"type":"Feature","geometry":{"type":"Point","coordinates":[138.500561714,36.20885772]},"properties":{"id":105121173,"name":"神代橋","name_kana":"しんだいばし","ofc_cd":84,"sys_id":1,"sys_cam_id":"5121173","pause":0,"date_type":2,"cam_kind":4,"own_cd":5121}},{"type":"Feature","geometry":{"type":"Point","coordinates":[138.455929756,36.208823093]},"properties":{"id":105121174,"name":"大沢橋","name_kana":"おおさわばし","ofc_cd":84,"sys_id":1,"sys_cam_id":"5121174","pause":0,"date_type":2,"cam_kind":4,"own_cd":5121}},{"type":"Feature","geometry":{"type":"Point","coordinates":[138.443398476,36.228211853]},"properties":{"id":105121175,"name":"中沢橋","name_kana":"なかざわばし","ofc_cd":84,"sys_id":1,"sys_cam_id":"5121175","pause":0,"date_type":2,"cam_kind":4,"own_cd":5121}},{"type":"Feature","geometry":{"type":"Point","coordinates":[138.511529,36.263806]},"properties":{"id":105121200,"name":"安原橋","name_kana":"やすはらばし","ofc_cd":84,"sys_id":1,"sys_cam_id":"5121200","pause":0,"date_type":1,"cam_kind":4,"own_cd":5121}},{"type":"Feature","geometry":{"type":"Point","coordinates":[138.511809,36.255418]},"properties":{"id":105121201,"name":"新川橋","name_kana":"にいがわばし","ofc_cd":84,"sys_id":1,"sys_cam_id":"5121201","pause":0,"date_type":1,"cam_kind":4,"own_cd":5121}},{"type":"Feature","geometry":{"type":"Point","coordinates":[138.389264,36.255524]},"properties":{"id":105121202,"name":"矢島","name_kana":"やしま","ofc_cd":84,"sys_id":1,"sys_cam_id":"5121202","pause":0,"date_type":1,"cam_kind":4,"own_cd":5121}},{"type":"Feature","geometry":{"type":"Point","coordinates":[138.353509,36.255175]},"properties":{"id":105121203,"name":"高呂橋","name_kana":"こうろばし","ofc_cd":84,"sys_id":1,"sys_cam_id":"5121203","pause":0,"date_type":1,"cam_kind":4,"own_cd":5121}},{"type":"Feature","geometry":{"type":"Point","coordinates":[138.359634,36.208083]},"properties":{"id":105121204,"name":"中の橋","name_kana":"なかのはし","ofc_cd":84,"sys_id":1,"sys_cam_id":"5121204","pause":0,"date_type":1,"cam_kind":4,"own_cd":5121}},{"type":"Feature","geometry":{"type":"Point","coordinates":[138.427575,36.236742]},"properties":{"id":105121205,"name":"根岸","name_kana":"ねぎし","ofc_cd":84,"sys_id":1,"sys_cam_id":"5121205","pause":0,"date_type":1,"cam_kind":4,"own_cd":5121}},{"type":"Feature","geometry":{"type":"Point","coordinates":[138.4169593,36.2369757]},"properties":{"id":105121206,"name":"沓沢公民館前","name_kana":"くつさわこうみんかんまえ","ofc_cd":84,"sys_id":1,"sys_cam_id":"5121206","pause":0,"date_type":1,"cam_kind":4,"own_cd":5121}},{"type":"Feature","geometry":{"type":"Point","coordinates":[138.444757,36.22101]},"properties":{"id":105121207,"name":"前山","name_kana":"まえやま","ofc_cd":84,"sys_id":1,"sys_cam_id":"5121207","pause":0,"date_type":1,"cam_kind":4,"own_cd":5121}},{"type":"Feature","geometry":{"type":"Point","coordinates":[138.529897,36.248478]},"properties":{"id":105121208,"name":"瀬早川橋","name_kana":"せばやがわばし","ofc_cd":84,"sys_id":1,"sys_cam_id":"5121208","pause":0,"date_type":1,"cam_kind":4,"own_cd":5121}},{"type":"Feature","geometry":{"type":"Point","coordinates":[138.5624011,36.2391248]},"properties":{"id":105121209,"name":"志賀","name_kana":"しが","ofc_cd":84,"sys_id":1,"sys_cam_id":"5121209","pause":0,"date_type":1,"cam_kind":4,"own_cd":5121}},{"type":"Feature","geometry":{"type":"Point","coordinates":[138.4650074,36.208599]},"properties":{"id":105121210,"name":"町屋橋","name_kana":"まちやばし","ofc_cd":84,"sys_id":1,"sys_cam_id":"5121210","pause":0,"date_type":1,"cam_kind":4,"own_cd":5121}},{"type":"Feature","geometry":{"type":"Point","coordinates":[138.4576904,36.2599178]},"properties":{"id":105121211,"name":"中佐都橋","name_kana":"なかさとばし","ofc_cd":84,"sys_id":1,"sys_cam_id":"5121211","pause":0,"date_type":1,"cam_kind":4,"own_cd":5121}},{"type":"Feature","geometry":{"type":"Point","coordinates":[138.5067095,36.2314786]},"properties":{"id":105121212,"name":"松井橋","name_kana":"まついはし","ofc_cd":84,"sys_id":1,"sys_cam_id":"5121212","pause":0,"date_type":1,"cam_kind":4,"own_cd":5121}},{"type":"Feature","geometry":{"type":"Point","coordinates":[138.4614806,36.2296167]},"properties":{"id":221545018,"name":"佐久合同庁舎屋上","name_kana":"","ofc_cd":84,"sys_id":2,"sys_cam_id":"20010018","pause":0,"date_type":0,"cam_kind":3,"own_cd":21545}}]}