{"type":"FeatureCollection","crs":{"type":"name","properties":{"name":"EPSG:4326"}},"features":[{"type":"Feature","geometry":{"type":"Point","coordinates":[138.448712,35.28503]},"properties":{"id":104865050,"name":"戸栗川　新戸栗川橋","name_kana":"","ofc_cd":83,"sys_id":1,"sys_cam_id":"4865050","pause":0,"date_type":2,"cam_kind":4,"own_cd":4865}},{"type":"Feature","geometry":{"type":"Point","coordinates":[138.4827042,35.2359578]},"properties":{"id":104865051,"name":"福士川　上福士川橋","name_kana":"","ofc_cd":83,"sys_id":1,"sys_cam_id":"4865051","pause":0,"date_type":2,"cam_kind":4,"own_cd":4865}},{"type":"Feature","geometry":{"type":"Point","coordinates":[138.451874,35.302185]},"properties":{"id":121335209,"name":"富士川右岸 H181","name_kana":"","ofc_cd":83,"sys_id":1,"sys_cam_id":"21335209","pause":0,"date_type":2,"cam_kind":4,"own_cd":21335}},{"type":"Feature","geometry":{"type":"Point","coordinates":[138.458591,35.292019]},"properties":{"id":121335210,"name":"富士川左岸 H175","name_kana":"","ofc_cd":83,"sys_id":1,"sys_cam_id":"21335210","pause":0,"date_type":2,"cam_kind":4,"own_cd":21335}},{"type":"Feature","geometry":{"type":"Point","coordinates":[138.457024,35.289234]},"properties":{"id":121335211,"name":"富士川右岸 H174","name_kana":"","ofc_cd":83,"sys_id":1,"sys_cam_id":"21335211","pause":0,"date_type":2,"cam_kind":4,"own_cd":21335}},{"type":"Feature","geometry":{"type":"Point","coordinates":[138.458054,35.280493]},"properties":{"id":121335212,"name":"富士川右岸 H169","name_kana":"","ofc_cd":83,"sys_id":1,"sys_cam_id":"21335212","pause":0,"date_type":2,"cam_kind":4,"own_cd":21335}},{"type":"Feature","geometry":{"type":"Point","coordinates":[138.512149,35.226702]},"properties":{"id":121335213,"name":"富士川右岸 H129","name_kana":"","ofc_cd":83,"sys_id":1,"sys_cam_id":"21335213","pause":0,"date_type":2,"cam_kind":4,"own_cd":21335}},{"type":"Feature","geometry":{"type":"Point","coordinates":[138.462775,35.2830528]},"properties":{"id":221335006,"name":"南部橋","name_kana":"","ofc_cd":83,"sys_id":2,"sys_cam_id":"19010006","pause":0,"date_type":0,"cam_kind":2,"own_cd":21335}},{"type":"Feature","geometry":{"type":"Point","coordinates":[138.5188389,35.2263417]},"properties":{"id":221335053,"name":"万栄橋","name_kana":"","ofc_cd":83,"sys_id":2,"sys_cam_id":"19010053","pause":0,"date_type":0,"cam_kind":2,"own_cd":21335}},{"type":"Feature","geometry":{"type":"Point","coordinates":[138.5176417,35.2288944]},"properties":{"id":221335054,"name":"十島樋管","name_kana":"","ofc_cd":83,"sys_id":2,"sys_cam_id":"19010054","pause":0,"date_type":0,"cam_kind":2,"own_cd":21335}},{"type":"Feature","geometry":{"type":"Point","coordinates":[138.5107278,35.2357694]},"properties":{"id":221335055,"name":"富士川・十島","name_kana":"","ofc_cd":83,"sys_id":2,"sys_cam_id":"19010055","pause":0,"date_type":0,"cam_kind":2,"own_cd":21335}},{"type":"Feature","geometry":{"type":"Point","coordinates":[138.4975917,35.2361444]},"properties":{"id":221335056,"name":"西行公園","name_kana":"","ofc_cd":83,"sys_id":2,"sys_cam_id":"19010056","pause":0,"date_type":0,"cam_kind":2,"own_cd":21335}},{"type":"Feature","geometry":{"type":"Point","coordinates":[138.4823083,35.2535889]},"properties":{"id":221335057,"name":"富士川・富栄橋","name_kana":"","ofc_cd":83,"sys_id":2,"sys_cam_id":"19010057","pause":0,"date_type":0,"cam_kind":2,"own_cd":21335}},{"type":"Feature","geometry":{"type":"Point","coordinates":[138.4572278,35.2848389]},"properties":{"id":221335058,"name":"睦合第三排水樋管","name_kana":"","ofc_cd":83,"sys_id":2,"sys_cam_id":"19010058","pause":0,"date_type":0,"cam_kind":2,"own_cd":21335}}]}