{"type":"FeatureCollection","crs":{"type":"name","properties":{"name":"EPSG:4326"}},"features":[{"type":"Feature","geometry":{"type":"Point","coordinates":[140.4475632,39.0503031]},"properties":{"id":101281046,"name":"横堀","name_kana":"","ofc_cd":82,"sys_id":1,"sys_cam_id":"1281046","pause":0,"date_type":0,"cam_kind":4,"own_cd":1281}},{"type":"Feature","geometry":{"type":"Point","coordinates":[140.5274702,38.9632794]},"properties":{"id":101281047,"name":"湯ノ岱","name_kana":"","ofc_cd":82,"sys_id":1,"sys_cam_id":"1281047","pause":0,"date_type":0,"cam_kind":4,"own_cd":1281}},{"type":"Feature","geometry":{"type":"Point","coordinates":[140.434083,39.056731]},"properties":{"id":101281056,"name":"下院内","name_kana":"","ofc_cd":82,"sys_id":1,"sys_cam_id":"1281056","pause":0,"date_type":0,"cam_kind":4,"own_cd":1281}},{"type":"Feature","geometry":{"type":"Point","coordinates":[140.452998,39.194298]},"properties":{"id":121044146,"name":"京塚橋付近（雄物川右岸96.9k）","name_kana":"きょうづかばしふきん（おものがわうがん96.9k）","ofc_cd":82,"sys_id":1,"sys_cam_id":"21044146","pause":0,"date_type":2,"cam_kind":4,"own_cd":21044}},{"type":"Feature","geometry":{"type":"Point","coordinates":[140.443379,39.215196]},"properties":{"id":121044162,"name":"白子川合流点付近（雄物川右岸94.6k）","name_kana":"しらこがわごうりゅうてんふきん（おものがわうがん94.6k）","ofc_cd":82,"sys_id":1,"sys_cam_id":"21044162","pause":0,"date_type":2,"cam_kind":4,"own_cd":21044}},{"type":"Feature","geometry":{"type":"Point","coordinates":[140.449671,39.198121]},"properties":{"id":121044163,"name":"京塚橋付近（雄物川左岸96.6k）","name_kana":"きょうづかばしふきん（おものがわさがん96.6k）","ofc_cd":82,"sys_id":1,"sys_cam_id":"21044163","pause":0,"date_type":2,"cam_kind":4,"own_cd":21044}},{"type":"Feature","geometry":{"type":"Point","coordinates":[140.478992,39.112402]},"properties":{"id":121044164,"name":"山田頭首工付近（雄物川右岸107.2k）","name_kana":"やまだとうしゅこうふきん（おものがわうがん107.2k）","ofc_cd":82,"sys_id":1,"sys_cam_id":"21044164","pause":0,"date_type":2,"cam_kind":4,"own_cd":21044}},{"type":"Feature","geometry":{"type":"Point","coordinates":[140.469342,39.091138]},"properties":{"id":121044165,"name":"泉沢橋付近（雄物川左岸110.0k）","name_kana":"いずみさわばしふきん（おものがわさがん110.0k）","ofc_cd":82,"sys_id":1,"sys_cam_id":"21044165","pause":0,"date_type":2,"cam_kind":4,"own_cd":21044}},{"type":"Feature","geometry":{"type":"Point","coordinates":[140.450812,39.070938]},"properties":{"id":121044166,"name":"岩館観測所付近（雄物川右岸112.6k）","name_kana":"いわだてかんそくじょふきん（おものがわうがん112.6k）","ofc_cd":82,"sys_id":1,"sys_cam_id":"21044166","pause":0,"date_type":2,"cam_kind":4,"own_cd":21044}},{"type":"Feature","geometry":{"type":"Point","coordinates":[140.446562,39.217807]},"properties":{"id":121044169,"name":"皆瀬川合流点付近（皆瀬川左岸0.4k）","name_kana":"みなせがわごうりゅうてんふきん（みなせがわさがん0.4k）","ofc_cd":82,"sys_id":1,"sys_cam_id":"21044169","pause":0,"date_type":2,"cam_kind":4,"own_cd":21044}},{"type":"Feature","geometry":{"type":"Point","coordinates":[140.473118,39.16439]},"properties":{"id":121044173,"name":"文月橋付近（雄物川左岸101.3k）","name_kana":"ふみづきばしふきん（おものがわさがん101.3k）","ofc_cd":82,"sys_id":1,"sys_cam_id":"21044173","pause":0,"date_type":2,"cam_kind":4,"own_cd":21044}},{"type":"Feature","geometry":{"type":"Point","coordinates":[140.473946,39.160063]},"properties":{"id":121044174,"name":"山田字松ノ木（雄物川左岸101.8k）","name_kana":"やまだあざまつのき（おものがわさがん101.8k）","ofc_cd":82,"sys_id":1,"sys_cam_id":"21044174","pause":0,"date_type":2,"cam_kind":4,"own_cd":21044}},{"type":"Feature","geometry":{"type":"Point","coordinates":[140.452223,39.189723]},"properties":{"id":221044004,"name":"柳田橋水位観測所","name_kana":"","ofc_cd":82,"sys_id":2,"sys_cam_id":"21044013","pause":0,"date_type":0,"cam_kind":2,"own_cd":21044}},{"type":"Feature","geometry":{"type":"Point","coordinates":[140.454167,39.075557]},"properties":{"id":221044005,"name":"岩館水位観測所","name_kana":"","ofc_cd":82,"sys_id":2,"sys_cam_id":"21044006","pause":0,"date_type":0,"cam_kind":2,"own_cd":21044}},{"type":"Feature","geometry":{"type":"Point","coordinates":[140.483889,39.148333]},"properties":{"id":221044009,"name":"松沢川排水樋管","name_kana":"","ofc_cd":82,"sys_id":2,"sys_cam_id":"21044005","pause":0,"date_type":0,"cam_kind":2,"own_cd":21044}},{"type":"Feature","geometry":{"type":"Point","coordinates":[140.481111,39.137222]},"properties":{"id":221044019,"name":"湯沢統合堰（上流右岸）","name_kana":"","ofc_cd":82,"sys_id":2,"sys_cam_id":"21044018","pause":0,"date_type":0,"cam_kind":2,"own_cd":21044}},{"type":"Feature","geometry":{"type":"Point","coordinates":[140.479723,39.091114]},"properties":{"id":221044020,"name":"高松川合流点","name_kana":"","ofc_cd":82,"sys_id":2,"sys_cam_id":"21044019","pause":0,"date_type":0,"cam_kind":2,"own_cd":21044}}]}