{"type":"FeatureCollection","crs":{"type":"name","properties":{"name":"EPSG:4326"}},"features":[{"type":"Feature","geometry":{"type":"Point","coordinates":[143.991671111,43.647777778]},"properties":{"id":100257414,"name":"網走川  10.3Kp","name_kana":"","ofc_cd":81,"sys_id":1,"sys_cam_id":"257414","pause":0,"date_type":2,"cam_kind":4,"own_cd":257}},{"type":"Feature","geometry":{"type":"Point","coordinates":[144.040528,43.740583]},"properties":{"id":120736087,"name":"網走川KP43.4左岸堤外カメラ","name_kana":"","ofc_cd":81,"sys_id":1,"sys_cam_id":"20736087","pause":0,"date_type":2,"cam_kind":4,"own_cd":23337}},{"type":"Feature","geometry":{"type":"Point","coordinates":[144.04058333,43.74063889]},"properties":{"id":120736088,"name":"網走川KP43.4左岸堤内カメラ","name_kana":"","ofc_cd":81,"sys_id":1,"sys_cam_id":"20736088","pause":0,"date_type":2,"cam_kind":4,"own_cd":23337}},{"type":"Feature","geometry":{"type":"Point","coordinates":[144.032803,43.736175]},"properties":{"id":120736089,"name":"網走川KP44.8左岸堤内カメラ","name_kana":"","ofc_cd":81,"sys_id":1,"sys_cam_id":"20736089","pause":0,"date_type":2,"cam_kind":4,"own_cd":23337}},{"type":"Feature","geometry":{"type":"Point","coordinates":[144.033358334,43.736730556]},"properties":{"id":120736090,"name":"網走川KP44.8左岸堤外カメラ","name_kana":"","ofc_cd":81,"sys_id":1,"sys_cam_id":"20736090","pause":0,"date_type":2,"cam_kind":4,"own_cd":23337}},{"type":"Feature","geometry":{"type":"Point","coordinates":[144.01136389,43.705033]},"properties":{"id":120736091,"name":"網走川KP49.6左岸堤内カメラ","name_kana":"","ofc_cd":81,"sys_id":1,"sys_cam_id":"20736091","pause":0,"date_type":2,"cam_kind":4,"own_cd":23337}},{"type":"Feature","geometry":{"type":"Point","coordinates":[144.01143611,43.70508889]},"properties":{"id":120736092,"name":"網走川KP49.6左岸堤外カメラ","name_kana":"","ofc_cd":81,"sys_id":1,"sys_cam_id":"20736092","pause":0,"date_type":2,"cam_kind":4,"own_cd":23337}},{"type":"Feature","geometry":{"type":"Point","coordinates":[144.008375,43.7110056]},"properties":{"id":223337011,"name":"網走川　48.4kp　津別観測所","name_kana":"あばしりがわ　48.4kp　つべつかんそくじょ","ofc_cd":81,"sys_id":2,"sys_cam_id":"23337011","pause":0,"date_type":0,"cam_kind":3,"own_cd":23337}},{"type":"Feature","geometry":{"type":"Point","coordinates":[144.05425,43.751528]},"properties":{"id":223337042,"name":"網走川　41.5kp　活汲橋","name_kana":"あばしりがわ　41.5kp　かつくみばし","ofc_cd":81,"sys_id":2,"sys_cam_id":"23337042","pause":0,"date_type":0,"cam_kind":2,"own_cd":23337}},{"type":"Feature","geometry":{"type":"Point","coordinates":[144.017722,43.726972]},"properties":{"id":223337043,"name":"網走川　46.6kp　達美橋","name_kana":"あばしりがわ　46.6kp　たつみばし","ofc_cd":81,"sys_id":2,"sys_cam_id":"23337043","pause":0,"date_type":0,"cam_kind":2,"own_cd":23337}}]}