{"type":"FeatureCollection","crs":{"type":"name","properties":{"name":"EPSG:4326"}},"features":[{"type":"Feature","geometry":{"type":"Point","coordinates":[138.397189,36.758422]},"properties":{"id":105121160,"name":"竹原","name_kana":"たけはら","ofc_cd":84,"sys_id":1,"sys_cam_id":"5121160","pause":0,"date_type":1,"cam_kind":4,"own_cd":5121}},{"type":"Feature","geometry":{"type":"Point","coordinates":[138.348883,36.716686]},"properties":{"id":105121164,"name":"三ツ和大橋","name_kana":"みつわおおはし","ofc_cd":84,"sys_id":1,"sys_cam_id":"5121164","pause":0,"date_type":1,"cam_kind":4,"own_cd":5121}},{"type":"Feature","geometry":{"type":"Point","coordinates":[138.315226,36.787459]},"properties":{"id":105121166,"name":"穴田大橋","name_kana":"あなだおおばし","ofc_cd":84,"sys_id":1,"sys_cam_id":"5121166","pause":0,"date_type":1,"cam_kind":4,"own_cd":5121}},{"type":"Feature","geometry":{"type":"Point","coordinates":[138.317578,36.747931]},"properties":{"id":105121169,"name":"上今井","name_kana":"かみいまい","ofc_cd":84,"sys_id":1,"sys_cam_id":"5121169","pause":0,"date_type":1,"cam_kind":4,"own_cd":5121}},{"type":"Feature","geometry":{"type":"Point","coordinates":[138.344704,36.724004]},"properties":{"id":105121185,"name":"土腐橋","name_kana":"どぶばし","ofc_cd":84,"sys_id":1,"sys_cam_id":"5121185","pause":0,"date_type":1,"cam_kind":4,"own_cd":5121}},{"type":"Feature","geometry":{"type":"Point","coordinates":[138.324674,36.770987]},"properties":{"id":105121293,"name":"替佐（斑尾川）","name_kana":"かえさ（まだらおがわ）","ofc_cd":84,"sys_id":1,"sys_cam_id":"5121293","pause":0,"date_type":1,"cam_kind":4,"own_cd":5121}},{"type":"Feature","geometry":{"type":"Point","coordinates":[138.359861111,36.828833333]},"properties":{"id":121504014,"name":"千曲川（Ｒ36ｋ）","name_kana":"","ofc_cd":84,"sys_id":1,"sys_cam_id":"21504014","pause":0,"date_type":0,"cam_kind":4,"own_cd":21545}},{"type":"Feature","geometry":{"type":"Point","coordinates":[138.30986222,36.73000944]},"properties":{"id":121545081,"name":"千曲川(R51.5kp) 中野市立ヶ花","name_kana":"","ofc_cd":84,"sys_id":1,"sys_cam_id":"21545081","pause":0,"date_type":1,"cam_kind":4,"own_cd":21545}},{"type":"Feature","geometry":{"type":"Point","coordinates":[138.3366667,36.7797194]},"properties":{"id":221545024,"name":"笠倉","name_kana":"","ofc_cd":84,"sys_id":2,"sys_cam_id":"20010024","pause":0,"date_type":0,"cam_kind":3,"own_cd":21545}},{"type":"Feature","geometry":{"type":"Point","coordinates":[138.3266639,36.767775]},"properties":{"id":221545025,"name":"替佐","name_kana":"","ofc_cd":84,"sys_id":2,"sys_cam_id":"20010025","pause":0,"date_type":0,"cam_kind":3,"own_cd":21545}},{"type":"Feature","geometry":{"type":"Point","coordinates":[138.3249167,36.7497472]},"properties":{"id":221545026,"name":"上今井橋","name_kana":"","ofc_cd":84,"sys_id":2,"sys_cam_id":"20010026","pause":0,"date_type":0,"cam_kind":3,"own_cd":21545}},{"type":"Feature","geometry":{"type":"Point","coordinates":[138.3124194,36.740025]},"properties":{"id":221545027,"name":"栗林","name_kana":"","ofc_cd":84,"sys_id":2,"sys_cam_id":"20010027","pause":0,"date_type":0,"cam_kind":3,"own_cd":21545}},{"type":"Feature","geometry":{"type":"Point","coordinates":[138.3097472,36.731925]},"properties":{"id":221545028,"name":"立ヶ花橋","name_kana":"","ofc_cd":84,"sys_id":2,"sys_cam_id":"20010028","pause":0,"date_type":0,"cam_kind":3,"own_cd":21545}}]}