{"type":"FeatureCollection","crs":{"type":"name","properties":{"name":"EPSG:4326"}},"features":[{"type":"Feature","geometry":{"type":"Point","coordinates":[134.9858333,34.67166667]},"properties":{"id":107174001,"name":"今津","name_kana":"いまづ","ofc_cd":86,"sys_id":1,"sys_cam_id":"7174001","pause":0,"date_type":1,"cam_kind":4,"own_cd":7174}},{"type":"Feature","geometry":{"type":"Point","coordinates":[134.9897222,34.65805556]},"properties":{"id":107174002,"name":"上池","name_kana":"かみいけ","ofc_cd":86,"sys_id":1,"sys_cam_id":"7174002","pause":0,"date_type":1,"cam_kind":4,"own_cd":7174}},{"type":"Feature","geometry":{"type":"Point","coordinates":[135.0433333,34.6875]},"properties":{"id":107174003,"name":"伊川谷","name_kana":"いかわだに","ofc_cd":86,"sys_id":1,"sys_cam_id":"7174003","pause":0,"date_type":1,"cam_kind":4,"own_cd":7174}},{"type":"Feature","geometry":{"type":"Point","coordinates":[135.0377778,34.71722222]},"properties":{"id":107174004,"name":"福谷","name_kana":"ふくたに","ofc_cd":86,"sys_id":1,"sys_cam_id":"7174004","pause":0,"date_type":1,"cam_kind":4,"own_cd":7174}},{"type":"Feature","geometry":{"type":"Point","coordinates":[135.2669444,34.72]},"properties":{"id":107174005,"name":"住吉","name_kana":"すみよし","ofc_cd":86,"sys_id":1,"sys_cam_id":"7174005","pause":0,"date_type":1,"cam_kind":4,"own_cd":7174}},{"type":"Feature","geometry":{"type":"Point","coordinates":[135.2894444,34.73222222]},"properties":{"id":107174006,"name":"森北","name_kana":"もりきた","ofc_cd":86,"sys_id":1,"sys_cam_id":"7174006","pause":0,"date_type":1,"cam_kind":4,"own_cd":7174}},{"type":"Feature","geometry":{"type":"Point","coordinates":[135.0694444,34.64916667]},"properties":{"id":107174007,"name":"名谷","name_kana":"みょうだに","ofc_cd":86,"sys_id":1,"sys_cam_id":"7174007","pause":0,"date_type":1,"cam_kind":4,"own_cd":7174}},{"type":"Feature","geometry":{"type":"Point","coordinates":[135.1513889,34.66277778]},"properties":{"id":107174008,"name":"御蔵橋","name_kana":"みくらばし","ofc_cd":86,"sys_id":1,"sys_cam_id":"7174008","pause":0,"date_type":1,"cam_kind":4,"own_cd":7174}},{"type":"Feature","geometry":{"type":"Point","coordinates":[135.132407,34.766327]},"properties":{"id":107174009,"name":"志染川","name_kana":"しじみがわ","ofc_cd":86,"sys_id":1,"sys_cam_id":"7174009","pause":0,"date_type":1,"cam_kind":4,"own_cd":7174}},{"type":"Feature","geometry":{"type":"Point","coordinates":[135.234034,34.703074]},"properties":{"id":107174010,"name":"都賀川カメラ１","name_kana":"とががわかめら1","ofc_cd":86,"sys_id":1,"sys_cam_id":"7174010","pause":0,"date_type":1,"cam_kind":4,"own_cd":7174}},{"type":"Feature","geometry":{"type":"Point","coordinates":[135.232691,34.70609]},"properties":{"id":107174011,"name":"都賀川カメラ２","name_kana":"とががわかめら2","ofc_cd":86,"sys_id":1,"sys_cam_id":"7174011","pause":0,"date_type":1,"cam_kind":4,"own_cd":7174}},{"type":"Feature","geometry":{"type":"Point","coordinates":[135.231207,34.708042]},"properties":{"id":107174012,"name":"都賀川カメラ３","name_kana":"とががわかめら3","ofc_cd":86,"sys_id":1,"sys_cam_id":"7174012","pause":0,"date_type":1,"cam_kind":4,"own_cd":7174}},{"type":"Feature","geometry":{"type":"Point","coordinates":[135.23057,34.70999]},"properties":{"id":107174013,"name":"都賀川カメラ４","name_kana":"とががわかめら4","ofc_cd":86,"sys_id":1,"sys_cam_id":"7174013","pause":0,"date_type":1,"cam_kind":4,"own_cd":7174}},{"type":"Feature","geometry":{"type":"Point","coordinates":[135.229481,34.711691]},"properties":{"id":107174014,"name":"都賀川カメラ５","name_kana":"とががわかめら5","ofc_cd":86,"sys_id":1,"sys_cam_id":"7174014","pause":0,"date_type":1,"cam_kind":4,"own_cd":7174}},{"type":"Feature","geometry":{"type":"Point","coordinates":[135.227987,34.714213]},"properties":{"id":107174015,"name":"都賀川カメラ６","name_kana":"とががわかめら6","ofc_cd":86,"sys_id":1,"sys_cam_id":"7174015","pause":0,"date_type":1,"cam_kind":4,"own_cd":7174}},{"type":"Feature","geometry":{"type":"Point","coordinates":[135.163311,34.683806]},"properties":{"id":207174001,"name":"新湊川菊水橋","name_kana":"しんみなとがわきくすいばし","ofc_cd":28,"sys_id":3,"sys_cam_id":"7174001","pause":0,"date_type":1,"cam_kind":2,"own_cd":7174}},{"type":"Feature","geometry":{"type":"Point","coordinates":[135.1038889,34.6436111]},"properties":{"id":222057008,"name":"赤旗堰堤","name_kana":"","ofc_cd":86,"sys_id":2,"sys_cam_id":"22057008","pause":0,"date_type":0,"cam_kind":2,"own_cd":22057}},{"type":"Feature","geometry":{"type":"Point","coordinates":[135.1719444,34.6944444]},"properties":{"id":222057009,"name":"楠谷堰堤","name_kana":"","ofc_cd":86,"sys_id":2,"sys_cam_id":"22057009","pause":0,"date_type":0,"cam_kind":2,"own_cd":22057}},{"type":"Feature","geometry":{"type":"Point","coordinates":[135.2844444,34.7358333]},"properties":{"id":222057012,"name":"中野村谷川","name_kana":"","ofc_cd":86,"sys_id":2,"sys_cam_id":"22057012","pause":0,"date_type":0,"cam_kind":2,"own_cd":22057}},{"type":"Feature","geometry":{"type":"Point","coordinates":[135.0938889,34.6363889]},"properties":{"id":222057013,"name":"堺川堰堤","name_kana":"","ofc_cd":86,"sys_id":2,"sys_cam_id":"22057013","pause":0,"date_type":0,"cam_kind":2,"own_cd":22057}},{"type":"Feature","geometry":{"type":"Point","coordinates":[135.1916667,34.7613889]},"properties":{"id":222057014,"name":"花山堰堤","name_kana":"","ofc_cd":86,"sys_id":2,"sys_cam_id":"22057014","pause":0,"date_type":0,"cam_kind":2,"own_cd":22057}},{"type":"Feature","geometry":{"type":"Point","coordinates":[135.251944444,34.741944444]},"properties":{"id":222057015,"name":"焼ヶ原堰堤","name_kana":"","ofc_cd":86,"sys_id":2,"sys_cam_id":"22057015","pause":0,"date_type":0,"cam_kind":2,"own_cd":22057}},{"type":"Feature","geometry":{"type":"Point","coordinates":[135.2477778,34.7425]},"properties":{"id":222057017,"name":"千丈谷堰堤","name_kana":"","ofc_cd":86,"sys_id":2,"sys_cam_id":"22057017","pause":0,"date_type":0,"cam_kind":2,"own_cd":22057}},{"type":"Feature","geometry":{"type":"Point","coordinates":[135.2588889,34.7422222]},"properties":{"id":222057018,"name":"東谷堰堤","name_kana":"","ofc_cd":86,"sys_id":2,"sys_cam_id":"22057018","pause":0,"date_type":0,"cam_kind":2,"own_cd":22057}},{"type":"Feature","geometry":{"type":"Point","coordinates":[135.2569444,34.7444444]},"properties":{"id":222057019,"name":"荒神山堰堤","name_kana":"","ofc_cd":86,"sys_id":2,"sys_cam_id":"22057019","pause":0,"date_type":0,"cam_kind":2,"own_cd":22057}},{"type":"Feature","geometry":{"type":"Point","coordinates":[135.1863889,34.7191667]},"properties":{"id":222057022,"name":"新市ヶ原堰堤","name_kana":"","ofc_cd":86,"sys_id":2,"sys_cam_id":"22057022","pause":0,"date_type":0,"cam_kind":2,"own_cd":22057}},{"type":"Feature","geometry":{"type":"Point","coordinates":[135.1977778,34.7183333]},"properties":{"id":222057023,"name":"摺粉鉢堰堤","name_kana":"","ofc_cd":86,"sys_id":2,"sys_cam_id":"22057023","pause":0,"date_type":0,"cam_kind":2,"own_cd":22057}},{"type":"Feature","geometry":{"type":"Point","coordinates":[135.19,34.7063889]},"properties":{"id":222057024,"name":"桜谷第二堰堤","name_kana":"","ofc_cd":86,"sys_id":2,"sys_cam_id":"22057024","pause":0,"date_type":0,"cam_kind":2,"own_cd":22057}},{"type":"Feature","geometry":{"type":"Point","coordinates":[135.1966667,34.7113889]},"properties":{"id":222057025,"name":"苧川谷堰堤","name_kana":"","ofc_cd":86,"sys_id":2,"sys_cam_id":"22057025","pause":0,"date_type":0,"cam_kind":2,"own_cd":22057}},{"type":"Feature","geometry":{"type":"Point","coordinates":[135.1925,34.7066667]},"properties":{"id":222057026,"name":"合の谷第二堰提","name_kana":"","ofc_cd":86,"sys_id":2,"sys_cam_id":"22057026","pause":0,"date_type":0,"cam_kind":2,"own_cd":22057}},{"type":"Feature","geometry":{"type":"Point","coordinates":[135.1363889,34.6922222]},"properties":{"id":222057027,"name":"檜川堰堤下流","name_kana":"","ofc_cd":86,"sys_id":2,"sys_cam_id":"22057027","pause":0,"date_type":0,"cam_kind":2,"own_cd":22057}},{"type":"Feature","geometry":{"type":"Point","coordinates":[135.1422222,34.6794444]},"properties":{"id":222057028,"name":"美ノ谷堰堤","name_kana":"","ofc_cd":86,"sys_id":2,"sys_cam_id":"22057028","pause":0,"date_type":0,"cam_kind":2,"own_cd":22057}},{"type":"Feature","geometry":{"type":"Point","coordinates":[135.165,34.6969444]},"properties":{"id":222057029,"name":"天王谷堰堤","name_kana":"","ofc_cd":86,"sys_id":2,"sys_cam_id":"22057029","pause":0,"date_type":0,"cam_kind":2,"own_cd":22057}},{"type":"Feature","geometry":{"type":"Point","coordinates":[135.2088889,34.7188889]},"properties":{"id":222057030,"name":"亀ノ滝堰堤","name_kana":"","ofc_cd":86,"sys_id":2,"sys_cam_id":"22057030","pause":0,"date_type":0,"cam_kind":2,"own_cd":22057}},{"type":"Feature","geometry":{"type":"Point","coordinates":[135.2119444,34.7183333]},"properties":{"id":222057031,"name":"城下堰堤","name_kana":"","ofc_cd":86,"sys_id":2,"sys_cam_id":"22057031","pause":0,"date_type":0,"cam_kind":2,"own_cd":22057}},{"type":"Feature","geometry":{"type":"Point","coordinates":[135.2466667,34.7325]},"properties":{"id":222057032,"name":"大仏第二堰堤","name_kana":"","ofc_cd":86,"sys_id":2,"sys_cam_id":"22057032","pause":0,"date_type":0,"cam_kind":2,"own_cd":22057}},{"type":"Feature","geometry":{"type":"Point","coordinates":[135.237777778,34.7375]},"properties":{"id":222057033,"name":"鶴甲","name_kana":"","ofc_cd":86,"sys_id":2,"sys_cam_id":"22057033","pause":0,"date_type":0,"cam_kind":2,"own_cd":22057}},{"type":"Feature","geometry":{"type":"Point","coordinates":[135.24,34.7319444]},"properties":{"id":222057034,"name":"一王堰堤","name_kana":"","ofc_cd":86,"sys_id":2,"sys_cam_id":"22057034","pause":0,"date_type":0,"cam_kind":2,"own_cd":22057}},{"type":"Feature","geometry":{"type":"Point","coordinates":[135.2194444,34.7275]},"properties":{"id":222057036,"name":"杣谷堰堤","name_kana":"","ofc_cd":86,"sys_id":2,"sys_cam_id":"22057036","pause":0,"date_type":0,"cam_kind":2,"own_cd":22057}},{"type":"Feature","geometry":{"type":"Point","coordinates":[135.2258333,34.7294444]},"properties":{"id":222057037,"name":"大月堰堤","name_kana":"","ofc_cd":86,"sys_id":2,"sys_cam_id":"22057037","pause":0,"date_type":0,"cam_kind":2,"own_cd":22057}},{"type":"Feature","geometry":{"type":"Point","coordinates":[135.2344444,34.7383333]},"properties":{"id":222057038,"name":"六甲ケーブル","name_kana":"","ofc_cd":86,"sys_id":2,"sys_cam_id":"22057038","pause":0,"date_type":0,"cam_kind":2,"own_cd":22057}},{"type":"Feature","geometry":{"type":"Point","coordinates":[135.23,34.7388889]},"properties":{"id":222057039,"name":"宮坂堰堤上流","name_kana":"","ofc_cd":86,"sys_id":2,"sys_cam_id":"22057039","pause":0,"date_type":0,"cam_kind":2,"own_cd":22057}},{"type":"Feature","geometry":{"type":"Point","coordinates":[135.1175,34.6555556]},"properties":{"id":222057043,"name":"水野堰堤","name_kana":"","ofc_cd":86,"sys_id":2,"sys_cam_id":"22057043","pause":0,"date_type":0,"cam_kind":2,"own_cd":22057}},{"type":"Feature","geometry":{"type":"Point","coordinates":[135.25,34.7872222]},"properties":{"id":222057044,"name":"射場山堰堤","name_kana":"","ofc_cd":86,"sys_id":2,"sys_cam_id":"22057044","pause":0,"date_type":0,"cam_kind":2,"own_cd":22057}},{"type":"Feature","geometry":{"type":"Point","coordinates":[135.2244444,34.7763889]},"properties":{"id":222057045,"name":"柴小場堰堤","name_kana":"","ofc_cd":86,"sys_id":2,"sys_cam_id":"22057045","pause":0,"date_type":0,"cam_kind":2,"own_cd":22057}},{"type":"Feature","geometry":{"type":"Point","coordinates":[135.0852778,34.6338889]},"properties":{"id":222061031,"name":"塩屋","name_kana":"","ofc_cd":86,"sys_id":2,"sys_cam_id":"22061031","pause":0,"date_type":0,"cam_kind":2,"own_cd":22061}},{"type":"Feature","geometry":{"type":"Point","coordinates":[135.15973,34.71763]},"properties":{"id":307174001,"name":"天王ダム上流","name_kana":"てんのうだむじょうりゅう","ofc_cd":28,"sys_id":3,"sys_cam_id":"7174002","pause":0,"date_type":1,"cam_kind":2,"own_cd":7174}},{"type":"Feature","geometry":{"type":"Point","coordinates":[135.16007,34.71689]},"properties":{"id":307174002,"name":"天王ダム下流","name_kana":"てんのうだむかりゅう","ofc_cd":28,"sys_id":3,"sys_cam_id":"7174003","pause":0,"date_type":1,"cam_kind":2,"own_cd":7174}},{"type":"Feature","geometry":{"type":"Point","coordinates":[135.14649,34.70547]},"properties":{"id":307174003,"name":"石井ダム上流","name_kana":"いしいだむじょうりゅう","ofc_cd":28,"sys_id":3,"sys_cam_id":"7174004","pause":0,"date_type":1,"cam_kind":2,"own_cd":7174}},{"type":"Feature","geometry":{"type":"Point","coordinates":[135.14787,34.70359]},"properties":{"id":307174004,"name":"石井ダム下流","name_kana":"いしいだむかりゅう","ofc_cd":28,"sys_id":3,"sys_cam_id":"7174005","pause":0,"date_type":1,"cam_kind":2,"own_cd":7174}}]}