{"type":"FeatureCollection","crs":{"type":"name","properties":{"name":"EPSG:4326"}},"features":[{"type":"Feature","geometry":{"type":"Point","coordinates":[137.2475833,36.1554501]},"properties":{"id":105377037,"name":"苔川（岡本）","name_kana":"","ofc_cd":85,"sys_id":1,"sys_cam_id":"5377037","pause":0,"date_type":1,"cam_kind":4,"own_cd":5377}},{"type":"Feature","geometry":{"type":"Point","coordinates":[137.1613071,36.0983552]},"properties":{"id":105377038,"name":"川上川（福寄）","name_kana":"","ofc_cd":85,"sys_id":1,"sys_cam_id":"5377038","pause":0,"date_type":1,"cam_kind":4,"own_cd":5377}},{"type":"Feature","geometry":{"type":"Point","coordinates":[137.2456221,36.1667411]},"properties":{"id":105377072,"name":"宮川宮川大橋","name_kana":"","ofc_cd":85,"sys_id":1,"sys_cam_id":"5377072","pause":0,"date_type":1,"cam_kind":4,"own_cd":5377}},{"type":"Feature","geometry":{"type":"Point","coordinates":[137.2547401,36.1897301]},"properties":{"id":105377073,"name":"宮川天神橋上流","name_kana":"","ofc_cd":85,"sys_id":1,"sys_cam_id":"5377073","pause":0,"date_type":1,"cam_kind":4,"own_cd":5377}},{"type":"Feature","geometry":{"type":"Point","coordinates":[137.1995492,36.2163402]},"properties":{"id":105377074,"name":"宮川宇津江","name_kana":"","ofc_cd":85,"sys_id":1,"sys_cam_id":"5377074","pause":0,"date_type":1,"cam_kind":4,"own_cd":5377}},{"type":"Feature","geometry":{"type":"Point","coordinates":[137.5723639,36.2899833]},"properties":{"id":221558003,"name":"左俣谷１号堰堤","name_kana":"ひだりまたたにいちごうえんてい","ofc_cd":84,"sys_id":2,"sys_cam_id":"21558003","pause":0,"date_type":0,"cam_kind":3,"own_cd":21558}},{"type":"Feature","geometry":{"type":"Point","coordinates":[137.574475,36.28551944]},"properties":{"id":221558004,"name":"右俣・左俣谷合流点","name_kana":"みぎまた・ひだりまただにごうりゅうてん","ofc_cd":84,"sys_id":2,"sys_cam_id":"21558004","pause":0,"date_type":0,"cam_kind":3,"own_cd":21558}},{"type":"Feature","geometry":{"type":"Point","coordinates":[137.59774861,36.27975333]},"properties":{"id":221558007,"name":"小鍋谷８号堰堤","name_kana":"こなべたにはちごうえんてい","ofc_cd":84,"sys_id":2,"sys_cam_id":"21558007","pause":0,"date_type":0,"cam_kind":3,"own_cd":21558}},{"type":"Feature","geometry":{"type":"Point","coordinates":[137.5561972,36.20379444]},"properties":{"id":221558018,"name":"白谷６号堰堤","name_kana":"しらたにろくごうえんてい","ofc_cd":84,"sys_id":2,"sys_cam_id":"21558018","pause":0,"date_type":0,"cam_kind":3,"own_cd":21558}},{"type":"Feature","geometry":{"type":"Point","coordinates":[137.55849083,36.17939389]},"properties":{"id":221558021,"name":"滝谷上流（平湯大滝）","name_kana":"たきだにじょうりゅう","ofc_cd":84,"sys_id":2,"sys_cam_id":"21558021","pause":0,"date_type":0,"cam_kind":3,"own_cd":21558}},{"type":"Feature","geometry":{"type":"Point","coordinates":[137.52440667,36.23743361]},"properties":{"id":221558022,"name":"しのぶ堰堤","name_kana":"しのぶえんてい","ofc_cd":84,"sys_id":2,"sys_cam_id":"21558022","pause":0,"date_type":0,"cam_kind":3,"own_cd":21558}},{"type":"Feature","geometry":{"type":"Point","coordinates":[137.5518186,36.25603861]},"properties":{"id":221558024,"name":"地獄平堰堤","name_kana":"じごくだいらえんてい","ofc_cd":84,"sys_id":2,"sys_cam_id":"21558024","pause":0,"date_type":0,"cam_kind":3,"own_cd":21558}},{"type":"Feature","geometry":{"type":"Point","coordinates":[137.5081575,36.24799056]},"properties":{"id":221558025,"name":"蒲田・平湯川合流点","name_kana":"がまだ・ひらゆがわごうりゅうてん","ofc_cd":84,"sys_id":2,"sys_cam_id":"21558025","pause":0,"date_type":0,"cam_kind":3,"own_cd":21558}},{"type":"Feature","geometry":{"type":"Point","coordinates":[137.36641917,36.29490278]},"properties":{"id":221558029,"name":"双六川合流点","name_kana":"すごろくがわごうりゅうてん","ofc_cd":84,"sys_id":2,"sys_cam_id":"21558029","pause":0,"date_type":0,"cam_kind":3,"own_cd":21558}}]}