{"type":"FeatureCollection","crs":{"type":"name","properties":{"name":"EPSG:4326"}},"features":[{"type":"Feature","geometry":{"type":"Point","coordinates":[139.9346,35.718331]},"properties":{"id":103073006,"name":"鬼越","name_kana":"","ofc_cd":83,"sys_id":1,"sys_cam_id":"3073006","pause":0,"date_type":2,"cam_kind":4,"own_cd":3073}},{"type":"Feature","geometry":{"type":"Point","coordinates":[139.919582,35.734956]},"properties":{"id":103073087,"name":"須和田橋","name_kana":"","ofc_cd":83,"sys_id":1,"sys_cam_id":"3073087","pause":0,"date_type":2,"cam_kind":4,"own_cd":3073}},{"type":"Feature","geometry":{"type":"Point","coordinates":[139.92834,35.70296]},"properties":{"id":221279012,"name":"千葉県市川市田尻　新行徳橋下流","name_kana":"","ofc_cd":83,"sys_id":2,"sys_cam_id":"12010008","pause":0,"date_type":0,"cam_kind":2,"own_cd":21279}},{"type":"Feature","geometry":{"type":"Point","coordinates":[139.891811,35.750864]},"properties":{"id":221279044,"name":"千葉県松戸市栗山　柳原水門屋上","name_kana":"","ofc_cd":83,"sys_id":2,"sys_cam_id":"21279026","pause":0,"date_type":0,"cam_kind":2,"own_cd":21279}},{"type":"Feature","geometry":{"type":"Point","coordinates":[139.899336,35.727633]},"properties":{"id":221279046,"name":"千葉県市川市市川南","name_kana":"","ofc_cd":83,"sys_id":2,"sys_cam_id":"21279028","pause":0,"date_type":0,"cam_kind":2,"own_cd":21279}},{"type":"Feature","geometry":{"type":"Point","coordinates":[139.905706,35.719355]},"properties":{"id":221279047,"name":"千葉県市川市大洲","name_kana":"","ofc_cd":83,"sys_id":2,"sys_cam_id":"21279029","pause":0,"date_type":0,"cam_kind":2,"own_cd":21279}},{"type":"Feature","geometry":{"type":"Point","coordinates":[139.924161,35.700612]},"properties":{"id":221279054,"name":"千葉県市川市河原　行徳可動堰下流（右）","name_kana":"","ofc_cd":83,"sys_id":2,"sys_cam_id":"21279036","pause":0,"date_type":0,"cam_kind":2,"own_cd":21279}},{"type":"Feature","geometry":{"type":"Point","coordinates":[139.926346,35.704026]},"properties":{"id":221279055,"name":"千葉県市川市稲荷木　行徳可動堰下流","name_kana":"","ofc_cd":83,"sys_id":2,"sys_cam_id":"21279037","pause":0,"date_type":0,"cam_kind":2,"own_cd":21279}},{"type":"Feature","geometry":{"type":"Point","coordinates":[139.929479,35.697544]},"properties":{"id":221279056,"name":"千葉県市川市妙典２丁目","name_kana":"","ofc_cd":83,"sys_id":2,"sys_cam_id":"21279038","pause":0,"date_type":0,"cam_kind":2,"own_cd":21279}},{"type":"Feature","geometry":{"type":"Point","coordinates":[139.933942,35.698885]},"properties":{"id":221279057,"name":"千葉県市川市田尻","name_kana":"","ofc_cd":83,"sys_id":2,"sys_cam_id":"21279039","pause":0,"date_type":0,"cam_kind":2,"own_cd":21279}},{"type":"Feature","geometry":{"type":"Point","coordinates":[139.932261,35.694253]},"properties":{"id":221279058,"name":"千葉県市川市妙典６丁目","name_kana":"","ofc_cd":83,"sys_id":2,"sys_cam_id":"21279040","pause":0,"date_type":0,"cam_kind":2,"own_cd":21279}},{"type":"Feature","geometry":{"type":"Point","coordinates":[139.940766,35.689788]},"properties":{"id":221279059,"name":"千葉県市川市高谷","name_kana":"","ofc_cd":83,"sys_id":2,"sys_cam_id":"21279041","pause":0,"date_type":0,"cam_kind":2,"own_cd":21279}},{"type":"Feature","geometry":{"type":"Point","coordinates":[139.945704,35.682404]},"properties":{"id":221279060,"name":"千葉県市川市上妙典　妙典水位観測所","name_kana":"","ofc_cd":83,"sys_id":2,"sys_cam_id":"21279042","pause":0,"date_type":0,"cam_kind":2,"own_cd":21279}}]}