{"type":"FeatureCollection","crs":{"type":"name","properties":{"name":"EPSG:4326"}},"features":[{"type":"Feature","geometry":{"type":"Point","coordinates":[140.3616761,40.2316]},"properties":{"id":101281010,"name":"田中","name_kana":"","ofc_cd":82,"sys_id":1,"sys_cam_id":"1281010","pause":0,"date_type":0,"cam_kind":4,"own_cd":1281}},{"type":"Feature","geometry":{"type":"Point","coordinates":[140.3999446,40.1730077]},"properties":{"id":101281011,"name":"七日市","name_kana":"","ofc_cd":82,"sys_id":1,"sys_cam_id":"1281011","pause":0,"date_type":0,"cam_kind":4,"own_cd":1281}},{"type":"Feature","geometry":{"type":"Point","coordinates":[140.3680846,40.1221745]},"properties":{"id":101281012,"name":"米内沢","name_kana":"","ofc_cd":82,"sys_id":1,"sys_cam_id":"1281012","pause":0,"date_type":0,"cam_kind":4,"own_cd":1281}},{"type":"Feature","geometry":{"type":"Point","coordinates":[140.356302,40.209505]},"properties":{"id":121045323,"name":"北秋田市脇神（米代川左岸43.2k）","name_kana":"きたあきたしわきがみ（よねしろがわさがん43.2k)","ofc_cd":82,"sys_id":1,"sys_cam_id":"21045323","pause":0,"date_type":2,"cam_kind":4,"own_cd":21045}},{"type":"Feature","geometry":{"type":"Point","coordinates":[140.358685,40.21567]},"properties":{"id":121045324,"name":"北秋田市鷹巣（米代川右岸43.8k）","name_kana":"きたあきたしたかのす（よねしろがわうがん43.8k)","ofc_cd":82,"sys_id":1,"sys_cam_id":"21045324","pause":0,"date_type":2,"cam_kind":4,"own_cd":21045}},{"type":"Feature","geometry":{"type":"Point","coordinates":[140.320548,40.216293]},"properties":{"id":221045008,"name":"坊沢排水樋管","name_kana":"","ofc_cd":82,"sys_id":2,"sys_cam_id":"21045022","pause":0,"date_type":0,"cam_kind":2,"own_cd":21045}},{"type":"Feature","geometry":{"type":"Point","coordinates":[140.369583,40.219972]},"properties":{"id":221045009,"name":"鷹巣水位観測所","name_kana":"","ofc_cd":82,"sys_id":2,"sys_cam_id":"21045019","pause":0,"date_type":0,"cam_kind":2,"own_cd":21045}},{"type":"Feature","geometry":{"type":"Point","coordinates":[140.391083,40.233333]},"properties":{"id":221045010,"name":"栄橋","name_kana":"","ofc_cd":82,"sys_id":2,"sys_cam_id":"21045017","pause":0,"date_type":0,"cam_kind":2,"own_cd":21045}},{"type":"Feature","geometry":{"type":"Point","coordinates":[140.44704166,40.27011944]},"properties":{"id":221045011,"name":"外川原橋","name_kana":"そとかわはらばし","ofc_cd":82,"sys_id":2,"sys_cam_id":"21045014","pause":0,"date_type":0,"cam_kind":2,"own_cd":21045}},{"type":"Feature","geometry":{"type":"Point","coordinates":[140.391944,40.227361]},"properties":{"id":221045020,"name":"摩当川水門","name_kana":"","ofc_cd":82,"sys_id":2,"sys_cam_id":"21045015","pause":0,"date_type":0,"cam_kind":2,"own_cd":21045}},{"type":"Feature","geometry":{"type":"Point","coordinates":[140.360056,40.211556]},"properties":{"id":221045023,"name":"小猿部川合流点","name_kana":"","ofc_cd":82,"sys_id":2,"sys_cam_id":"21045021","pause":0,"date_type":0,"cam_kind":2,"own_cd":21045}},{"type":"Feature","geometry":{"type":"Point","coordinates":[140.336694,40.216778]},"properties":{"id":221045027,"name":"坊沢","name_kana":"","ofc_cd":82,"sys_id":2,"sys_cam_id":"21045027","pause":0,"date_type":0,"cam_kind":2,"own_cd":21045}},{"type":"Feature","geometry":{"type":"Point","coordinates":[140.454167,40.036111]},"properties":{"id":221045032,"name":"上流左岸","name_kana":"","ofc_cd":82,"sys_id":2,"sys_cam_id":"21045032","pause":0,"date_type":0,"cam_kind":2,"own_cd":21045}},{"type":"Feature","geometry":{"type":"Point","coordinates":[140.454167,40.036111]},"properties":{"id":221045033,"name":"上流右岸","name_kana":"","ofc_cd":82,"sys_id":2,"sys_cam_id":"21045033","pause":0,"date_type":0,"cam_kind":2,"own_cd":21045}},{"type":"Feature","geometry":{"type":"Point","coordinates":[140.454167,40.036111]},"properties":{"id":221045034,"name":"取水設備","name_kana":"","ofc_cd":82,"sys_id":2,"sys_cam_id":"21045034","pause":0,"date_type":0,"cam_kind":2,"own_cd":21045}},{"type":"Feature","geometry":{"type":"Point","coordinates":[140.454167,40.036111]},"properties":{"id":221045035,"name":"ダム下流監視","name_kana":"","ofc_cd":82,"sys_id":2,"sys_cam_id":"21045035","pause":0,"date_type":0,"cam_kind":2,"own_cd":21045}}]}