{"type":"FeatureCollection","crs":{"type":"name","properties":{"name":"EPSG:4326"}},"features":[{"type":"Feature","geometry":{"type":"Point","coordinates":[135.56606944,34.53159166]},"properties":{"id":106913049,"name":"堂之下橋","name_kana":"どうのしたはし","ofc_cd":86,"sys_id":1,"sys_cam_id":"6913049","pause":0,"date_type":2,"cam_kind":4,"own_cd":6913}},{"type":"Feature","geometry":{"type":"Point","coordinates":[135.544056,34.527603]},"properties":{"id":106913050,"name":"野田","name_kana":"のだ","ofc_cd":86,"sys_id":1,"sys_cam_id":"6913050","pause":0,"date_type":2,"cam_kind":4,"own_cd":6913}},{"type":"Feature","geometry":{"type":"Point","coordinates":[135.47606667,34.52050833]},"properties":{"id":106913051,"name":"万崎橋","name_kana":"","ofc_cd":86,"sys_id":1,"sys_cam_id":"6913051","pause":0,"date_type":2,"cam_kind":4,"own_cd":6913}},{"type":"Feature","geometry":{"type":"Point","coordinates":[135.46253889,34.552369]},"properties":{"id":106913052,"name":"戎橋","name_kana":"","ofc_cd":86,"sys_id":1,"sys_cam_id":"6913052","pause":0,"date_type":2,"cam_kind":4,"own_cd":6913}},{"type":"Feature","geometry":{"type":"Point","coordinates":[135.46689,34.540083]},"properties":{"id":106913057,"name":"津久野","name_kana":"","ofc_cd":86,"sys_id":1,"sys_cam_id":"6913057","pause":0,"date_type":2,"cam_kind":4,"own_cd":6913}},{"type":"Feature","geometry":{"type":"Point","coordinates":[135.476355,34.498604]},"properties":{"id":106913058,"name":"鳩塚橋","name_kana":"はとづかばし","ofc_cd":86,"sys_id":1,"sys_cam_id":"6913058","pause":0,"date_type":2,"cam_kind":4,"own_cd":6913}},{"type":"Feature","geometry":{"type":"Point","coordinates":[135.5075054,34.58568439]},"properties":{"id":106913108,"name":"上浅香橋","name_kana":"かみあさかばし","ofc_cd":86,"sys_id":1,"sys_cam_id":"6913108","pause":0,"date_type":2,"cam_kind":4,"own_cd":6913}},{"type":"Feature","geometry":{"type":"Point","coordinates":[135.513994,34.589134]},"properties":{"id":106913109,"name":"常盤橋","name_kana":"ときわばし","ofc_cd":86,"sys_id":1,"sys_cam_id":"6913109","pause":0,"date_type":2,"cam_kind":4,"own_cd":6913}},{"type":"Feature","geometry":{"type":"Point","coordinates":[135.5686755,34.53679782]},"properties":{"id":106913116,"name":"古川橋","name_kana":"ふるかわばし","ofc_cd":86,"sys_id":1,"sys_cam_id":"6913116","pause":0,"date_type":2,"cam_kind":4,"own_cd":6913}},{"type":"Feature","geometry":{"type":"Point","coordinates":[135.451808333,34.605455556]},"properties":{"id":122069001,"name":"大和川 築港八幡町（下）","name_kana":"","ofc_cd":86,"sys_id":1,"sys_cam_id":"22069001","pause":0,"date_type":2,"cam_kind":4,"own_cd":22069}},{"type":"Feature","geometry":{"type":"Point","coordinates":[135.455455556,34.604658333]},"properties":{"id":122069002,"name":"大和川 築港八幡町（上）","name_kana":"","ofc_cd":86,"sys_id":1,"sys_cam_id":"22069002","pause":0,"date_type":2,"cam_kind":4,"own_cd":22069}},{"type":"Feature","geometry":{"type":"Point","coordinates":[135.460375,34.603225]},"properties":{"id":122069003,"name":"大和川 阪神高速湾岸線大和川橋梁","name_kana":"","ofc_cd":86,"sys_id":1,"sys_cam_id":"22069003","pause":0,"date_type":2,"cam_kind":4,"own_cd":22069}},{"type":"Feature","geometry":{"type":"Point","coordinates":[135.501125,34.585966667]},"properties":{"id":122069006,"name":"大和川 阪和線大和川橋梁","name_kana":"","ofc_cd":86,"sys_id":1,"sys_cam_id":"22069006","pause":0,"date_type":2,"cam_kind":4,"own_cd":22069}},{"type":"Feature","geometry":{"type":"Point","coordinates":[135.483783,34.59583]},"properties":{"id":122069028,"name":"大和川 大和橋","name_kana":"","ofc_cd":86,"sys_id":1,"sys_cam_id":"22069028","pause":0,"date_type":2,"cam_kind":4,"own_cd":22069}},{"type":"Feature","geometry":{"type":"Point","coordinates":[135.4880556,34.5947222]},"properties":{"id":222069003,"name":"遠里小野","name_kana":"","ofc_cd":86,"sys_id":2,"sys_cam_id":"22069003","pause":0,"date_type":0,"cam_kind":2,"own_cd":22069}},{"type":"Feature","geometry":{"type":"Point","coordinates":[135.4955556,34.5919444]},"properties":{"id":222069004,"name":"香ヶ丘","name_kana":"","ofc_cd":86,"sys_id":2,"sys_cam_id":"22069004","pause":0,"date_type":0,"cam_kind":2,"own_cd":22069}},{"type":"Feature","geometry":{"type":"Point","coordinates":[135.511972222,34.58875]},"properties":{"id":222069024,"name":"西除川合流","name_kana":"にしよけがわごうりゅう","ofc_cd":86,"sys_id":2,"sys_cam_id":"22069024","pause":0,"date_type":0,"cam_kind":2,"own_cd":22069}}]}