{"type":"FeatureCollection","crs":{"type":"name","properties":{"name":"EPSG:4326"}},"features":[{"type":"Feature","geometry":{"type":"Point","coordinates":[139.80888888,36.36694444]},"properties":{"id":102305010,"name":"姿川橋（姿川）　小山市南半田","name_kana":"","ofc_cd":83,"sys_id":1,"sys_cam_id":"2305010","pause":0,"date_type":2,"cam_kind":4,"own_cd":2305}},{"type":"Feature","geometry":{"type":"Point","coordinates":[139.88805555,36.33944444]},"properties":{"id":102305011,"name":"田川橋（田川）　小山市高椅","name_kana":"","ofc_cd":83,"sys_id":1,"sys_cam_id":"2305011","pause":0,"date_type":2,"cam_kind":4,"own_cd":2305}},{"type":"Feature","geometry":{"type":"Point","coordinates":[139.7332,36.299506]},"properties":{"id":102305037,"name":"杣井木泉橋（杣井木川）小山市下泉","name_kana":"","ofc_cd":83,"sys_id":1,"sys_cam_id":"2305037","pause":0,"date_type":2,"cam_kind":4,"own_cd":2305}},{"type":"Feature","geometry":{"type":"Point","coordinates":[139.78869,36.314744]},"properties":{"id":102305038,"name":"新川橋（豊穂川）小山市大行寺","name_kana":"","ofc_cd":83,"sys_id":1,"sys_cam_id":"2305038","pause":0,"date_type":2,"cam_kind":4,"own_cd":2305}},{"type":"Feature","geometry":{"type":"Point","coordinates":[139.9043518,36.3012355]},"properties":{"id":121261057,"name":"鬼怒川右岸 46.75k","name_kana":"","ofc_cd":83,"sys_id":1,"sys_cam_id":"21261057","pause":0,"date_type":2,"cam_kind":4,"own_cd":21261}},{"type":"Feature","geometry":{"type":"Point","coordinates":[139.7475,36.2619417]},"properties":{"id":221259037,"name":"乙女水位（小山市）","name_kana":"おとめすいい（おやまし）","ofc_cd":83,"sys_id":2,"sys_cam_id":"9010002","pause":0,"date_type":0,"cam_kind":2,"own_cd":21259}},{"type":"Feature","geometry":{"type":"Point","coordinates":[139.7324972,36.2924972]},"properties":{"id":221259038,"name":"中里水位（小山市）","name_kana":"なかざとすいい（おやまし）","ofc_cd":83,"sys_id":2,"sys_cam_id":"9010003","pause":0,"date_type":0,"cam_kind":2,"own_cd":21259}},{"type":"Feature","geometry":{"type":"Point","coordinates":[139.7303889,36.2386083]},"properties":{"id":221259041,"name":"松原大橋左岸上流","name_kana":"まつばらおおはしさがんじょうりゅう","ofc_cd":83,"sys_id":2,"sys_cam_id":"9010007","pause":0,"date_type":0,"cam_kind":2,"own_cd":21259}}]}