{"type":"FeatureCollection","crs":{"type":"name","properties":{"name":"EPSG:4326"}},"features":[{"type":"Feature","geometry":{"type":"Point","coordinates":[135.62131388,34.87584166]},"properties":{"id":106913004,"name":"弥生橋","name_kana":"やよいばし","ofc_cd":86,"sys_id":1,"sys_cam_id":"6913004","pause":0,"date_type":2,"cam_kind":4,"own_cd":6913}},{"type":"Feature","geometry":{"type":"Point","coordinates":[135.60533611,34.838056]},"properties":{"id":106913012,"name":"天堂橋","name_kana":"","ofc_cd":86,"sys_id":1,"sys_cam_id":"6913012","pause":0,"date_type":2,"cam_kind":4,"own_cd":6913}},{"type":"Feature","geometry":{"type":"Point","coordinates":[135.642778,34.85333889]},"properties":{"id":106913013,"name":"檜尾川橋","name_kana":"","ofc_cd":86,"sys_id":1,"sys_cam_id":"6913013","pause":0,"date_type":2,"cam_kind":4,"own_cd":6913}},{"type":"Feature","geometry":{"type":"Point","coordinates":[135.607208,34.85235833]},"properties":{"id":106913014,"name":"芥川橋","name_kana":"","ofc_cd":86,"sys_id":1,"sys_cam_id":"6913014","pause":0,"date_type":2,"cam_kind":4,"own_cd":6913}},{"type":"Feature","geometry":{"type":"Point","coordinates":[135.601727,34.893543]},"properties":{"id":106913016,"name":"大森橋","name_kana":"おおもりばし","ofc_cd":86,"sys_id":1,"sys_cam_id":"6913016","pause":0,"date_type":2,"cam_kind":4,"own_cd":6913}},{"type":"Feature","geometry":{"type":"Point","coordinates":[135.625475,34.87726388]},"properties":{"id":106913017,"name":"檜尾川上流","name_kana":"ひおがわじょうりゅう","ofc_cd":86,"sys_id":1,"sys_cam_id":"6913017","pause":0,"date_type":2,"cam_kind":4,"own_cd":6913}},{"type":"Feature","geometry":{"type":"Point","coordinates":[135.59094722,34.86678333]},"properties":{"id":106913092,"name":"西之川原橋","name_kana":"にしのかわらはし","ofc_cd":86,"sys_id":1,"sys_cam_id":"6913092","pause":0,"date_type":2,"cam_kind":4,"own_cd":6913}},{"type":"Feature","geometry":{"type":"Point","coordinates":[135.6175,34.8138889]},"properties":{"id":222068023,"name":"芥川合流部","name_kana":"","ofc_cd":86,"sys_id":2,"sys_cam_id":"22068023","pause":0,"date_type":0,"cam_kind":2,"own_cd":22068}},{"type":"Feature","geometry":{"type":"Point","coordinates":[135.625833333,34.8175]},"properties":{"id":222068024,"name":"高槻出張所","name_kana":"","ofc_cd":86,"sys_id":2,"sys_cam_id":"22068024","pause":0,"date_type":0,"cam_kind":2,"own_cd":22068}},{"type":"Feature","geometry":{"type":"Point","coordinates":[135.6525,34.8538889]},"properties":{"id":222068029,"name":"鵜殿","name_kana":"","ofc_cd":86,"sys_id":2,"sys_cam_id":"22068029","pause":0,"date_type":0,"cam_kind":2,"own_cd":22068}},{"type":"Feature","geometry":{"type":"Point","coordinates":[135.6644444,34.8633333]},"properties":{"id":222068030,"name":"山崎出張所","name_kana":"","ofc_cd":86,"sys_id":2,"sys_cam_id":"22068030","pause":0,"date_type":0,"cam_kind":2,"own_cd":22068}},{"type":"Feature","geometry":{"type":"Point","coordinates":[135.6161111,34.8238889]},"properties":{"id":222068035,"name":"芝生大橋","name_kana":"","ofc_cd":86,"sys_id":2,"sys_cam_id":"22068035","pause":0,"date_type":0,"cam_kind":2,"own_cd":22068}}]}