{"type":"FeatureCollection","crs":{"type":"name","properties":{"name":"EPSG:4326"}},"features":[{"type":"Feature","geometry":{"type":"Point","coordinates":[138.590405,35.192043]},"properties":{"id":121335219,"name":"富士川右岸 H76","name_kana":"","ofc_cd":83,"sys_id":1,"sys_cam_id":"21335219","pause":0,"date_type":2,"cam_kind":4,"own_cd":21335}},{"type":"Feature","geometry":{"type":"Point","coordinates":[138.618348,35.17216]},"properties":{"id":121335221,"name":"富士川右岸 H56","name_kana":"","ofc_cd":83,"sys_id":1,"sys_cam_id":"21335221","pause":0,"date_type":2,"cam_kind":4,"own_cd":21335}},{"type":"Feature","geometry":{"type":"Point","coordinates":[138.6308306,35.1494417]},"properties":{"id":221335059,"name":"松岡観測所","name_kana":"","ofc_cd":83,"sys_id":2,"sys_cam_id":"22010001","pause":0,"date_type":0,"cam_kind":2,"own_cd":21335}},{"type":"Feature","geometry":{"type":"Point","coordinates":[138.5848583,35.1949139]},"properties":{"id":221335060,"name":"北松野","name_kana":"","ofc_cd":83,"sys_id":2,"sys_cam_id":"22010002","pause":0,"date_type":0,"cam_kind":2,"own_cd":21335}},{"type":"Feature","geometry":{"type":"Point","coordinates":[138.6286306,35.1169778]},"properties":{"id":221335061,"name":"富士川右岸河口","name_kana":"","ofc_cd":83,"sys_id":2,"sys_cam_id":"22010124","pause":0,"date_type":0,"cam_kind":2,"own_cd":21335}},{"type":"Feature","geometry":{"type":"Point","coordinates":[138.6344333,35.1287472]},"properties":{"id":221335062,"name":"新富士川橋","name_kana":"","ofc_cd":83,"sys_id":2,"sys_cam_id":"22010125","pause":0,"date_type":0,"cam_kind":2,"own_cd":21335}},{"type":"Feature","geometry":{"type":"Point","coordinates":[138.6487444,35.1226306]},"properties":{"id":221335063,"name":"富士川左岸河口","name_kana":"","ofc_cd":83,"sys_id":2,"sys_cam_id":"22010126","pause":0,"date_type":0,"cam_kind":2,"own_cd":21335}},{"type":"Feature","geometry":{"type":"Point","coordinates":[138.6393806,35.13535]},"properties":{"id":221335064,"name":"宮下下流","name_kana":"","ofc_cd":83,"sys_id":2,"sys_cam_id":"22010127","pause":0,"date_type":0,"cam_kind":2,"own_cd":21335}},{"type":"Feature","geometry":{"type":"Point","coordinates":[138.6346583,35.1411417]},"properties":{"id":221335065,"name":"宮下上流","name_kana":"","ofc_cd":83,"sys_id":2,"sys_cam_id":"22010128","pause":0,"date_type":0,"cam_kind":2,"own_cd":21335}},{"type":"Feature","geometry":{"type":"Point","coordinates":[138.6322972,35.1496056]},"properties":{"id":221335066,"name":"森島","name_kana":"","ofc_cd":83,"sys_id":2,"sys_cam_id":"22010129","pause":0,"date_type":0,"cam_kind":2,"own_cd":21335}},{"type":"Feature","geometry":{"type":"Point","coordinates":[138.6298556,35.1630944]},"properties":{"id":221335067,"name":"新備前堤","name_kana":"","ofc_cd":83,"sys_id":2,"sys_cam_id":"22010130","pause":0,"date_type":0,"cam_kind":2,"own_cd":21335}},{"type":"Feature","geometry":{"type":"Point","coordinates":[138.6252417,35.1692667]},"properties":{"id":221335068,"name":"３番出水制","name_kana":"","ofc_cd":83,"sys_id":2,"sys_cam_id":"22010131","pause":0,"date_type":0,"cam_kind":2,"own_cd":21335}}]}