{"type":"FeatureCollection","crs":{"type":"name","properties":{"name":"EPSG:4326"}},"features":[{"type":"Feature","geometry":{"type":"Point","coordinates":[137.814475,34.77335]},"properties":{"id":121824031,"name":"天竜川　14k200　右岸","name_kana":"","ofc_cd":85,"sys_id":1,"sys_cam_id":"21824031","pause":0,"date_type":2,"cam_kind":4,"own_cd":21824}},{"type":"Feature","geometry":{"type":"Point","coordinates":[137.81839,34.78124]},"properties":{"id":121824032,"name":"天竜川　15k200　右岸","name_kana":"","ofc_cd":85,"sys_id":1,"sys_cam_id":"21824032","pause":0,"date_type":2,"cam_kind":4,"own_cd":21824}},{"type":"Feature","geometry":{"type":"Point","coordinates":[137.813997,34.851473]},"properties":{"id":121824033,"name":"天竜川　24k200　右岸","name_kana":"","ofc_cd":85,"sys_id":1,"sys_cam_id":"21824033","pause":0,"date_type":2,"cam_kind":4,"own_cd":21824}},{"type":"Feature","geometry":{"type":"Point","coordinates":[137.7993333,35.087]},"properties":{"id":221824030,"name":"中部大橋","name_kana":"","ofc_cd":85,"sys_id":2,"sys_cam_id":"21824030","pause":0,"date_type":0,"cam_kind":2,"own_cd":21824}},{"type":"Feature","geometry":{"type":"Point","coordinates":[137.8139722,35.0915278]},"properties":{"id":221824031,"name":"佐久間地域自治センター","name_kana":"","ofc_cd":85,"sys_id":2,"sys_cam_id":"21824031","pause":0,"date_type":0,"cam_kind":2,"own_cd":21824}},{"type":"Feature","geometry":{"type":"Point","coordinates":[137.8416167,35.0225111]},"properties":{"id":221824032,"name":"瀬尻橋","name_kana":"","ofc_cd":85,"sys_id":2,"sys_cam_id":"21824032","pause":0,"date_type":0,"cam_kind":2,"own_cd":21824}},{"type":"Feature","geometry":{"type":"Point","coordinates":[137.8408,34.9676028]},"properties":{"id":221824033,"name":"竜山大橋下流","name_kana":"","ofc_cd":85,"sys_id":2,"sys_cam_id":"21824033","pause":0,"date_type":0,"cam_kind":2,"own_cd":21824}},{"type":"Feature","geometry":{"type":"Point","coordinates":[137.8338806,34.9342389]},"properties":{"id":221824034,"name":"気田川合流点","name_kana":"","ofc_cd":85,"sys_id":2,"sys_cam_id":"21824034","pause":0,"date_type":0,"cam_kind":2,"own_cd":21824}},{"type":"Feature","geometry":{"type":"Point","coordinates":[137.8052111,34.8553944]},"properties":{"id":221824035,"name":"鹿島橋上流","name_kana":"","ofc_cd":85,"sys_id":2,"sys_cam_id":"21824035","pause":0,"date_type":0,"cam_kind":2,"own_cd":21824}},{"type":"Feature","geometry":{"type":"Point","coordinates":[137.8089917,34.8505222]},"properties":{"id":221824036,"name":"県北遠合同庁舎","name_kana":"","ofc_cd":85,"sys_id":2,"sys_cam_id":"21824036","pause":0,"date_type":0,"cam_kind":2,"own_cd":21824}},{"type":"Feature","geometry":{"type":"Point","coordinates":[137.801825,34.7323556]},"properties":{"id":221824037,"name":"天竜川橋右岸","name_kana":"","ofc_cd":85,"sys_id":2,"sys_cam_id":"21824037","pause":0,"date_type":0,"cam_kind":2,"own_cd":21824}},{"type":"Feature","geometry":{"type":"Point","coordinates":[137.7989333,34.7275111]},"properties":{"id":221824038,"name":"中ノ町河川公園","name_kana":"","ofc_cd":85,"sys_id":2,"sys_cam_id":"21824038","pause":0,"date_type":0,"cam_kind":2,"own_cd":21824}},{"type":"Feature","geometry":{"type":"Point","coordinates":[137.7949611,34.7036306]},"properties":{"id":221824039,"name":"新貝地区","name_kana":"","ofc_cd":85,"sys_id":2,"sys_cam_id":"21824039","pause":0,"date_type":0,"cam_kind":2,"own_cd":21824}},{"type":"Feature","geometry":{"type":"Point","coordinates":[137.7884833,34.685825]},"properties":{"id":221824040,"name":"安間川合流点","name_kana":"","ofc_cd":85,"sys_id":2,"sys_cam_id":"21824040","pause":0,"date_type":0,"cam_kind":2,"own_cd":21824}},{"type":"Feature","geometry":{"type":"Point","coordinates":[137.7874306,34.6790778]},"properties":{"id":221824041,"name":"掛塚橋上流","name_kana":"","ofc_cd":85,"sys_id":2,"sys_cam_id":"21824041","pause":0,"date_type":0,"cam_kind":2,"own_cd":21824}},{"type":"Feature","geometry":{"type":"Point","coordinates":[137.7963194,34.7203278]},"properties":{"id":221824042,"name":"東海道線天竜川橋","name_kana":"","ofc_cd":85,"sys_id":2,"sys_cam_id":"21824042","pause":0,"date_type":0,"cam_kind":2,"own_cd":21824}},{"type":"Feature","geometry":{"type":"Point","coordinates":[137.7952694,34.7084]},"properties":{"id":221824043,"name":"ＪＲ新幹線天竜川橋上流","name_kana":"","ofc_cd":85,"sys_id":2,"sys_cam_id":"21824043","pause":0,"date_type":0,"cam_kind":2,"own_cd":21824}},{"type":"Feature","geometry":{"type":"Point","coordinates":[137.804944444,34.886305556]},"properties":{"id":221824045,"name":"船明ダム下流","name_kana":"","ofc_cd":85,"sys_id":2,"sys_cam_id":"21824045","pause":0,"date_type":0,"cam_kind":2,"own_cd":21824}},{"type":"Feature","geometry":{"type":"Point","coordinates":[137.8313944,34.9655583]},"properties":{"id":221824046,"name":"秋葉ダム下流","name_kana":"","ofc_cd":85,"sys_id":2,"sys_cam_id":"21824046","pause":0,"date_type":0,"cam_kind":2,"own_cd":21824}},{"type":"Feature","geometry":{"type":"Point","coordinates":[137.7563889,35.0638889]},"properties":{"id":221824051,"name":"大千瀬川大入側合流点","name_kana":"","ofc_cd":85,"sys_id":2,"sys_cam_id":"21824051","pause":0,"date_type":0,"cam_kind":2,"own_cd":21824}},{"type":"Feature","geometry":{"type":"Point","coordinates":[137.7669389,35.0572278]},"properties":{"id":221824052,"name":"佐久間町浦川","name_kana":"","ofc_cd":85,"sys_id":2,"sys_cam_id":"21824052","pause":0,"date_type":0,"cam_kind":2,"own_cd":21824}},{"type":"Feature","geometry":{"type":"Point","coordinates":[137.7863972,35.0702639]},"properties":{"id":221824055,"name":"下川合","name_kana":"","ofc_cd":85,"sys_id":2,"sys_cam_id":"21824055","pause":0,"date_type":0,"cam_kind":2,"own_cd":21824}}]}