{"type":"FeatureCollection","crs":{"type":"name","properties":{"name":"EPSG:4326"}},"features":[{"type":"Feature","geometry":{"type":"Point","coordinates":[135.769431,34.514629]},"properties":{"id":107425023,"name":"曲川","name_kana":"まがりかわ","ofc_cd":86,"sys_id":1,"sys_cam_id":"7425023","pause":0,"date_type":0,"cam_kind":4,"own_cd":7425}},{"type":"Feature","geometry":{"type":"Point","coordinates":[135.758839,34.512182]},"properties":{"id":307425006,"name":"曲川","name_kana":"まがりかわ","ofc_cd":29,"sys_id":3,"sys_cam_id":"7425008","pause":0,"date_type":1,"cam_kind":2,"own_cd":7425}},{"type":"Feature","geometry":{"type":"Point","coordinates":[135.792855,34.506514]},"properties":{"id":307425007,"name":"今井","name_kana":"いまい","ofc_cd":29,"sys_id":3,"sys_cam_id":"7425010","pause":0,"date_type":1,"cam_kind":2,"own_cd":7425}},{"type":"Feature","geometry":{"type":"Point","coordinates":[135.787196,34.523439]},"properties":{"id":12901205001,"name":"飛鳥川井堰","name_kana":"あすかがわいせき","ofc_cd":86,"sys_id":1,"sys_cam_id":"2901205001","pause":0,"date_type":1,"cam_kind":4,"own_cd":2901205}},{"type":"Feature","geometry":{"type":"Point","coordinates":[135.795456,34.529729]},"properties":{"id":12901205002,"name":"松葉井堰","name_kana":"まつばいせき","ofc_cd":86,"sys_id":1,"sys_cam_id":"2901205002","pause":0,"date_type":1,"cam_kind":4,"own_cd":2901205}},{"type":"Feature","geometry":{"type":"Point","coordinates":[135.811999,34.504778]},"properties":{"id":12901205003,"name":"高所寺川3号堰","name_kana":"こうしょじがわさんごうせき","ofc_cd":86,"sys_id":1,"sys_cam_id":"2901205003","pause":0,"date_type":1,"cam_kind":4,"own_cd":2901205}},{"type":"Feature","geometry":{"type":"Point","coordinates":[135.770997,34.481911]},"properties":{"id":12901205004,"name":"古井井堰","name_kana":"ふるいいせき","ofc_cd":86,"sys_id":1,"sys_cam_id":"2901205004","pause":0,"date_type":1,"cam_kind":4,"own_cd":2901205}},{"type":"Feature","geometry":{"type":"Point","coordinates":[135.767373,34.491611]},"properties":{"id":12901205005,"name":"下井井堰","name_kana":"しもいいせき","ofc_cd":86,"sys_id":1,"sys_cam_id":"2901205005","pause":0,"date_type":1,"cam_kind":4,"own_cd":2901205}},{"type":"Feature","geometry":{"type":"Point","coordinates":[135.775387,34.502194]},"properties":{"id":12901205006,"name":"蛇キ地井堰","name_kana":"じゃきちいせき","ofc_cd":86,"sys_id":1,"sys_cam_id":"2901205006","pause":0,"date_type":1,"cam_kind":4,"own_cd":2901205}},{"type":"Feature","geometry":{"type":"Point","coordinates":[135.768038,34.496911]},"properties":{"id":12901205007,"name":"今樋井堰","name_kana":"いまひいせき","ofc_cd":86,"sys_id":1,"sys_cam_id":"2901205007","pause":0,"date_type":1,"cam_kind":4,"own_cd":2901205}},{"type":"Feature","geometry":{"type":"Point","coordinates":[135.761397,34.497174]},"properties":{"id":12901205008,"name":"折柳井堰","name_kana":"おりやなぎいせき","ofc_cd":86,"sys_id":1,"sys_cam_id":"2901205008","pause":0,"date_type":1,"cam_kind":4,"own_cd":2901205}},{"type":"Feature","geometry":{"type":"Point","coordinates":[135.757448,34.497813]},"properties":{"id":12901205009,"name":"春日井堰","name_kana":"かすがいせき","ofc_cd":86,"sys_id":1,"sys_cam_id":"2901205009","pause":0,"date_type":1,"cam_kind":4,"own_cd":2901205}},{"type":"Feature","geometry":{"type":"Point","coordinates":[135.761156,34.510817]},"properties":{"id":12901205010,"name":"小金淵井堰","name_kana":"こがねぶちいせき","ofc_cd":86,"sys_id":1,"sys_cam_id":"2901205010","pause":0,"date_type":1,"cam_kind":4,"own_cd":2901205}},{"type":"Feature","geometry":{"type":"Point","coordinates":[135.762242,34.51291]},"properties":{"id":12901205011,"name":"五反田井堰","name_kana":"ごたんだいせき","ofc_cd":86,"sys_id":1,"sys_cam_id":"2901205011","pause":0,"date_type":1,"cam_kind":4,"own_cd":2901205}},{"type":"Feature","geometry":{"type":"Point","coordinates":[135.768467,34.510779]},"properties":{"id":12901205012,"name":"土井戸井堰","name_kana":"どいどいせき","ofc_cd":86,"sys_id":1,"sys_cam_id":"2901205012","pause":0,"date_type":1,"cam_kind":4,"own_cd":2901205}},{"type":"Feature","geometry":{"type":"Point","coordinates":[135.769382,34.512966]},"properties":{"id":12901205013,"name":"門田井堰","name_kana":"かどたいせき","ofc_cd":86,"sys_id":1,"sys_cam_id":"2901205013","pause":0,"date_type":1,"cam_kind":4,"own_cd":2901205}},{"type":"Feature","geometry":{"type":"Point","coordinates":[135.768218,34.516792]},"properties":{"id":12901205014,"name":"上海井堰","name_kana":"じょかいいせき","ofc_cd":86,"sys_id":1,"sys_cam_id":"2901205014","pause":0,"date_type":1,"cam_kind":4,"own_cd":2901205}},{"type":"Feature","geometry":{"type":"Point","coordinates":[135.824383,34.505102]},"properties":{"id":12901205015,"name":"南久保井堰","name_kana":"みなみくぼいせき","ofc_cd":86,"sys_id":1,"sys_cam_id":"2901205015","pause":0,"date_type":1,"cam_kind":4,"own_cd":2901205}}]}