{"type":"FeatureCollection","crs":{"type":"name","properties":{"name":"EPSG:4326"}},"features":[{"type":"Feature","geometry":{"type":"Point","coordinates":[133.859996,35.398742]},"properties":{"id":122298003,"name":"天神川　12ｋ300右岸","name_kana":"","ofc_cd":87,"sys_id":1,"sys_cam_id":"22298003","pause":0,"date_type":2,"cam_kind":4,"own_cd":22298}},{"type":"Feature","geometry":{"type":"Point","coordinates":[133.858026,35.390437]},"properties":{"id":122298004,"name":"天神川　13ｋ300右岸","name_kana":"","ofc_cd":87,"sys_id":1,"sys_cam_id":"22298004","pause":0,"date_type":2,"cam_kind":4,"own_cd":22298}},{"type":"Feature","geometry":{"type":"Point","coordinates":[133.861853,35.406057]},"properties":{"id":122298005,"name":"三徳川　0ｋ300右岸","name_kana":"","ofc_cd":87,"sys_id":1,"sys_cam_id":"22298005","pause":0,"date_type":2,"cam_kind":4,"own_cd":22298}},{"type":"Feature","geometry":{"type":"Point","coordinates":[133.878329,35.411586]},"properties":{"id":122298006,"name":"三徳川　2ｋ000左岸","name_kana":"","ofc_cd":87,"sys_id":1,"sys_cam_id":"22298006","pause":0,"date_type":2,"cam_kind":4,"own_cd":22298}},{"type":"Feature","geometry":{"type":"Point","coordinates":[133.8545472,35.3820944]},"properties":{"id":222298003,"name":"牧","name_kana":"","ofc_cd":87,"sys_id":2,"sys_cam_id":"31010036","pause":0,"date_type":0,"cam_kind":2,"own_cd":22298}},{"type":"Feature","geometry":{"type":"Point","coordinates":[133.862375,35.4060833]},"properties":{"id":222298010,"name":"三徳川　大瀬","name_kana":"","ofc_cd":87,"sys_id":2,"sys_cam_id":"31010043","pause":0,"date_type":0,"cam_kind":2,"own_cd":22298}},{"type":"Feature","geometry":{"type":"Point","coordinates":[133.8972222,35.4091666]},"properties":{"id":222298011,"name":"三徳川　三朝水位観測所","name_kana":"みささすいいかんそくしょ","ofc_cd":87,"sys_id":2,"sys_cam_id":"31010044","pause":0,"date_type":0,"cam_kind":2,"own_cd":22298}},{"type":"Feature","geometry":{"type":"Point","coordinates":[133.835063,35.326006]},"properties":{"id":222298012,"name":"天神川・加谷川合流点","name_kana":"てんじんがわ・かたにがわごうりゅうてん","ofc_cd":87,"sys_id":2,"sys_cam_id":"31010045","pause":0,"date_type":0,"cam_kind":2,"own_cd":22298}}]}