{"type":"FeatureCollection","crs":{"type":"name","properties":{"name":"EPSG:4326"}},"features":[{"type":"Feature","geometry":{"type":"Point","coordinates":[141.8747222,39.2727778]},"properties":{"id":100769107,"name":"大渡橋","name_kana":"","ofc_cd":82,"sys_id":1,"sys_cam_id":"769107","pause":0,"date_type":1,"cam_kind":4,"own_cd":769}},{"type":"Feature","geometry":{"type":"Point","coordinates":[141.7516667,39.2555556]},"properties":{"id":100769108,"name":"甲子町","name_kana":"","ofc_cd":82,"sys_id":1,"sys_cam_id":"769108","pause":0,"date_type":1,"cam_kind":4,"own_cd":769}},{"type":"Feature","geometry":{"type":"Point","coordinates":[141.8383333,39.2672222]},"properties":{"id":100769109,"name":"小川","name_kana":"","ofc_cd":82,"sys_id":1,"sys_cam_id":"769109","pause":0,"date_type":1,"cam_kind":4,"own_cd":769}},{"type":"Feature","geometry":{"type":"Point","coordinates":[141.8894444,39.3286111]},"properties":{"id":100769110,"name":"大浜渡橋","name_kana":"","ofc_cd":82,"sys_id":1,"sys_cam_id":"769110","pause":0,"date_type":1,"cam_kind":4,"own_cd":769}},{"type":"Feature","geometry":{"type":"Point","coordinates":[141.8706476,39.33763861]},"properties":{"id":100769111,"name":"鵜住居","name_kana":"","ofc_cd":82,"sys_id":1,"sys_cam_id":"769111","pause":0,"date_type":1,"cam_kind":4,"own_cd":769}}]}