{"type":"FeatureCollection","crs":{"type":"name","properties":{"name":"EPSG:4326"}},"features":[{"type":"Feature","geometry":{"type":"Point","coordinates":[136.8590731,35.8712985]},"properties":{"id":105377021,"name":"牛道川黒古橋","name_kana":"","ofc_cd":85,"sys_id":1,"sys_cam_id":"5377021","pause":0,"date_type":1,"cam_kind":4,"own_cd":5377}},{"type":"Feature","geometry":{"type":"Point","coordinates":[137.0718483,35.7408242]},"properties":{"id":105377022,"name":"和良川荒川橋","name_kana":"","ofc_cd":85,"sys_id":1,"sys_cam_id":"5377022","pause":0,"date_type":1,"cam_kind":4,"own_cd":5377}},{"type":"Feature","geometry":{"type":"Point","coordinates":[136.9456243,35.6609356]},"properties":{"id":105377023,"name":"粥川半蔵橋","name_kana":"","ofc_cd":85,"sys_id":1,"sys_cam_id":"5377023","pause":0,"date_type":1,"cam_kind":4,"own_cd":5377}},{"type":"Feature","geometry":{"type":"Point","coordinates":[136.9534444,35.7326945]},"properties":{"id":105377059,"name":"長良川穀見","name_kana":"","ofc_cd":85,"sys_id":1,"sys_cam_id":"5377059","pause":0,"date_type":1,"cam_kind":4,"own_cd":5377}},{"type":"Feature","geometry":{"type":"Point","coordinates":[136.9472783,35.7376943]},"properties":{"id":105377060,"name":"長良川稲成","name_kana":"","ofc_cd":85,"sys_id":1,"sys_cam_id":"5377060","pause":0,"date_type":1,"cam_kind":4,"own_cd":5377}},{"type":"Feature","geometry":{"type":"Point","coordinates":[136.9489335,35.6891178]},"properties":{"id":105377061,"name":"長良川浅柄","name_kana":"","ofc_cd":85,"sys_id":1,"sys_cam_id":"5377061","pause":0,"date_type":1,"cam_kind":4,"own_cd":5377}},{"type":"Feature","geometry":{"type":"Point","coordinates":[136.9423618,35.5990001]},"properties":{"id":105377062,"name":"長良川西母野","name_kana":"","ofc_cd":85,"sys_id":1,"sys_cam_id":"5377062","pause":0,"date_type":1,"cam_kind":4,"own_cd":5377}}]}