{"type":"FeatureCollection","crs":{"type":"name","properties":{"name":"EPSG:4326"}},"features":[{"type":"Feature","geometry":{"type":"Point","coordinates":[140.046430555,35.961455555]},"properties":{"id":102049070,"name":"谷井田大橋","name_kana":"やいたおおはし","ofc_cd":83,"sys_id":1,"sys_cam_id":"2049070","pause":0,"date_type":1,"cam_kind":4,"own_cd":2049}},{"type":"Feature","geometry":{"type":"Point","coordinates":[140.017091666,36.000958333]},"properties":{"id":102049071,"name":"真木","name_kana":"まぎ","ofc_cd":83,"sys_id":1,"sys_cam_id":"2049071","pause":0,"date_type":1,"cam_kind":4,"own_cd":2049}},{"type":"Feature","geometry":{"type":"Point","coordinates":[140.1033055,35.9535277]},"properties":{"id":102049107,"name":"細見橋","name_kana":"ほそみはし","ofc_cd":83,"sys_id":1,"sys_cam_id":"2049107","pause":0,"date_type":2,"cam_kind":4,"own_cd":2049}},{"type":"Feature","geometry":{"type":"Point","coordinates":[139.974637,35.9860068]},"properties":{"id":121261054,"name":"鬼怒川左岸 6.50k","name_kana":"","ofc_cd":83,"sys_id":1,"sys_cam_id":"21261054","pause":0,"date_type":2,"cam_kind":4,"own_cd":21261}},{"type":"Feature","geometry":{"type":"Point","coordinates":[140.0154471,36.0257426]},"properties":{"id":121261077,"name":"小貝川左岸 24.40k","name_kana":"","ofc_cd":83,"sys_id":1,"sys_cam_id":"21261077","pause":0,"date_type":2,"cam_kind":4,"own_cd":21261}},{"type":"Feature","geometry":{"type":"Point","coordinates":[140.0247194,36.0308333]},"properties":{"id":221261021,"name":"常総橋（市）上流","name_kana":"","ofc_cd":83,"sys_id":2,"sys_cam_id":"8010040","pause":0,"date_type":0,"cam_kind":2,"own_cd":21261}},{"type":"Feature","geometry":{"type":"Point","coordinates":[140.0019417,36.0208333]},"properties":{"id":221261022,"name":"水海道一里塚","name_kana":"","ofc_cd":83,"sys_id":2,"sys_cam_id":"8010041","pause":0,"date_type":0,"cam_kind":2,"own_cd":21261}},{"type":"Feature","geometry":{"type":"Point","coordinates":[139.9972167,36.0180611]},"properties":{"id":221261023,"name":"小貝川水海道水位観測所","name_kana":"","ofc_cd":83,"sys_id":2,"sys_cam_id":"8010042","pause":0,"date_type":0,"cam_kind":2,"own_cd":21261}},{"type":"Feature","geometry":{"type":"Point","coordinates":[139.9933861,36.0146806]},"properties":{"id":221261024,"name":"常総市水海道山田町地先","name_kana":"","ofc_cd":83,"sys_id":2,"sys_cam_id":"8010043","pause":0,"date_type":0,"cam_kind":2,"own_cd":21261}},{"type":"Feature","geometry":{"type":"Point","coordinates":[140.0034194,36.0176889]},"properties":{"id":221261029,"name":"つくばみらい市樛木地先","name_kana":"","ofc_cd":83,"sys_id":2,"sys_cam_id":"8010048","pause":0,"date_type":0,"cam_kind":2,"own_cd":21261}},{"type":"Feature","geometry":{"type":"Point","coordinates":[139.9970944,36.0136889]},"properties":{"id":221261030,"name":"つくばみらい市北袋地先","name_kana":"","ofc_cd":83,"sys_id":2,"sys_cam_id":"8010049","pause":0,"date_type":0,"cam_kind":2,"own_cd":21261}},{"type":"Feature","geometry":{"type":"Point","coordinates":[140.0085583,35.9617]},"properties":{"id":221261031,"name":"常総橋（県）上流","name_kana":"","ofc_cd":83,"sys_id":2,"sys_cam_id":"8010050","pause":0,"date_type":0,"cam_kind":2,"own_cd":21261}},{"type":"Feature","geometry":{"type":"Point","coordinates":[139.9744444,35.9958306]},"properties":{"id":221261045,"name":"浄化センター","name_kana":"","ofc_cd":83,"sys_id":2,"sys_cam_id":"8010083","pause":0,"date_type":0,"cam_kind":2,"own_cd":21261}}]}