{"type":"FeatureCollection","crs":{"type":"name","properties":{"name":"EPSG:4326"}},"features":[{"type":"Feature","geometry":{"type":"Point","coordinates":[135.210691,35.251118]},"properties":{"id":106657043,"name":"土師川_三俣","name_kana":"","ofc_cd":86,"sys_id":1,"sys_cam_id":"6657043","pause":0,"date_type":0,"cam_kind":4,"own_cd":6657}},{"type":"Feature","geometry":{"type":"Point","coordinates":[135.073005,35.332825]},"properties":{"id":106657044,"name":"牧川_上川口","name_kana":"","ofc_cd":86,"sys_id":1,"sys_cam_id":"6657044","pause":0,"date_type":0,"cam_kind":4,"own_cd":6657}},{"type":"Feature","geometry":{"type":"Point","coordinates":[135.075106,35.293359]},"properties":{"id":106657045,"name":"和久川_榎原","name_kana":"","ofc_cd":86,"sys_id":1,"sys_cam_id":"6657045","pause":0,"date_type":0,"cam_kind":4,"own_cd":6657}},{"type":"Feature","geometry":{"type":"Point","coordinates":[135.153998,35.41264]},"properties":{"id":106657046,"name":"宮川_二俣","name_kana":"","ofc_cd":86,"sys_id":1,"sys_cam_id":"6657046","pause":0,"date_type":0,"cam_kind":4,"own_cd":6657}},{"type":"Feature","geometry":{"type":"Point","coordinates":[135.0015269,35.319284]},"properties":{"id":106657047,"name":"牧川_額田","name_kana":"","ofc_cd":86,"sys_id":1,"sys_cam_id":"6657047","pause":0,"date_type":0,"cam_kind":4,"own_cd":6657}},{"type":"Feature","geometry":{"type":"Point","coordinates":[135.107067,35.32434]},"properties":{"id":106657048,"name":"弘法川_下荒河","name_kana":"","ofc_cd":86,"sys_id":1,"sys_cam_id":"6657048","pause":0,"date_type":0,"cam_kind":4,"own_cd":6657}},{"type":"Feature","geometry":{"type":"Point","coordinates":[135.109985,35.315012]},"properties":{"id":106657049,"name":"弘法川_サイフォン下流","name_kana":"","ofc_cd":86,"sys_id":1,"sys_cam_id":"6657049","pause":0,"date_type":0,"cam_kind":4,"own_cd":6657}},{"type":"Feature","geometry":{"type":"Point","coordinates":[135.108772,35.297539]},"properties":{"id":106657050,"name":"弘法川_下篠尾","name_kana":"","ofc_cd":86,"sys_id":1,"sys_cam_id":"6657050","pause":0,"date_type":0,"cam_kind":4,"own_cd":6657}},{"type":"Feature","geometry":{"type":"Point","coordinates":[135.113961111,35.356569444]},"properties":{"id":122051020,"name":"由良川 福知山市下天津","name_kana":"","ofc_cd":86,"sys_id":1,"sys_cam_id":"22051020","pause":0,"date_type":1,"cam_kind":4,"own_cd":22051}},{"type":"Feature","geometry":{"type":"Point","coordinates":[135.123230556,35.313575]},"properties":{"id":122051023,"name":"由良川 福知山市中","name_kana":"","ofc_cd":86,"sys_id":1,"sys_cam_id":"22051023","pause":0,"date_type":1,"cam_kind":4,"own_cd":22051}},{"type":"Feature","geometry":{"type":"Point","coordinates":[135.179683333,35.311822222]},"properties":{"id":122051029,"name":"由良川 綾部市私市町","name_kana":"","ofc_cd":86,"sys_id":1,"sys_cam_id":"22051029","pause":0,"date_type":1,"cam_kind":4,"own_cd":22051}},{"type":"Feature","geometry":{"type":"Point","coordinates":[135.140622222,35.281836111]},"properties":{"id":122051039,"name":"土師川 高畑橋下流右岸(高畑）","name_kana":"","ofc_cd":86,"sys_id":1,"sys_cam_id":"22051039","pause":0,"date_type":1,"cam_kind":4,"own_cd":22051}},{"type":"Feature","geometry":{"type":"Point","coordinates":[135.2025,35.412222222]},"properties":{"id":222051010,"name":"二箇取水場","name_kana":"","ofc_cd":86,"sys_id":2,"sys_cam_id":"26010015","pause":0,"date_type":0,"cam_kind":2,"own_cd":22051}},{"type":"Feature","geometry":{"type":"Point","coordinates":[135.193611111,35.408888889]},"properties":{"id":222051011,"name":"三河橋","name_kana":"","ofc_cd":86,"sys_id":2,"sys_cam_id":"26010016","pause":0,"date_type":0,"cam_kind":2,"own_cd":22051}},{"type":"Feature","geometry":{"type":"Point","coordinates":[135.185833333,35.398333333]},"properties":{"id":222051012,"name":"二箇","name_kana":"","ofc_cd":86,"sys_id":2,"sys_cam_id":"26010017","pause":0,"date_type":0,"cam_kind":2,"own_cd":22051}},{"type":"Feature","geometry":{"type":"Point","coordinates":[135.179020833,35.392006667]},"properties":{"id":222051013,"name":"大雲橋","name_kana":"","ofc_cd":86,"sys_id":2,"sys_cam_id":"26010018","pause":0,"date_type":0,"cam_kind":2,"own_cd":22051}},{"type":"Feature","geometry":{"type":"Point","coordinates":[135.1080556,35.3463889]},"properties":{"id":222051015,"name":"下天津水質監視所","name_kana":"","ofc_cd":86,"sys_id":2,"sys_cam_id":"26010020","pause":0,"date_type":0,"cam_kind":2,"own_cd":22051}},{"type":"Feature","geometry":{"type":"Point","coordinates":[135.1105556,35.3330556]},"properties":{"id":222051016,"name":"上天津","name_kana":"","ofc_cd":86,"sys_id":2,"sys_cam_id":"26010021","pause":0,"date_type":0,"cam_kind":2,"own_cd":22051}},{"type":"Feature","geometry":{"type":"Point","coordinates":[135.125555556,35.303333333]},"properties":{"id":222051017,"name":"福知山水位観測所","name_kana":"","ofc_cd":86,"sys_id":2,"sys_cam_id":"26010022","pause":0,"date_type":0,"cam_kind":2,"own_cd":22051}},{"type":"Feature","geometry":{"type":"Point","coordinates":[135.131944444,35.303888889]},"properties":{"id":222051018,"name":"猪崎","name_kana":"","ofc_cd":86,"sys_id":2,"sys_cam_id":"26010023","pause":0,"date_type":0,"cam_kind":2,"own_cd":22051}},{"type":"Feature","geometry":{"type":"Point","coordinates":[135.131111111,35.297777778]},"properties":{"id":222051019,"name":"福知山河川国道事務所","name_kana":"","ofc_cd":86,"sys_id":2,"sys_cam_id":"26010024","pause":0,"date_type":0,"cam_kind":2,"own_cd":22051}},{"type":"Feature","geometry":{"type":"Point","coordinates":[135.1369444,35.2936111]},"properties":{"id":222051025,"name":"新土師川橋","name_kana":"","ofc_cd":86,"sys_id":2,"sys_cam_id":"26010030","pause":0,"date_type":0,"cam_kind":2,"own_cd":22051}}]}