{"type":"FeatureCollection","crs":{"type":"name","properties":{"name":"EPSG:4326"}},"features":[{"type":"Feature","geometry":{"type":"Point","coordinates":[136.5005556,36.4661111]},"properties":{"id":221565035,"name":"手取川大橋上流","name_kana":"","ofc_cd":84,"sys_id":2,"sys_cam_id":"17010035","pause":0,"date_type":0,"cam_kind":3,"own_cd":21565}},{"type":"Feature","geometry":{"type":"Point","coordinates":[136.5463861,36.4627778]},"properties":{"id":221565036,"name":"辰口橋下流","name_kana":"","ofc_cd":84,"sys_id":2,"sys_cam_id":"17010036","pause":0,"date_type":0,"cam_kind":3,"own_cd":21565}},{"type":"Feature","geometry":{"type":"Point","coordinates":[136.5230556,36.4641667]},"properties":{"id":221565037,"name":"舟場島","name_kana":"","ofc_cd":84,"sys_id":2,"sys_cam_id":"17010037","pause":0,"date_type":0,"cam_kind":3,"own_cd":21565}},{"type":"Feature","geometry":{"type":"Point","coordinates":[136.4838861,36.4691639]},"properties":{"id":221565038,"name":"朝日","name_kana":"あさひ","ofc_cd":84,"sys_id":2,"sys_cam_id":"17010038","pause":0,"date_type":0,"cam_kind":3,"own_cd":21565}},{"type":"Feature","geometry":{"type":"Point","coordinates":[136.566688889,36.462491667]},"properties":{"id":221565068,"name":"三反田","name_kana":"さんたんだ","ofc_cd":84,"sys_id":2,"sys_cam_id":"21565001","pause":0,"date_type":0,"cam_kind":3,"own_cd":21565}}]}