{"type":"FeatureCollection","crs":{"type":"name","properties":{"name":"EPSG:4326"}},"features":[{"type":"Feature","geometry":{"type":"Point","coordinates":[131.57763888,34.07738888]},"properties":{"id":122347147,"name":"佐波川 8.80L 防府市東佐波令 人丸","name_kana":"","ofc_cd":87,"sys_id":1,"sys_cam_id":"22347147","pause":0,"date_type":2,"cam_kind":4,"own_cd":22347}},{"type":"Feature","geometry":{"type":"Point","coordinates":[131.57652777,34.07894444]},"properties":{"id":122347148,"name":"佐波川 9.00R 防府市上右田 上右田1","name_kana":"","ofc_cd":87,"sys_id":1,"sys_cam_id":"22347148","pause":0,"date_type":2,"cam_kind":4,"own_cd":22347}},{"type":"Feature","geometry":{"type":"Point","coordinates":[131.59180555,34.10608333]},"properties":{"id":122347149,"name":"佐波川 12.30R 防府市鈴屋 鈴屋沖","name_kana":"","ofc_cd":87,"sys_id":1,"sys_cam_id":"22347149","pause":0,"date_type":2,"cam_kind":4,"own_cd":22347}},{"type":"Feature","geometry":{"type":"Point","coordinates":[131.60069444,34.10447222]},"properties":{"id":122347150,"name":"佐波川 13.20L 防府市真尾 中央","name_kana":"","ofc_cd":87,"sys_id":1,"sys_cam_id":"22347150","pause":0,"date_type":2,"cam_kind":4,"own_cd":22347}},{"type":"Feature","geometry":{"type":"Point","coordinates":[131.60266666,34.11138888]},"properties":{"id":122347151,"name":"佐波川 13.80R 防府市真尾 坂本","name_kana":"","ofc_cd":87,"sys_id":1,"sys_cam_id":"22347151","pause":0,"date_type":2,"cam_kind":4,"own_cd":22347}},{"type":"Feature","geometry":{"type":"Point","coordinates":[131.60325,34.11388888]},"properties":{"id":122347152,"name":"佐波川 14.20R 防府市鈴屋 鈴屋佐尾","name_kana":"","ofc_cd":87,"sys_id":1,"sys_cam_id":"22347152","pause":0,"date_type":2,"cam_kind":4,"own_cd":22347}},{"type":"Feature","geometry":{"type":"Point","coordinates":[131.60786111,34.12091666]},"properties":{"id":122347153,"name":"佐波川 14.80L 防府市和字 和字","name_kana":"","ofc_cd":87,"sys_id":1,"sys_cam_id":"22347153","pause":0,"date_type":2,"cam_kind":4,"own_cd":22347}},{"type":"Feature","geometry":{"type":"Point","coordinates":[131.57966,34.09216]},"properties":{"id":122347263,"name":"佐波川10k400右岸　壺谷川排水樋門","name_kana":"","ofc_cd":87,"sys_id":1,"sys_cam_id":"22347263","pause":0,"date_type":2,"cam_kind":4,"own_cd":22347}},{"type":"Feature","geometry":{"type":"Point","coordinates":[131.6111,34.12554]},"properties":{"id":122347264,"name":"佐波川15k600左岸","name_kana":"","ofc_cd":87,"sys_id":1,"sys_cam_id":"22347264","pause":0,"date_type":2,"cam_kind":4,"own_cd":22347}},{"type":"Feature","geometry":{"type":"Point","coordinates":[131.60797,34.13156]},"properties":{"id":122347265,"name":"佐波川16k200右岸　下切排水樋門","name_kana":"","ofc_cd":87,"sys_id":1,"sys_cam_id":"22347265","pause":0,"date_type":2,"cam_kind":4,"own_cd":22347}},{"type":"Feature","geometry":{"type":"Point","coordinates":[131.61723,34.13487]},"properties":{"id":122347266,"name":"佐波川17k000左岸　片地山バス停留所","name_kana":"","ofc_cd":87,"sys_id":1,"sys_cam_id":"22347266","pause":0,"date_type":2,"cam_kind":4,"own_cd":22347}},{"type":"Feature","geometry":{"type":"Point","coordinates":[131.5587083,34.0634639]},"properties":{"id":222347001,"name":"新橋","name_kana":"","ofc_cd":87,"sys_id":2,"sys_cam_id":"35010001","pause":0,"date_type":0,"cam_kind":2,"own_cd":22347}},{"type":"Feature","geometry":{"type":"Point","coordinates":[131.4999278,34.0389917]},"properties":{"id":222347004,"name":"小島","name_kana":"","ofc_cd":87,"sys_id":2,"sys_cam_id":"35010004","pause":0,"date_type":0,"cam_kind":2,"own_cd":22347}},{"type":"Feature","geometry":{"type":"Point","coordinates":[131.5018444,34.0360806]},"properties":{"id":222347005,"name":"西ノ浦","name_kana":"","ofc_cd":87,"sys_id":2,"sys_cam_id":"35010005","pause":0,"date_type":0,"cam_kind":2,"own_cd":22347}},{"type":"Feature","geometry":{"type":"Point","coordinates":[131.5180083,34.0456972]},"properties":{"id":222347006,"name":"佐波川大橋","name_kana":"","ofc_cd":87,"sys_id":2,"sys_cam_id":"35010006","pause":0,"date_type":0,"cam_kind":2,"own_cd":22347}},{"type":"Feature","geometry":{"type":"Point","coordinates":[131.5235722,34.0509583]},"properties":{"id":222347007,"name":"甲久保","name_kana":"","ofc_cd":87,"sys_id":2,"sys_cam_id":"35010007","pause":0,"date_type":0,"cam_kind":2,"own_cd":22347}},{"type":"Feature","geometry":{"type":"Point","coordinates":[131.5382639,34.0531111]},"properties":{"id":222347008,"name":"佐野堰","name_kana":"","ofc_cd":87,"sys_id":2,"sys_cam_id":"35010008","pause":0,"date_type":0,"cam_kind":2,"own_cd":22347}},{"type":"Feature","geometry":{"type":"Point","coordinates":[131.5478528,34.0576417]},"properties":{"id":222347009,"name":"佐波川出張所","name_kana":"","ofc_cd":87,"sys_id":2,"sys_cam_id":"35010009","pause":0,"date_type":0,"cam_kind":2,"own_cd":22347}},{"type":"Feature","geometry":{"type":"Point","coordinates":[131.56875,34.0696806]},"properties":{"id":222347010,"name":"総合堰","name_kana":"","ofc_cd":87,"sys_id":2,"sys_cam_id":"35010010","pause":0,"date_type":0,"cam_kind":2,"own_cd":22347}},{"type":"Feature","geometry":{"type":"Point","coordinates":[131.5754667,34.0755361]},"properties":{"id":222347011,"name":"上右田","name_kana":"","ofc_cd":87,"sys_id":2,"sys_cam_id":"35010011","pause":0,"date_type":0,"cam_kind":2,"own_cd":22347}},{"type":"Feature","geometry":{"type":"Point","coordinates":[131.5816083,34.0921722]},"properties":{"id":222347012,"name":"矢筈","name_kana":"","ofc_cd":87,"sys_id":2,"sys_cam_id":"35010012","pause":0,"date_type":0,"cam_kind":2,"own_cd":22347}},{"type":"Feature","geometry":{"type":"Point","coordinates":[131.588125,34.1013389]},"properties":{"id":222347013,"name":"上右田堰","name_kana":"","ofc_cd":87,"sys_id":2,"sys_cam_id":"35010013","pause":0,"date_type":0,"cam_kind":2,"own_cd":22347}},{"type":"Feature","geometry":{"type":"Point","coordinates":[131.5949806,34.1039806]},"properties":{"id":222347014,"name":"真尾","name_kana":"","ofc_cd":87,"sys_id":2,"sys_cam_id":"35010014","pause":0,"date_type":0,"cam_kind":2,"own_cd":22347}},{"type":"Feature","geometry":{"type":"Point","coordinates":[131.6022889,34.1075972]},"properties":{"id":222347015,"name":"真尾堰","name_kana":"","ofc_cd":87,"sys_id":2,"sys_cam_id":"35010015","pause":0,"date_type":0,"cam_kind":2,"own_cd":22347}},{"type":"Feature","geometry":{"type":"Point","coordinates":[131.6063611,34.1226139]},"properties":{"id":222347016,"name":"奈美","name_kana":"","ofc_cd":87,"sys_id":2,"sys_cam_id":"35010016","pause":0,"date_type":0,"cam_kind":2,"own_cd":22347}}]}