{"type":"FeatureCollection","crs":{"type":"name","properties":{"name":"EPSG:4326"}},"features":[{"type":"Feature","geometry":{"type":"Point","coordinates":[139.96833333,36.68611111]},"properties":{"id":102305016,"name":"氏家体育館脇（五行川）　さくら市氏家","name_kana":"","ofc_cd":83,"sys_id":1,"sys_cam_id":"2305016","pause":0,"date_type":2,"cam_kind":4,"own_cd":2305}},{"type":"Feature","geometry":{"type":"Point","coordinates":[140.03194444,36.7175]},"properties":{"id":102305017,"name":"旭橋（内川）　さくら市辻畑","name_kana":"","ofc_cd":83,"sys_id":1,"sys_cam_id":"2305017","pause":0,"date_type":2,"cam_kind":4,"own_cd":2305}},{"type":"Feature","geometry":{"type":"Point","coordinates":[140.038459,36.740083]},"properties":{"id":102305044,"name":"江川橋（江川）さくら市金枝","name_kana":"","ofc_cd":83,"sys_id":1,"sys_cam_id":"2305044","pause":0,"date_type":2,"cam_kind":4,"own_cd":2305}},{"type":"Feature","geometry":{"type":"Point","coordinates":[140.020278,36.763611]},"properties":{"id":102305082,"name":"宮下橋（江川）さくら市下河戸","name_kana":"","ofc_cd":83,"sys_id":1,"sys_cam_id":"2305082","pause":0,"date_type":2,"cam_kind":4,"own_cd":2305}},{"type":"Feature","geometry":{"type":"Point","coordinates":[139.960258,36.643353]},"properties":{"id":121261072,"name":"鬼怒川左岸 87.00k","name_kana":"","ofc_cd":83,"sys_id":1,"sys_cam_id":"21261072","pause":0,"date_type":2,"cam_kind":4,"own_cd":21261}},{"type":"Feature","geometry":{"type":"Point","coordinates":[139.9479389,36.6840861]},"properties":{"id":221261050,"name":"氏家出張所","name_kana":"","ofc_cd":83,"sys_id":2,"sys_cam_id":"9010021","pause":0,"date_type":0,"cam_kind":2,"own_cd":21261}},{"type":"Feature","geometry":{"type":"Point","coordinates":[139.9583333,36.6499972]},"properties":{"id":221261051,"name":"阿久津大橋","name_kana":"","ofc_cd":83,"sys_id":2,"sys_cam_id":"9010022","pause":0,"date_type":0,"cam_kind":2,"own_cd":21261}}]}