{"type":"FeatureCollection","crs":{"type":"name","properties":{"name":"EPSG:4326"}},"features":[{"type":"Feature","geometry":{"type":"Point","coordinates":[138.930513,36.261519]},"properties":{"id":102561031,"name":"鏑川１２．８ｋ星田大橋","name_kana":"かぶらがわ１２．８ｋほしだおおはし","ofc_cd":83,"sys_id":1,"sys_cam_id":"2561031","pause":0,"date_type":2,"cam_kind":4,"own_cd":2561}},{"type":"Feature","geometry":{"type":"Point","coordinates":[138.904494,36.250948]},"properties":{"id":102561032,"name":"鏑川１５．８ｋ酢ノ瀬歩道橋","name_kana":"かぶらがわ１５．８ｋすのせほどうきょう","ofc_cd":83,"sys_id":1,"sys_cam_id":"2561032","pause":0,"date_type":2,"cam_kind":4,"own_cd":2561}},{"type":"Feature","geometry":{"type":"Point","coordinates":[138.851542,36.244005]},"properties":{"id":102561034,"name":"蚊沼川１．０ｋ一ノ宮１１号橋","name_kana":"かぬまがわ１．０ｋいちのみや１１ごうきょう","ofc_cd":83,"sys_id":1,"sys_cam_id":"2561034","pause":0,"date_type":2,"cam_kind":4,"own_cd":2561}},{"type":"Feature","geometry":{"type":"Point","coordinates":[138.81452,36.285176]},"properties":{"id":102561056,"name":"高田川１２．３ｋ川端橋","name_kana":"たかだがわ１２．３ｋかわばたはし","ofc_cd":83,"sys_id":1,"sys_cam_id":"2561056","pause":0,"date_type":2,"cam_kind":4,"own_cd":2561}},{"type":"Feature","geometry":{"type":"Point","coordinates":[138.891225,36.278993]},"properties":{"id":102561058,"name":"星川７．６ｋ山際橋","name_kana":"ほしかわ７．６ｋやまぎわばし","ofc_cd":83,"sys_id":1,"sys_cam_id":"2561058","pause":0,"date_type":2,"cam_kind":4,"own_cd":2561}},{"type":"Feature","geometry":{"type":"Point","coordinates":[138.916556,36.259361]},"properties":{"id":102561079,"name":"鏑川１４．２ｋ新富岡大橋","name_kana":"かぶらがわ１４．２ｋしんとみおかおおはし","ofc_cd":83,"sys_id":1,"sys_cam_id":"2561079","pause":0,"date_type":1,"cam_kind":4,"own_cd":2561}},{"type":"Feature","geometry":{"type":"Point","coordinates":[138.900806,36.24925]},"properties":{"id":102561080,"name":"鏑川１６．３ｋ新鏑橋","name_kana":"かぶらがわ１６．３ｋしんかぶらはし","ofc_cd":83,"sys_id":1,"sys_cam_id":"2561080","pause":0,"date_type":1,"cam_kind":4,"own_cd":2561}},{"type":"Feature","geometry":{"type":"Point","coordinates":[138.916762,36.256305]},"properties":{"id":102561081,"name":"雄川０．１ｋ下の橋","name_kana":"おがわ０．１ｋしものはし","ofc_cd":83,"sys_id":1,"sys_cam_id":"2561081","pause":0,"date_type":1,"cam_kind":4,"own_cd":2561}}]}