{"type":"FeatureCollection","crs":{"type":"name","properties":{"name":"EPSG:4326"}},"features":[{"type":"Feature","geometry":{"type":"Point","coordinates":[136.241114,35.408275]},"properties":{"id":106401038,"name":"難波橋","name_kana":"なんばばし","ofc_cd":86,"sys_id":1,"sys_cam_id":"6401038","pause":0,"date_type":2,"cam_kind":4,"own_cd":6401}},{"type":"Feature","geometry":{"type":"Point","coordinates":[136.264226,35.414661]},"properties":{"id":106401039,"name":"大井","name_kana":"おおい","ofc_cd":86,"sys_id":1,"sys_cam_id":"6401039","pause":0,"date_type":2,"cam_kind":4,"own_cd":6401}},{"type":"Feature","geometry":{"type":"Point","coordinates":[136.240527,35.415045]},"properties":{"id":106401040,"name":"錦織橋","name_kana":"にしこおりばし","ofc_cd":86,"sys_id":1,"sys_cam_id":"6401040","pause":0,"date_type":2,"cam_kind":4,"own_cd":6401}},{"type":"Feature","geometry":{"type":"Point","coordinates":[136.205979,35.502194]},"properties":{"id":106401042,"name":"賤ケ岳橋","name_kana":"しずがだけばし","ofc_cd":86,"sys_id":1,"sys_cam_id":"6401042","pause":0,"date_type":2,"cam_kind":4,"own_cd":6401}},{"type":"Feature","geometry":{"type":"Point","coordinates":[136.250499,35.518962]},"properties":{"id":106401043,"name":"川合","name_kana":"かわい","ofc_cd":86,"sys_id":1,"sys_cam_id":"6401043","pause":0,"date_type":2,"cam_kind":4,"own_cd":6401}},{"type":"Feature","geometry":{"type":"Point","coordinates":[136.123213,35.49813]},"properties":{"id":106401044,"name":"大浦黒山橋","name_kana":"おおうらくろやまばし","ofc_cd":86,"sys_id":1,"sys_cam_id":"6401044","pause":0,"date_type":2,"cam_kind":4,"own_cd":6401}},{"type":"Feature","geometry":{"type":"Point","coordinates":[136.16115,35.52367]},"properties":{"id":106401045,"name":"岩熊橋","name_kana":"やのくまばし","ofc_cd":86,"sys_id":1,"sys_cam_id":"6401045","pause":0,"date_type":2,"cam_kind":4,"own_cd":6401}},{"type":"Feature","geometry":{"type":"Point","coordinates":[136.298116,35.425576]},"properties":{"id":106401054,"name":"新湯田橋","name_kana":"しんゆだばし","ofc_cd":86,"sys_id":1,"sys_cam_id":"6401054","pause":0,"date_type":2,"cam_kind":4,"own_cd":6401}},{"type":"Feature","geometry":{"type":"Point","coordinates":[136.232769,35.592648]},"properties":{"id":106401056,"name":"菅並中川原橋","name_kana":"すがなみなかがわらばし","ofc_cd":86,"sys_id":1,"sys_cam_id":"6401056","pause":0,"date_type":2,"cam_kind":4,"own_cd":6401}},{"type":"Feature","geometry":{"type":"Point","coordinates":[136.213171,35.522079]},"properties":{"id":106401063,"name":"梅ヶ谷橋(坂口)","name_kana":"うめがだにばし(さかぐち)","ofc_cd":86,"sys_id":1,"sys_cam_id":"6401063","pause":0,"date_type":2,"cam_kind":4,"own_cd":6401}},{"type":"Feature","geometry":{"type":"Point","coordinates":[136.200655,35.531456]},"properties":{"id":106401064,"name":"余呉川導水路下流","name_kana":"よごがわどうすいろかりゅう","ofc_cd":86,"sys_id":1,"sys_cam_id":"6401064","pause":0,"date_type":2,"cam_kind":4,"own_cd":6401}},{"type":"Feature","geometry":{"type":"Point","coordinates":[136.20000555,35.546404]},"properties":{"id":106401065,"name":"堂木分流点","name_kana":"どきぶんりゅうてん","ofc_cd":86,"sys_id":1,"sys_cam_id":"6401065","pause":0,"date_type":2,"cam_kind":4,"own_cd":6401}}]}