{"type":"FeatureCollection","crs":{"type":"name","properties":{"name":"EPSG:4326"}},"features":[{"type":"Feature","geometry":{"type":"Point","coordinates":[134.095327,34.846263]},"properties":{"id":108449001,"name":"吉井川／和気町佐伯（佐伯大橋）","name_kana":"","ofc_cd":87,"sys_id":1,"sys_cam_id":"8449001","pause":0,"date_type":1,"cam_kind":4,"own_cd":8449}},{"type":"Feature","geometry":{"type":"Point","coordinates":[134.142506,34.79512]},"properties":{"id":122313141,"name":"吉井川　28K300左岸","name_kana":"","ofc_cd":87,"sys_id":1,"sys_cam_id":"22313141","pause":0,"date_type":2,"cam_kind":4,"own_cd":22313}},{"type":"Feature","geometry":{"type":"Point","coordinates":[134.1205556,34.795]},"properties":{"id":222313021,"name":"本","name_kana":"","ofc_cd":87,"sys_id":2,"sys_cam_id":"22313021","pause":0,"date_type":0,"cam_kind":2,"own_cd":22313}},{"type":"Feature","geometry":{"type":"Point","coordinates":[134.1397222,34.7977778]},"properties":{"id":222313022,"name":"原","name_kana":"","ofc_cd":87,"sys_id":2,"sys_cam_id":"22313022","pause":0,"date_type":0,"cam_kind":2,"own_cd":22313}},{"type":"Feature","geometry":{"type":"Point","coordinates":[134.1427778,34.795]},"properties":{"id":222313023,"name":"金剛川合流点","name_kana":"","ofc_cd":87,"sys_id":2,"sys_cam_id":"22313023","pause":0,"date_type":0,"cam_kind":2,"own_cd":22313}},{"type":"Feature","geometry":{"type":"Point","coordinates":[134.1511111,34.7997222]},"properties":{"id":222313024,"name":"和気","name_kana":"","ofc_cd":87,"sys_id":2,"sys_cam_id":"22313024","pause":0,"date_type":0,"cam_kind":2,"own_cd":22313}},{"type":"Feature","geometry":{"type":"Point","coordinates":[134.1572222,34.8047222]},"properties":{"id":222313025,"name":"大田原","name_kana":"","ofc_cd":87,"sys_id":2,"sys_cam_id":"22313025","pause":0,"date_type":0,"cam_kind":2,"own_cd":22313}},{"type":"Feature","geometry":{"type":"Point","coordinates":[134.1766667,34.8077778]},"properties":{"id":222313026,"name":"藤野","name_kana":"","ofc_cd":87,"sys_id":2,"sys_cam_id":"22313026","pause":0,"date_type":0,"cam_kind":2,"own_cd":22313}},{"type":"Feature","geometry":{"type":"Point","coordinates":[134.1316667,34.83]},"properties":{"id":222313027,"name":"新田原井堰下流","name_kana":"","ofc_cd":87,"sys_id":2,"sys_cam_id":"22313027","pause":0,"date_type":0,"cam_kind":2,"own_cd":22313}}]}