{"type":"FeatureCollection","crs":{"type":"name","properties":{"name":"EPSG:4326"}},"features":[{"type":"Feature","geometry":{"type":"Point","coordinates":[136.9638889,36.8288889]},"properties":{"id":304103001,"name":"川尻橋","name_kana":"","ofc_cd":16,"sys_id":3,"sys_cam_id":"4103036","pause":0,"date_type":1,"cam_kind":2,"own_cd":4103}},{"type":"Feature","geometry":{"type":"Point","coordinates":[136.9369444,36.865]},"properties":{"id":304103002,"name":"泉大橋","name_kana":"","ofc_cd":16,"sys_id":3,"sys_cam_id":"4103037","pause":0,"date_type":1,"cam_kind":2,"own_cd":4103}},{"type":"Feature","geometry":{"type":"Point","coordinates":[136.9702778,36.8816667]},"properties":{"id":304103003,"name":"糀屋橋","name_kana":"","ofc_cd":16,"sys_id":3,"sys_cam_id":"4103038","pause":0,"date_type":1,"cam_kind":2,"own_cd":4103}},{"type":"Feature","geometry":{"type":"Point","coordinates":[136.9769444,36.8911111]},"properties":{"id":304103004,"name":"指崎大橋","name_kana":"","ofc_cd":16,"sys_id":3,"sys_cam_id":"4103039","pause":0,"date_type":1,"cam_kind":2,"own_cd":4103}},{"type":"Feature","geometry":{"type":"Point","coordinates":[137.0158333,36.9138889]},"properties":{"id":304103005,"name":"宇波川","name_kana":"","ofc_cd":16,"sys_id":3,"sys_cam_id":"4103040","pause":0,"date_type":1,"cam_kind":2,"own_cd":4103}},{"type":"Feature","geometry":{"type":"Point","coordinates":[137.0068778,36.8301972]},"properties":{"id":304103006,"name":"島尾新橋","name_kana":"","ofc_cd":16,"sys_id":3,"sys_cam_id":"4103066","pause":0,"date_type":1,"cam_kind":2,"own_cd":4103}},{"type":"Feature","geometry":{"type":"Point","coordinates":[136.96055,36.8326639]},"properties":{"id":304103007,"name":"万尾川","name_kana":"","ofc_cd":16,"sys_id":3,"sys_cam_id":"4103067","pause":0,"date_type":1,"cam_kind":2,"own_cd":4103}},{"type":"Feature","geometry":{"type":"Point","coordinates":[136.9032167,36.8471472]},"properties":{"id":304103008,"name":"小久米橋","name_kana":"","ofc_cd":16,"sys_id":3,"sys_cam_id":"4103068","pause":0,"date_type":1,"cam_kind":2,"own_cd":4103}}]}