{"type":"FeatureCollection","crs":{"type":"name","properties":{"name":"EPSG:4326"}},"features":[{"type":"Feature","geometry":{"type":"Point","coordinates":[136.6260562,35.1665789]},"properties":{"id":105377011,"name":"石津橋","name_kana":"","ofc_cd":85,"sys_id":1,"sys_cam_id":"5377011","pause":0,"date_type":1,"cam_kind":4,"own_cd":5377}},{"type":"Feature","geometry":{"type":"Point","coordinates":[136.5868333,35.2382781]},"properties":{"id":105377047,"name":"津屋川戸田橋","name_kana":"","ofc_cd":85,"sys_id":1,"sys_cam_id":"5377047","pause":0,"date_type":1,"cam_kind":4,"own_cd":5377}},{"type":"Feature","geometry":{"type":"Point","coordinates":[136.666357,35.145996]},"properties":{"id":121818077,"name":"揖斐川　13k900　左岸","name_kana":"","ofc_cd":85,"sys_id":1,"sys_cam_id":"21818077","pause":0,"date_type":2,"cam_kind":4,"own_cd":21818}},{"type":"Feature","geometry":{"type":"Point","coordinates":[136.671111,35.284167]},"properties":{"id":221818015,"name":"勝賀","name_kana":"かつが","ofc_cd":85,"sys_id":2,"sys_cam_id":"21818011","pause":0,"date_type":0,"cam_kind":2,"own_cd":21818}},{"type":"Feature","geometry":{"type":"Point","coordinates":[136.670833,35.274167]},"properties":{"id":221818016,"name":"南濃大橋","name_kana":"なんのうおおはし","ofc_cd":85,"sys_id":2,"sys_cam_id":"21818012","pause":0,"date_type":0,"cam_kind":2,"own_cd":21818}},{"type":"Feature","geometry":{"type":"Point","coordinates":[136.666389,35.245556]},"properties":{"id":221818018,"name":"成戸（水防警観測所）","name_kana":"なると","ofc_cd":85,"sys_id":2,"sys_cam_id":"21818014","pause":0,"date_type":0,"cam_kind":2,"own_cd":21818}},{"type":"Feature","geometry":{"type":"Point","coordinates":[136.671111,35.225278]},"properties":{"id":221818019,"name":"東海大橋","name_kana":"とうかいおおはし","ofc_cd":85,"sys_id":2,"sys_cam_id":"21818015","pause":0,"date_type":0,"cam_kind":2,"own_cd":21818}},{"type":"Feature","geometry":{"type":"Point","coordinates":[136.625,35.191667]},"properties":{"id":221818023,"name":"山崎南谷（川表）","name_kana":"やまざきみなみだにひかん（かわおもて）","ofc_cd":85,"sys_id":2,"sys_cam_id":"21818019","pause":0,"date_type":0,"cam_kind":2,"own_cd":21818}},{"type":"Feature","geometry":{"type":"Point","coordinates":[136.621111,35.247222]},"properties":{"id":221818028,"name":"今尾橋","name_kana":"いまおばし","ofc_cd":85,"sys_id":2,"sys_cam_id":"21818024","pause":0,"date_type":0,"cam_kind":2,"own_cd":21818}},{"type":"Feature","geometry":{"type":"Point","coordinates":[136.618659,35.223514]},"properties":{"id":221818029,"name":"福岡大橋","name_kana":"ふくおかおおはし","ofc_cd":85,"sys_id":2,"sys_cam_id":"21818025","pause":0,"date_type":0,"cam_kind":2,"own_cd":21818}},{"type":"Feature","geometry":{"type":"Point","coordinates":[136.674167,35.237778]},"properties":{"id":221818038,"name":"木曽成戸水位観測所","name_kana":"きそなるとすいいかんそくじょ","ofc_cd":85,"sys_id":2,"sys_cam_id":"21818034","pause":0,"date_type":0,"cam_kind":2,"own_cd":21818}},{"type":"Feature","geometry":{"type":"Point","coordinates":[136.674167,35.238333]},"properties":{"id":221818039,"name":"長良成戸水位観測所","name_kana":"ながらなるとすいいかんそくじょ","ofc_cd":85,"sys_id":2,"sys_cam_id":"21818035","pause":0,"date_type":0,"cam_kind":2,"own_cd":21818}},{"type":"Feature","geometry":{"type":"Point","coordinates":[136.627778,35.186389]},"properties":{"id":221818041,"name":"海津橋（右岸）","name_kana":"かいづばし（うがん）","ofc_cd":85,"sys_id":2,"sys_cam_id":"21818037","pause":0,"date_type":0,"cam_kind":2,"own_cd":21818}},{"type":"Feature","geometry":{"type":"Point","coordinates":[136.628611,35.185]},"properties":{"id":221818042,"name":"小屋川排水ひ管","name_kana":"こやがわはいすいひかん","ofc_cd":85,"sys_id":2,"sys_cam_id":"21818038","pause":0,"date_type":0,"cam_kind":2,"own_cd":21818}},{"type":"Feature","geometry":{"type":"Point","coordinates":[136.632222,35.188333]},"properties":{"id":221818043,"name":"海津橋（左岸）","name_kana":"かいづばし（さがん）","ofc_cd":85,"sys_id":2,"sys_cam_id":"21818039","pause":0,"date_type":0,"cam_kind":2,"own_cd":21818}}]}