{"type":"FeatureCollection","crs":{"type":"name","properties":{"name":"EPSG:4326"}},"features":[{"type":"Feature","geometry":{"type":"Point","coordinates":[140.688327,37.590714]},"properties":{"id":101793055,"name":"口太川（菅ノ又橋）","name_kana":"くちぶとがわ（すがのまたはし）","ofc_cd":82,"sys_id":1,"sys_cam_id":"1793055","pause":0,"date_type":2,"cam_kind":4,"own_cd":1793}},{"type":"Feature","geometry":{"type":"Point","coordinates":[140.600179,37.667578]},"properties":{"id":101793056,"name":"田代川（住吉橋）","name_kana":"たしろがわ（すみよしばし）","ofc_cd":82,"sys_id":1,"sys_cam_id":"1793056","pause":0,"date_type":2,"cam_kind":4,"own_cd":1793}},{"type":"Feature","geometry":{"type":"Point","coordinates":[140.602341,37.661612]},"properties":{"id":101793057,"name":"広瀬川（旭橋）","name_kana":"ひろせがわ（あさひはし）","ofc_cd":82,"sys_id":1,"sys_cam_id":"1793057","pause":0,"date_type":2,"cam_kind":4,"own_cd":1793}},{"type":"Feature","geometry":{"type":"Point","coordinates":[140.561067,37.684731]},"properties":{"id":101793058,"name":"女神川（白鷺橋）","name_kana":"めがみがわ（しらさぎばし）","ofc_cd":82,"sys_id":1,"sys_cam_id":"1793058","pause":0,"date_type":2,"cam_kind":4,"own_cd":1793}},{"type":"Feature","geometry":{"type":"Point","coordinates":[140.6007211,37.6457619]},"properties":{"id":101793113,"name":"広瀬川（岩倉橋）","name_kana":"ひろせがわ（いわくらはし）","ofc_cd":82,"sys_id":1,"sys_cam_id":"1793113","pause":0,"date_type":2,"cam_kind":4,"own_cd":1793}},{"type":"Feature","geometry":{"type":"Point","coordinates":[140.6018791,37.668237]},"properties":{"id":101793114,"name":"広瀬川（大平橋）","name_kana":"ひろせがわ（おおひらはし）","ofc_cd":82,"sys_id":1,"sys_cam_id":"1793114","pause":0,"date_type":2,"cam_kind":4,"own_cd":1793}},{"type":"Feature","geometry":{"type":"Point","coordinates":[140.3723682,37.4736221]},"properties":{"id":101793292,"name":"五百川 (下関下橋)","name_kana":"","ofc_cd":82,"sys_id":1,"sys_cam_id":"1793292","pause":0,"date_type":1,"cam_kind":4,"own_cd":1793}}]}