{"type":"FeatureCollection","crs":{"type":"name","properties":{"name":"EPSG:4326"}},"features":[{"type":"Feature","geometry":{"type":"Point","coordinates":[132.453136,34.962525]},"properties":{"id":122308209,"name":"江の川　29.4K　右岸　尾原","name_kana":"","ofc_cd":87,"sys_id":1,"sys_cam_id":"22308209","pause":0,"date_type":2,"cam_kind":4,"own_cd":22308}},{"type":"Feature","geometry":{"type":"Point","coordinates":[132.476351,34.977038]},"properties":{"id":122308210,"name":"江の川　32.4K　右岸　三島","name_kana":"","ofc_cd":87,"sys_id":1,"sys_cam_id":"22308210","pause":0,"date_type":2,"cam_kind":4,"own_cd":22308}},{"type":"Feature","geometry":{"type":"Point","coordinates":[132.493374,34.985247]},"properties":{"id":122308211,"name":"江の川　34.3K　左岸　谷","name_kana":"","ofc_cd":87,"sys_id":1,"sys_cam_id":"22308211","pause":0,"date_type":2,"cam_kind":4,"own_cd":22308}},{"type":"Feature","geometry":{"type":"Point","coordinates":[132.507822,34.999682]},"properties":{"id":122308212,"name":"江の川　36.6K　左岸　木路原","name_kana":"","ofc_cd":87,"sys_id":1,"sys_cam_id":"22308212","pause":0,"date_type":2,"cam_kind":4,"own_cd":22308}},{"type":"Feature","geometry":{"type":"Point","coordinates":[132.52211667,35.010378]},"properties":{"id":122308213,"name":"江の川　39.6K　左岸　銅ヶ丸","name_kana":"","ofc_cd":87,"sys_id":1,"sys_cam_id":"22308213","pause":0,"date_type":2,"cam_kind":4,"own_cd":22308}},{"type":"Feature","geometry":{"type":"Point","coordinates":[132.459468,34.961113]},"properties":{"id":122308251,"name":"江の川　30.0K　右岸　尾原","name_kana":"","ofc_cd":87,"sys_id":1,"sys_cam_id":"22308251","pause":0,"date_type":2,"cam_kind":4,"own_cd":22308}},{"type":"Feature","geometry":{"type":"Point","coordinates":[132.4996417,34.9963583]},"properties":{"id":222308003,"name":"川本水位観測所","name_kana":"","ofc_cd":87,"sys_id":2,"sys_cam_id":"22308004","pause":0,"date_type":0,"cam_kind":2,"own_cd":22308}},{"type":"Feature","geometry":{"type":"Point","coordinates":[132.489516667,34.986516667]},"properties":{"id":222308011,"name":"上三島第２排水樋門 右岸 34.4km","name_kana":"","ofc_cd":87,"sys_id":2,"sys_cam_id":"22308012","pause":0,"date_type":0,"cam_kind":2,"own_cd":22308}},{"type":"Feature","geometry":{"type":"Point","coordinates":[132.492525,34.992572222]},"properties":{"id":222308012,"name":"川本大橋 左岸 35km","name_kana":"","ofc_cd":87,"sys_id":2,"sys_cam_id":"22308013","pause":0,"date_type":0,"cam_kind":2,"own_cd":22308}}]}