{"type":"FeatureCollection","crs":{"type":"name","properties":{"name":"EPSG:4326"}},"features":[{"type":"Feature","geometry":{"type":"Point","coordinates":[141.418616667,43.584166667]},"properties":{"id":100257038,"name":"浜益川  2.8Kp","name_kana":"","ofc_cd":81,"sys_id":1,"sys_cam_id":"257038","pause":0,"date_type":2,"cam_kind":4,"own_cd":257}},{"type":"Feature","geometry":{"type":"Point","coordinates":[141.311104,43.14582]},"properties":{"id":100257042,"name":"発寒川  2.8Kp","name_kana":"","ofc_cd":81,"sys_id":1,"sys_cam_id":"257042","pause":0,"date_type":2,"cam_kind":4,"own_cd":257}},{"type":"Feature","geometry":{"type":"Point","coordinates":[141.445838889,43.397222222]},"properties":{"id":100257046,"name":"厚田川  1.7Kp","name_kana":"","ofc_cd":81,"sys_id":1,"sys_cam_id":"257046","pause":0,"date_type":2,"cam_kind":4,"own_cd":257}},{"type":"Feature","geometry":{"type":"Point","coordinates":[141.427086111,43.318133333]},"properties":{"id":100257055,"name":"望来川  1.9Kp","name_kana":"","ofc_cd":81,"sys_id":1,"sys_cam_id":"257055","pause":0,"date_type":2,"cam_kind":4,"own_cd":257}},{"type":"Feature","geometry":{"type":"Point","coordinates":[141.454754444,43.275319444]},"properties":{"id":100257106,"name":"知津狩川  8.6Kp","name_kana":"","ofc_cd":81,"sys_id":1,"sys_cam_id":"257106","pause":0,"date_type":2,"cam_kind":4,"own_cd":257}},{"type":"Feature","geometry":{"type":"Point","coordinates":[141.356425,43.2475]},"properties":{"id":220737033,"name":"石狩川　3.0kp　石狩河口水位観測所","name_kana":"いしかりわがわ　3.0kp　いしかりかこうすいいかんそくじょ","ofc_cd":81,"sys_id":2,"sys_cam_id":"20737033","pause":0,"date_type":0,"cam_kind":2,"own_cd":20737}},{"type":"Feature","geometry":{"type":"Point","coordinates":[141.3483333,43.1666667]},"properties":{"id":220737034,"name":"茨戸川　11.2kp　茨戸水位観測所","name_kana":"ばらとがわ　11.2kp　ばらとすいいかんそくじょ","ofc_cd":81,"sys_id":2,"sys_cam_id":"20737034","pause":0,"date_type":0,"cam_kind":2,"own_cd":20737}},{"type":"Feature","geometry":{"type":"Point","coordinates":[141.3631167,43.24705]},"properties":{"id":220737061,"name":"石狩川　2.5kp　矢臼場築堤","name_kana":"いしかりがわ　2.5kp　やうすばちくてい","ofc_cd":81,"sys_id":2,"sys_cam_id":"20737061","pause":0,"date_type":0,"cam_kind":2,"own_cd":20737}},{"type":"Feature","geometry":{"type":"Point","coordinates":[141.3453278,43.2370111]},"properties":{"id":220737062,"name":"石狩川　4.5kp　石狩水位雨量観測所","name_kana":"いしかりがわ　4.5kp　いしかりすいいうりょうかんそくじょ","ofc_cd":81,"sys_id":2,"sys_cam_id":"20737062","pause":0,"date_type":0,"cam_kind":2,"own_cd":20737}},{"type":"Feature","geometry":{"type":"Point","coordinates":[141.3481361,43.2270278]},"properties":{"id":220737063,"name":"石狩川　5.4kp　石狩河口橋","name_kana":"いしかりがわ　5.4kp　いしかりかこうきょう　","ofc_cd":81,"sys_id":2,"sys_cam_id":"20737063","pause":0,"date_type":0,"cam_kind":2,"own_cd":20737}},{"type":"Feature","geometry":{"type":"Point","coordinates":[141.3812833,43.2262333]},"properties":{"id":220737064,"name":"石狩川　7.8kp　矢臼場築堤","name_kana":"いしかりがわ　7.8kp　やうすばちくてい","ofc_cd":81,"sys_id":2,"sys_cam_id":"20737064","pause":0,"date_type":0,"cam_kind":2,"own_cd":20737}},{"type":"Feature","geometry":{"type":"Point","coordinates":[141.3798972,43.2098194]},"properties":{"id":220737065,"name":"石狩川　9.2kp　生振築堤","name_kana":"いしかりがわ　9.2kp　おやふるちくてい","ofc_cd":81,"sys_id":2,"sys_cam_id":"20737065","pause":0,"date_type":0,"cam_kind":2,"own_cd":20737}},{"type":"Feature","geometry":{"type":"Point","coordinates":[141.3951944,43.20825]},"properties":{"id":220737066,"name":"石狩川　10.0kp　美登位築堤","name_kana":"いしかりがわ　10.0kp　びといちくてい","ofc_cd":81,"sys_id":2,"sys_cam_id":"20737066","pause":0,"date_type":0,"cam_kind":2,"own_cd":20737}},{"type":"Feature","geometry":{"type":"Point","coordinates":[141.3519167,43.2250833]},"properties":{"id":220737108,"name":"茨戸川　0.6kp　茨戸川運河水門１","name_kana":"ばらとがわ　0.6kp　ばらとがわうんがすいもん１","ofc_cd":81,"sys_id":2,"sys_cam_id":"20737108","pause":0,"date_type":0,"cam_kind":2,"own_cd":20737}},{"type":"Feature","geometry":{"type":"Point","coordinates":[141.3213806,43.1718944]},"properties":{"id":220737109,"name":"茨戸川　8.1kp","name_kana":"ばらとがわ　8.1kp　","ofc_cd":81,"sys_id":2,"sys_cam_id":"20737109","pause":0,"date_type":0,"cam_kind":2,"own_cd":20737}},{"type":"Feature","geometry":{"type":"Point","coordinates":[141.3596833,43.1777694]},"properties":{"id":220737111,"name":"茨戸川　12.6kp","name_kana":"ばらとがわ　12.6kp","ofc_cd":81,"sys_id":2,"sys_cam_id":"20737111","pause":0,"date_type":0,"cam_kind":2,"own_cd":20737}},{"type":"Feature","geometry":{"type":"Point","coordinates":[141.3041861,43.2093167]},"properties":{"id":220737114,"name":"石狩放水路　水門１","name_kana":"いしかりほうすいろ　すいもん１","ofc_cd":81,"sys_id":2,"sys_cam_id":"20737114","pause":0,"date_type":0,"cam_kind":2,"own_cd":20737}},{"type":"Feature","geometry":{"type":"Point","coordinates":[141.3291917,43.2035194]},"properties":{"id":220737115,"name":"茨戸川　2.2kp　石狩放水路","name_kana":"ばらとがわ　2.2kp　いしかりほうすいろ","ofc_cd":81,"sys_id":2,"sys_cam_id":"20737115","pause":0,"date_type":0,"cam_kind":2,"own_cd":20737}}]}