{"type":"FeatureCollection","crs":{"type":"name","properties":{"name":"EPSG:4326"}},"features":[{"type":"Feature","geometry":{"type":"Point","coordinates":[139.979253,38.893839]},"properties":{"id":101537060,"name":"相沢川（田沢橋付近）","name_kana":"","ofc_cd":82,"sys_id":1,"sys_cam_id":"1537060","pause":0,"date_type":2,"cam_kind":4,"own_cd":1537}},{"type":"Feature","geometry":{"type":"Point","coordinates":[139.8472717,38.860381]},"properties":{"id":101537063,"name":"京田川（山田橋上流付近）","name_kana":"","ofc_cd":82,"sys_id":1,"sys_cam_id":"1537063","pause":0,"date_type":2,"cam_kind":4,"own_cd":1537}},{"type":"Feature","geometry":{"type":"Point","coordinates":[139.934578,38.96635]},"properties":{"id":101537068,"name":"荒瀬川（八幡橋付近）","name_kana":"","ofc_cd":82,"sys_id":1,"sys_cam_id":"1537068","pause":0,"date_type":2,"cam_kind":4,"own_cd":1537}},{"type":"Feature","geometry":{"type":"Point","coordinates":[139.852824,38.922725]},"properties":{"id":101537069,"name":"新井田川（旭新橋付近）","name_kana":"","ofc_cd":82,"sys_id":1,"sys_cam_id":"1537069","pause":0,"date_type":2,"cam_kind":4,"own_cd":1537}},{"type":"Feature","geometry":{"type":"Point","coordinates":[139.8683646,38.979322]},"properties":{"id":101537073,"name":"日向川（日向橋付近）","name_kana":"","ofc_cd":82,"sys_id":1,"sys_cam_id":"1537073","pause":0,"date_type":2,"cam_kind":4,"own_cd":1537}},{"type":"Feature","geometry":{"type":"Point","coordinates":[139.855399,38.895074]},"properties":{"id":101537077,"name":"小牧川（こがね橋付近）","name_kana":"","ofc_cd":82,"sys_id":1,"sys_cam_id":"1537077","pause":0,"date_type":2,"cam_kind":4,"own_cd":1537}},{"type":"Feature","geometry":{"type":"Point","coordinates":[139.980111,38.891534]},"properties":{"id":101537080,"name":"田沢川（相沢橋付近）","name_kana":"","ofc_cd":82,"sys_id":1,"sys_cam_id":"1537080","pause":0,"date_type":2,"cam_kind":4,"own_cd":1537}},{"type":"Feature","geometry":{"type":"Point","coordinates":[139.875944,38.874814]},"properties":{"id":121055239,"name":"落野目（最上川 7.8k 左岸)","name_kana":"おちのめ","ofc_cd":82,"sys_id":1,"sys_cam_id":"21055239","pause":0,"date_type":2,"cam_kind":4,"own_cd":21055}},{"type":"Feature","geometry":{"type":"Point","coordinates":[139.881584,38.876126]},"properties":{"id":121055240,"name":"新堀（最上川 8.2k 左岸)","name_kana":"にいぼり","ofc_cd":82,"sys_id":1,"sys_cam_id":"21055240","pause":0,"date_type":2,"cam_kind":4,"own_cd":21055}},{"type":"Feature","geometry":{"type":"Point","coordinates":[139.879146,38.881397]},"properties":{"id":121055241,"name":"遊摺部（最上川 8.2k 右岸)","name_kana":"ゆするべ","ofc_cd":82,"sys_id":1,"sys_cam_id":"21055241","pause":0,"date_type":2,"cam_kind":4,"own_cd":21055}},{"type":"Feature","geometry":{"type":"Point","coordinates":[139.923506,38.88164]},"properties":{"id":121055244,"name":"飛鳥中島（最上川 11.8k 右岸)","name_kana":"あすかなかじま","ofc_cd":82,"sys_id":1,"sys_cam_id":"21055244","pause":0,"date_type":2,"cam_kind":4,"own_cd":21055}},{"type":"Feature","geometry":{"type":"Point","coordinates":[139.928972,38.880005]},"properties":{"id":121055245,"name":"飛鳥神内（最上川 12.2k 右岸)","name_kana":"あすかかみない","ofc_cd":82,"sys_id":1,"sys_cam_id":"21055245","pause":0,"date_type":2,"cam_kind":4,"own_cd":21055}},{"type":"Feature","geometry":{"type":"Point","coordinates":[139.945442,38.866695]},"properties":{"id":121055246,"name":"中牧田（最上川 14.2k 右岸)","name_kana":"なかまきた","ofc_cd":82,"sys_id":1,"sys_cam_id":"21055246","pause":0,"date_type":2,"cam_kind":4,"own_cd":21055}},{"type":"Feature","geometry":{"type":"Point","coordinates":[139.954316,38.841917]},"properties":{"id":121055247,"name":"山寺（最上川 17.2k 右岸)","name_kana":"やまでら","ofc_cd":82,"sys_id":1,"sys_cam_id":"21055247","pause":0,"date_type":2,"cam_kind":4,"own_cd":21055}},{"type":"Feature","geometry":{"type":"Point","coordinates":[139.993,38.810049]},"properties":{"id":121055250,"name":"地見興屋（最上川 22.0k 右岸)","name_kana":"じみこうや","ofc_cd":82,"sys_id":1,"sys_cam_id":"21055250","pause":0,"date_type":2,"cam_kind":4,"own_cd":21055}},{"type":"Feature","geometry":{"type":"Point","coordinates":[140.014727,38.795666]},"properties":{"id":121055251,"name":"成興野（最上川 25.8k 右岸)","name_kana":"なりこうや","ofc_cd":82,"sys_id":1,"sys_cam_id":"21055251","pause":0,"date_type":2,"cam_kind":4,"own_cd":21055}},{"type":"Feature","geometry":{"type":"Point","coordinates":[139.976394,38.820013]},"properties":{"id":221055004,"name":"臼ヶ沢","name_kana":"","ofc_cd":82,"sys_id":2,"sys_cam_id":"21055011","pause":0,"date_type":0,"cam_kind":2,"own_cd":21055}},{"type":"Feature","geometry":{"type":"Point","coordinates":[139.958349,38.836691]},"properties":{"id":221055005,"name":"鈴川排水機場","name_kana":"","ofc_cd":82,"sys_id":2,"sys_cam_id":"21055010","pause":0,"date_type":0,"cam_kind":2,"own_cd":21055}},{"type":"Feature","geometry":{"type":"Point","coordinates":[139.946135,38.864446]},"properties":{"id":221055006,"name":"竹田排水機場","name_kana":"","ofc_cd":82,"sys_id":2,"sys_cam_id":"21055009","pause":0,"date_type":0,"cam_kind":2,"own_cd":21055}},{"type":"Feature","geometry":{"type":"Point","coordinates":[139.907516,38.881404]},"properties":{"id":221055007,"name":"砂越","name_kana":"","ofc_cd":82,"sys_id":2,"sys_cam_id":"21055017","pause":0,"date_type":0,"cam_kind":2,"own_cd":21055}},{"type":"Feature","geometry":{"type":"Point","coordinates":[139.885559,38.88389]},"properties":{"id":221055008,"name":"酒田上水道取入口","name_kana":"","ofc_cd":82,"sys_id":2,"sys_cam_id":"21055016","pause":0,"date_type":0,"cam_kind":2,"own_cd":21055}},{"type":"Feature","geometry":{"type":"Point","coordinates":[139.849726,38.886691]},"properties":{"id":221055009,"name":"小牧川水門","name_kana":"","ofc_cd":82,"sys_id":2,"sys_cam_id":"21055004","pause":0,"date_type":0,"cam_kind":2,"own_cd":21055}},{"type":"Feature","geometry":{"type":"Point","coordinates":[139.844742,38.891391]},"properties":{"id":221055010,"name":"両羽橋","name_kana":"","ofc_cd":82,"sys_id":2,"sys_cam_id":"21055003","pause":0,"date_type":0,"cam_kind":2,"own_cd":21055}},{"type":"Feature","geometry":{"type":"Point","coordinates":[139.834463,38.902236]},"properties":{"id":221055011,"name":"出羽大橋（スワンパーク）","name_kana":"","ofc_cd":82,"sys_id":2,"sys_cam_id":"21055002","pause":0,"date_type":0,"cam_kind":2,"own_cd":21055}},{"type":"Feature","geometry":{"type":"Point","coordinates":[139.827238,38.911114]},"properties":{"id":221055012,"name":"下瀬","name_kana":"","ofc_cd":82,"sys_id":2,"sys_cam_id":"21055007","pause":0,"date_type":0,"cam_kind":2,"own_cd":21055}},{"type":"Feature","geometry":{"type":"Point","coordinates":[139.809732,38.924737]},"properties":{"id":221055013,"name":"最上川河口","name_kana":"","ofc_cd":82,"sys_id":2,"sys_cam_id":"21055001","pause":0,"date_type":0,"cam_kind":2,"own_cd":21055}},{"type":"Feature","geometry":{"type":"Point","coordinates":[139.942511,38.886416]},"properties":{"id":221055014,"name":"石名坂","name_kana":"","ofc_cd":82,"sys_id":2,"sys_cam_id":"21055008","pause":0,"date_type":0,"cam_kind":2,"own_cd":21055}},{"type":"Feature","geometry":{"type":"Point","coordinates":[139.793059,38.846673]},"properties":{"id":221055015,"name":"赤川河口","name_kana":"","ofc_cd":82,"sys_id":2,"sys_cam_id":"21055013","pause":0,"date_type":0,"cam_kind":2,"own_cd":21055}},{"type":"Feature","geometry":{"type":"Point","coordinates":[139.815281,38.841401]},"properties":{"id":221055016,"name":"浜中","name_kana":"","ofc_cd":82,"sys_id":2,"sys_cam_id":"21055020","pause":0,"date_type":0,"cam_kind":2,"own_cd":21055}},{"type":"Feature","geometry":{"type":"Point","coordinates":[139.84083333,38.82709444]},"properties":{"id":221055017,"name":"おばこ大橋","name_kana":"おばこおおはし","ofc_cd":82,"sys_id":2,"sys_cam_id":"21055014","pause":0,"date_type":0,"cam_kind":2,"own_cd":21055}},{"type":"Feature","geometry":{"type":"Point","coordinates":[140.032803,38.77889]},"properties":{"id":221055024,"name":"さみだれ大堰上流右岸","name_kana":"","ofc_cd":82,"sys_id":2,"sys_cam_id":"21055023","pause":0,"date_type":0,"cam_kind":2,"own_cd":21055}},{"type":"Feature","geometry":{"type":"Point","coordinates":[139.837798,38.883901]},"properties":{"id":221055026,"name":"広田水位観測所","name_kana":"","ofc_cd":82,"sys_id":2,"sys_cam_id":"21055026","pause":0,"date_type":0,"cam_kind":2,"own_cd":21055}},{"type":"Feature","geometry":{"type":"Point","coordinates":[139.931682,38.878073]},"properties":{"id":221055027,"name":"相沢川合流点","name_kana":"","ofc_cd":82,"sys_id":2,"sys_cam_id":"21055027","pause":0,"date_type":0,"cam_kind":2,"own_cd":21055}}]}