{"type":"FeatureCollection","crs":{"type":"name","properties":{"name":"EPSG:4326"}},"features":[{"type":"Feature","geometry":{"type":"Point","coordinates":[134.89613,34.70743]},"properties":{"id":107170001,"name":"JR山陽本線下流","name_kana":"じぇいあーるさんようほんせんかりゅう","ofc_cd":86,"sys_id":1,"sys_cam_id":"7170001","pause":0,"date_type":2,"cam_kind":4,"own_cd":7170}},{"type":"Feature","geometry":{"type":"Point","coordinates":[134.94516,34.67787]},"properties":{"id":107170002,"name":"国道2号下流","name_kana":"こくどうにごうかりゅう","ofc_cd":86,"sys_id":1,"sys_cam_id":"7170002","pause":0,"date_type":2,"cam_kind":4,"own_cd":7170}},{"type":"Feature","geometry":{"type":"Point","coordinates":[134.92195,34.68394]},"properties":{"id":107170003,"name":"国道250号下流","name_kana":"こくどうにひゃくごじゅうごうかりゅう","ofc_cd":86,"sys_id":1,"sys_cam_id":"7170003","pause":0,"date_type":2,"cam_kind":4,"own_cd":7170}},{"type":"Feature","geometry":{"type":"Point","coordinates":[134.98323,34.64849]},"properties":{"id":107170004,"name":"国道2号下流","name_kana":"こくどうにごうかりゅう","ofc_cd":86,"sys_id":1,"sys_cam_id":"7170004","pause":0,"date_type":2,"cam_kind":4,"own_cd":7170}},{"type":"Feature","geometry":{"type":"Point","coordinates":[135.01132,34.64504]},"properties":{"id":107170005,"name":"JR山陽本線下流","name_kana":"じぇいあーるさんようほんせんかりゅう","ofc_cd":86,"sys_id":1,"sys_cam_id":"7170005","pause":0,"date_type":2,"cam_kind":4,"own_cd":7170}},{"type":"Feature","geometry":{"type":"Point","coordinates":[135.0180556,34.6427778]},"properties":{"id":222061030,"name":"狩口","name_kana":"","ofc_cd":86,"sys_id":2,"sys_cam_id":"22061030","pause":0,"date_type":0,"cam_kind":2,"own_cd":22061}}]}