{"type":"FeatureCollection","crs":{"type":"name","properties":{"name":"EPSG:4326"}},"features":[{"type":"Feature","geometry":{"type":"Point","coordinates":[136.5188899,34.7565566]},"properties":{"id":106145018,"name":"横川(横川潮止堰上流側)","name_kana":"よこがわ(よこがわしおどめぜきじょうりゅうがわ)","ofc_cd":85,"sys_id":1,"sys_cam_id":"6145018","pause":0,"date_type":1,"cam_kind":4,"own_cd":6145}},{"type":"Feature","geometry":{"type":"Point","coordinates":[136.5190566,34.7552222]},"properties":{"id":106145019,"name":"志登茂川(志登茂橋上流側)","name_kana":"しともがわ(しともばしじょうりゅうがわ)","ofc_cd":85,"sys_id":1,"sys_cam_id":"6145019","pause":0,"date_type":1,"cam_kind":4,"own_cd":6145}},{"type":"Feature","geometry":{"type":"Point","coordinates":[136.45975,34.7511677]},"properties":{"id":106145020,"name":"安濃川(曽根橋上流側)","name_kana":"あのうがわ(そねばしじょうりゅうがわ)","ofc_cd":85,"sys_id":1,"sys_cam_id":"6145020","pause":0,"date_type":1,"cam_kind":4,"own_cd":6145}},{"type":"Feature","geometry":{"type":"Point","coordinates":[136.4994722,34.7269177]},"properties":{"id":106145021,"name":"美濃屋川(美濃屋橋上流400m)","name_kana":"みのやがわ(みのやばしじょうりゅう400m)","ofc_cd":85,"sys_id":1,"sys_cam_id":"6145021","pause":0,"date_type":1,"cam_kind":4,"own_cd":6145}},{"type":"Feature","geometry":{"type":"Point","coordinates":[136.4848333,34.7120566]},"properties":{"id":106145022,"name":"岩田川(神戸新橋下流側)","name_kana":"いわたがわ(かんべしんばしかりゅうがわ)","ofc_cd":85,"sys_id":1,"sys_cam_id":"6145022","pause":0,"date_type":1,"cam_kind":4,"own_cd":6145}},{"type":"Feature","geometry":{"type":"Point","coordinates":[136.5097788,34.6812222]},"properties":{"id":106145023,"name":"相川(相川橋)","name_kana":"あいかわ(あいかわばし)","ofc_cd":85,"sys_id":1,"sys_cam_id":"6145023","pause":0,"date_type":1,"cam_kind":4,"own_cd":6145}},{"type":"Feature","geometry":{"type":"Point","coordinates":[136.275,34.5651111]},"properties":{"id":106145024,"name":"雲出川 元小西(大鹿橋上流側)","name_kana":"くもずがわ もとこにし(おおしかばしじょうりゅうがわ)","ofc_cd":85,"sys_id":1,"sys_cam_id":"6145024","pause":0,"date_type":1,"cam_kind":4,"own_cd":6145}},{"type":"Feature","geometry":{"type":"Point","coordinates":[136.467458,34.64939]},"properties":{"id":106145056,"name":"赤川(相互橋)","name_kana":"あかがわ(そうごばし)","ofc_cd":85,"sys_id":1,"sys_cam_id":"6145056","pause":0,"date_type":1,"cam_kind":4,"own_cd":6145}},{"type":"Feature","geometry":{"type":"Point","coordinates":[136.472125,34.726373]},"properties":{"id":106145067,"name":"安濃川(一色橋)","name_kana":"あのうがわ(いっしきばし)","ofc_cd":85,"sys_id":1,"sys_cam_id":"6145067","pause":0,"date_type":1,"cam_kind":4,"own_cd":6145}},{"type":"Feature","geometry":{"type":"Point","coordinates":[136.512386,34.673157]},"properties":{"id":106145068,"name":"天神川(町屋橋)","name_kana":"てんじんがわ(まちやばし)","ofc_cd":85,"sys_id":1,"sys_cam_id":"6145068","pause":0,"date_type":1,"cam_kind":4,"own_cd":6145}},{"type":"Feature","geometry":{"type":"Point","coordinates":[136.4554444,34.7383889]},"properties":{"id":106145081,"name":"穴倉川(広永橋)","name_kana":"あなくらがわ(ひろながばし)","ofc_cd":85,"sys_id":1,"sys_cam_id":"6145081","pause":0,"date_type":1,"cam_kind":4,"own_cd":6145}},{"type":"Feature","geometry":{"type":"Point","coordinates":[136.552913,34.798149]},"properties":{"id":106145082,"name":"田中川(大蔵橋)","name_kana":"たなかがわ(たいぞうばし)","ofc_cd":85,"sys_id":1,"sys_cam_id":"6145082","pause":0,"date_type":1,"cam_kind":4,"own_cd":6145}},{"type":"Feature","geometry":{"type":"Point","coordinates":[136.3712222,34.6091389]},"properties":{"id":106145083,"name":"波瀬川(薬師橋)","name_kana":"はぜがわ(やくしばし)","ofc_cd":85,"sys_id":1,"sys_cam_id":"6145083","pause":0,"date_type":1,"cam_kind":4,"own_cd":6145}},{"type":"Feature","geometry":{"type":"Point","coordinates":[136.530444,34.648778]},"properties":{"id":121801054,"name":"雲出川　左岸　2.4km-43.2m","name_kana":"","ofc_cd":85,"sys_id":1,"sys_cam_id":"21801054","pause":0,"date_type":2,"cam_kind":4,"own_cd":21801}},{"type":"Feature","geometry":{"type":"Point","coordinates":[136.422944,34.670889]},"properties":{"id":121801055,"name":"雲出川　左岸　14.0km-50.0m","name_kana":"","ofc_cd":85,"sys_id":1,"sys_cam_id":"21801055","pause":0,"date_type":2,"cam_kind":4,"own_cd":21801}},{"type":"Feature","geometry":{"type":"Point","coordinates":[136.527111,34.6515]},"properties":{"id":121801056,"name":"雲出古川　右岸　2.4km+13.7m","name_kana":"","ofc_cd":85,"sys_id":1,"sys_cam_id":"21801056","pause":0,"date_type":2,"cam_kind":4,"own_cd":21801}},{"type":"Feature","geometry":{"type":"Point","coordinates":[136.447694,34.656194]},"properties":{"id":121801061,"name":"波瀬川　右岸　1.23km+51.5m","name_kana":"","ofc_cd":85,"sys_id":1,"sys_cam_id":"21801061","pause":0,"date_type":2,"cam_kind":4,"own_cd":21801}},{"type":"Feature","geometry":{"type":"Point","coordinates":[136.429139,34.652861]},"properties":{"id":121801062,"name":"波瀬川　左岸　3.4km-126.9m","name_kana":"","ofc_cd":85,"sys_id":1,"sys_cam_id":"21801062","pause":0,"date_type":2,"cam_kind":4,"own_cd":21801}},{"type":"Feature","geometry":{"type":"Point","coordinates":[136.422889,34.650083]},"properties":{"id":121801063,"name":"波瀬川　左岸　4.0km+23.0m","name_kana":"","ofc_cd":85,"sys_id":1,"sys_cam_id":"21801063","pause":0,"date_type":2,"cam_kind":4,"own_cd":21801}},{"type":"Feature","geometry":{"type":"Point","coordinates":[136.463833,34.661333]},"properties":{"id":121801077,"name":"雲出川左岸９．８ｋｍ","name_kana":"","ofc_cd":85,"sys_id":1,"sys_cam_id":"21801077","pause":0,"date_type":2,"cam_kind":4,"own_cd":21801}},{"type":"Feature","geometry":{"type":"Point","coordinates":[136.452411,34.669857]},"properties":{"id":121801079,"name":"雲出川左岸11.2km","name_kana":"くもづがわさがん","ofc_cd":85,"sys_id":1,"sys_cam_id":"21801079","pause":0,"date_type":2,"cam_kind":4,"own_cd":21801}},{"type":"Feature","geometry":{"type":"Point","coordinates":[136.4247306,34.6513806]},"properties":{"id":221801002,"name":"下川原水位観測所","name_kana":"","ofc_cd":85,"sys_id":2,"sys_cam_id":"24010002","pause":0,"date_type":0,"cam_kind":2,"own_cd":21801}},{"type":"Feature","geometry":{"type":"Point","coordinates":[136.4078,34.6445611]},"properties":{"id":221801015,"name":"大仰水位観測所","name_kana":"","ofc_cd":85,"sys_id":2,"sys_cam_id":"24010020","pause":0,"date_type":0,"cam_kind":2,"own_cd":21801}},{"type":"Feature","geometry":{"type":"Point","coordinates":[136.4678,34.6605306]},"properties":{"id":221801016,"name":"須賀瀬橋","name_kana":"","ofc_cd":85,"sys_id":2,"sys_cam_id":"24010021","pause":0,"date_type":0,"cam_kind":2,"own_cd":21801}},{"type":"Feature","geometry":{"type":"Point","coordinates":[136.4808806,34.6489389]},"properties":{"id":221801017,"name":"近鉄名古屋線橋梁","name_kana":"","ofc_cd":85,"sys_id":2,"sys_cam_id":"24010022","pause":0,"date_type":0,"cam_kind":2,"own_cd":21801}},{"type":"Feature","geometry":{"type":"Point","coordinates":[136.4132111,34.6602]},"properties":{"id":221801044,"name":"石橋","name_kana":"","ofc_cd":85,"sys_id":2,"sys_cam_id":"24010049","pause":0,"date_type":0,"cam_kind":2,"own_cd":21801}},{"type":"Feature","geometry":{"type":"Point","coordinates":[136.4257111,34.6693806]},"properties":{"id":221801045,"name":"庄田町","name_kana":"","ofc_cd":85,"sys_id":2,"sys_cam_id":"24010050","pause":0,"date_type":0,"cam_kind":2,"own_cd":21801}},{"type":"Feature","geometry":{"type":"Point","coordinates":[136.4370194,34.6696611]},"properties":{"id":221801046,"name":"一志町高野","name_kana":"","ofc_cd":85,"sys_id":2,"sys_cam_id":"24010051","pause":0,"date_type":0,"cam_kind":2,"own_cd":21801}},{"type":"Feature","geometry":{"type":"Point","coordinates":[136.4516,34.6661194]},"properties":{"id":221801047,"name":"一志町庄村","name_kana":"","ofc_cd":85,"sys_id":2,"sys_cam_id":"24010052","pause":0,"date_type":0,"cam_kind":2,"own_cd":21801}},{"type":"Feature","geometry":{"type":"Point","coordinates":[136.4575694,34.6661306]},"properties":{"id":221801048,"name":"小戸木橋","name_kana":"","ofc_cd":85,"sys_id":2,"sys_cam_id":"24010053","pause":0,"date_type":0,"cam_kind":2,"own_cd":21801}},{"type":"Feature","geometry":{"type":"Point","coordinates":[136.4558306,34.6628194]},"properties":{"id":221801049,"name":"小戸木町","name_kana":"","ofc_cd":85,"sys_id":2,"sys_cam_id":"24010054","pause":0,"date_type":0,"cam_kind":2,"own_cd":21801}},{"type":"Feature","geometry":{"type":"Point","coordinates":[136.4780389,34.6554389]},"properties":{"id":221801050,"name":"牧町","name_kana":"","ofc_cd":85,"sys_id":2,"sys_cam_id":"24010055","pause":0,"date_type":0,"cam_kind":2,"own_cd":21801}},{"type":"Feature","geometry":{"type":"Point","coordinates":[136.4749694,34.6513389]},"properties":{"id":221801051,"name":"須ヶ瀬町","name_kana":"","ofc_cd":85,"sys_id":2,"sys_cam_id":"24010056","pause":0,"date_type":0,"cam_kind":2,"own_cd":21801}},{"type":"Feature","geometry":{"type":"Point","coordinates":[136.4853806,34.64775]},"properties":{"id":221801052,"name":"大正橋","name_kana":"","ofc_cd":85,"sys_id":2,"sys_cam_id":"24010057","pause":0,"date_type":0,"cam_kind":2,"own_cd":21801}},{"type":"Feature","geometry":{"type":"Point","coordinates":[136.4982806,34.6525806]},"properties":{"id":221801055,"name":"前田川排水ひ門","name_kana":"","ofc_cd":85,"sys_id":2,"sys_cam_id":"24010060","pause":0,"date_type":0,"cam_kind":2,"own_cd":21801}},{"type":"Feature","geometry":{"type":"Point","coordinates":[136.5134889,34.6504111]},"properties":{"id":221801056,"name":"雲出橋　下流","name_kana":"","ofc_cd":85,"sys_id":2,"sys_cam_id":"24010061","pause":0,"date_type":0,"cam_kind":2,"own_cd":21801}},{"type":"Feature","geometry":{"type":"Point","coordinates":[136.5308,34.6526389]},"properties":{"id":221801059,"name":"雲出川防災ステーション","name_kana":"","ofc_cd":85,"sys_id":2,"sys_cam_id":"24010064","pause":0,"date_type":0,"cam_kind":2,"own_cd":21801}},{"type":"Feature","geometry":{"type":"Point","coordinates":[136.5378111,34.6591306]},"properties":{"id":221801060,"name":"津香良洲大橋","name_kana":"","ofc_cd":85,"sys_id":2,"sys_cam_id":"24010065","pause":0,"date_type":0,"cam_kind":2,"own_cd":21801}},{"type":"Feature","geometry":{"type":"Point","coordinates":[136.5441889,34.6617111]},"properties":{"id":221801061,"name":"雲出古川河口部","name_kana":"","ofc_cd":85,"sys_id":2,"sys_cam_id":"24010066","pause":0,"date_type":0,"cam_kind":2,"own_cd":21801}},{"type":"Feature","geometry":{"type":"Point","coordinates":[136.4364611,34.6543194]},"properties":{"id":221801067,"name":"一志団地","name_kana":"","ofc_cd":85,"sys_id":2,"sys_cam_id":"24010072","pause":0,"date_type":0,"cam_kind":2,"own_cd":21801}},{"type":"Feature","geometry":{"type":"Point","coordinates":[136.4415389,34.6537111]},"properties":{"id":221801068,"name":"八太新橋","name_kana":"","ofc_cd":85,"sys_id":2,"sys_cam_id":"24010073","pause":0,"date_type":0,"cam_kind":2,"own_cd":21801}},{"type":"Feature","geometry":{"type":"Point","coordinates":[136.4506389,34.6563194]},"properties":{"id":221801069,"name":"其村","name_kana":"","ofc_cd":85,"sys_id":2,"sys_cam_id":"24010074","pause":0,"date_type":0,"cam_kind":2,"own_cd":21801}},{"type":"Feature","geometry":{"type":"Point","coordinates":[136.4616,34.65625]},"properties":{"id":221801070,"name":"波瀬川合流点","name_kana":"","ofc_cd":85,"sys_id":2,"sys_cam_id":"24010075","pause":0,"date_type":0,"cam_kind":2,"own_cd":21801}}]}