{"type":"FeatureCollection","crs":{"type":"name","properties":{"name":"EPSG:4326"}},"features":[{"type":"Feature","geometry":{"type":"Point","coordinates":[141.63389,43.33699]},"properties":{"id":100257052,"name":"須部都川  0.0Kp","name_kana":"","ofc_cd":81,"sys_id":1,"sys_cam_id":"257052","pause":0,"date_type":2,"cam_kind":4,"own_cd":257}},{"type":"Feature","geometry":{"type":"Point","coordinates":[141.673,43.34175]},"properties":{"id":100257060,"name":"農場川  0.5Kp","name_kana":"","ofc_cd":81,"sys_id":1,"sys_cam_id":"257060","pause":0,"date_type":2,"cam_kind":4,"own_cd":257}},{"type":"Feature","geometry":{"type":"Point","coordinates":[141.6550666,43.30395]},"properties":{"id":120736023,"name":"石狩川KP53.5右岸カメラ","name_kana":"いしかりがわKP53.5うがんかめら","ofc_cd":81,"sys_id":1,"sys_cam_id":"20736023","pause":0,"date_type":2,"cam_kind":4,"own_cd":20737}},{"type":"Feature","geometry":{"type":"Point","coordinates":[141.7270333,43.3561472]},"properties":{"id":120736024,"name":"石狩川KP62.0右岸カメラ","name_kana":"いしかりがわKP62.0うがんかめら","ofc_cd":81,"sys_id":1,"sys_cam_id":"20736024","pause":0,"date_type":2,"cam_kind":4,"own_cd":20737}},{"type":"Feature","geometry":{"type":"Point","coordinates":[141.6696611,43.3351694]},"properties":{"id":120736029,"name":"須部都川KP0.6右岸カメラ","name_kana":"すべつがわKP0.6うがんかめら","ofc_cd":81,"sys_id":1,"sys_cam_id":"20736029","pause":0,"date_type":2,"cam_kind":4,"own_cd":20737}},{"type":"Feature","geometry":{"type":"Point","coordinates":[141.6623666,43.333825]},"properties":{"id":120736030,"name":"須部都川KP1.4左岸カメラ","name_kana":"すべつがわKP1.4さがんかめら","ofc_cd":81,"sys_id":1,"sys_cam_id":"20736030","pause":0,"date_type":2,"cam_kind":4,"own_cd":20737}},{"type":"Feature","geometry":{"type":"Point","coordinates":[141.6768389,43.337975]},"properties":{"id":220737132,"name":"旧石狩川　0.3kp　月形排水機場　空間監視","name_kana":"きゅういしかりがわ　0.3kp　つきがたはいすいきじょう　くうかんかんし","ofc_cd":81,"sys_id":2,"sys_cam_id":"20737132","pause":0,"date_type":0,"cam_kind":2,"own_cd":20737}},{"type":"Feature","geometry":{"type":"Point","coordinates":[141.67,43.3361111]},"properties":{"id":220737133,"name":"須部都川　0.7kp　大曲右岸救急　空間監視","name_kana":"すべつがわ　0.7kp　おおまがりうがんきゅうきゅう　くうかんかんし","ofc_cd":81,"sys_id":2,"sys_cam_id":"20737133","pause":0,"date_type":0,"cam_kind":2,"own_cd":20737}}]}