{"type":"FeatureCollection","crs":{"type":"name","properties":{"name":"EPSG:4326"}},"features":[{"type":"Feature","geometry":{"type":"Point","coordinates":[139.8315,36.200688888]},"properties":{"id":102049085,"name":"尾崎橋","name_kana":"おざきはし","ofc_cd":83,"sys_id":1,"sys_cam_id":"2049085","pause":0,"date_type":1,"cam_kind":4,"own_cd":2049}},{"type":"Feature","geometry":{"type":"Point","coordinates":[139.751566666,36.133580555]},"properties":{"id":102049088,"name":"釈水水門","name_kana":"しゃくすいすいもん","ofc_cd":83,"sys_id":1,"sys_cam_id":"2049088","pause":0,"date_type":1,"cam_kind":4,"own_cd":2049}},{"type":"Feature","geometry":{"type":"Point","coordinates":[139.736141666,36.169438888]},"properties":{"id":102049089,"name":"下辺見橋","name_kana":"しもへみはし","ofc_cd":83,"sys_id":1,"sys_cam_id":"2049089","pause":0,"date_type":1,"cam_kind":4,"own_cd":2049}},{"type":"Feature","geometry":{"type":"Point","coordinates":[139.727872222,36.190130555]},"properties":{"id":102049090,"name":"鹿養橋","name_kana":"かようはし","ofc_cd":83,"sys_id":1,"sys_cam_id":"2049090","pause":0,"date_type":1,"cam_kind":4,"own_cd":2049}},{"type":"Feature","geometry":{"type":"Point","coordinates":[139.698703,36.161415]},"properties":{"id":121259013,"name":"渡良瀬川左岸 0.3k","name_kana":"わたらせがわさがん","ofc_cd":83,"sys_id":1,"sys_cam_id":"21259013","pause":0,"date_type":2,"cam_kind":4,"own_cd":21259}},{"type":"Feature","geometry":{"type":"Point","coordinates":[139.6958306,36.1925]},"properties":{"id":221259028,"name":"古河水位（古河市）","name_kana":"こがすいい（こがし）","ofc_cd":83,"sys_id":2,"sys_cam_id":"8010005","pause":0,"date_type":0,"cam_kind":2,"own_cd":21259}}]}