{"type":"FeatureCollection","crs":{"type":"name","properties":{"name":"EPSG:4326"}},"features":[{"type":"Feature","geometry":{"type":"Point","coordinates":[136.7971738,36.7370264]},"properties":{"id":104353042,"name":"大海川（西谷橋）","name_kana":"おおみがわ（にしたにばし）","ofc_cd":84,"sys_id":1,"sys_cam_id":"4353042","pause":0,"date_type":0,"cam_kind":4,"own_cd":4353}},{"type":"Feature","geometry":{"type":"Point","coordinates":[136.7542021,36.7135969]},"properties":{"id":104353043,"name":"能瀬川（中山橋）","name_kana":"のせがわ（なかやまばし）","ofc_cd":84,"sys_id":1,"sys_cam_id":"4353043","pause":0,"date_type":0,"cam_kind":4,"own_cd":4353}},{"type":"Feature","geometry":{"type":"Point","coordinates":[136.7787858,36.6772908]},"properties":{"id":104353044,"name":"津幡川（岩崎大橋）","name_kana":"つばたがわ（いわさきおおはし）","ofc_cd":84,"sys_id":1,"sys_cam_id":"4353044","pause":0,"date_type":0,"cam_kind":4,"own_cd":4353}},{"type":"Feature","geometry":{"type":"Point","coordinates":[136.7660129,36.6457397]},"properties":{"id":104353045,"name":"材木川（仮生新橋）","name_kana":"ざいもくがわ（けしょうしんばし）","ofc_cd":84,"sys_id":1,"sys_cam_id":"4353045","pause":0,"date_type":0,"cam_kind":4,"own_cd":4353}},{"type":"Feature","geometry":{"type":"Point","coordinates":[136.737551,36.698232]},"properties":{"id":104353090,"name":"能瀬川（御門橋）","name_kana":"のせがわ（みかどばし）","ofc_cd":84,"sys_id":1,"sys_cam_id":"4353090","pause":0,"date_type":0,"cam_kind":4,"own_cd":4353}},{"type":"Feature","geometry":{"type":"Point","coordinates":[136.775363,36.665475]},"properties":{"id":104353091,"name":"津幡川（新道橋）","name_kana":"つばたがわ（しんどうばし）","ofc_cd":84,"sys_id":1,"sys_cam_id":"4353091","pause":0,"date_type":0,"cam_kind":4,"own_cd":4353}},{"type":"Feature","geometry":{"type":"Point","coordinates":[136.7473889,36.666388889]},"properties":{"id":304353029,"name":"津幡土木　津幡川　津幡川橋","name_kana":"つばたがわ　つばたがわばし","ofc_cd":17,"sys_id":3,"sys_cam_id":"4353029","pause":0,"date_type":1,"cam_kind":2,"own_cd":4353}}]}