{"type":"FeatureCollection","crs":{"type":"name","properties":{"name":"EPSG:4326"}},"features":[{"type":"Feature","geometry":{"type":"Point","coordinates":[131.7325,33.565]},"properties":{"id":111265003,"name":"国東橋","name_kana":"","ofc_cd":89,"sys_id":1,"sys_cam_id":"11265003","pause":0,"date_type":2,"cam_kind":4,"own_cd":11265}},{"type":"Feature","geometry":{"type":"Point","coordinates":[131.5933333,33.6797222]},"properties":{"id":111265004,"name":"中須賀橋","name_kana":"","ofc_cd":89,"sys_id":1,"sys_cam_id":"11265004","pause":0,"date_type":2,"cam_kind":4,"own_cd":11265}},{"type":"Feature","geometry":{"type":"Point","coordinates":[131.6941667,33.4627778]},"properties":{"id":111265005,"name":"西本橋","name_kana":"","ofc_cd":89,"sys_id":1,"sys_cam_id":"11265005","pause":0,"date_type":2,"cam_kind":4,"own_cd":11265}},{"type":"Feature","geometry":{"type":"Point","coordinates":[131.6264167,33.6647778]},"properties":{"id":111265062,"name":"大日橋","name_kana":"","ofc_cd":89,"sys_id":1,"sys_cam_id":"11265062","pause":0,"date_type":2,"cam_kind":4,"own_cd":11265}},{"type":"Feature","geometry":{"type":"Point","coordinates":[131.66975,33.52375]},"properties":{"id":111265063,"name":"楽庭橋","name_kana":"","ofc_cd":89,"sys_id":1,"sys_cam_id":"11265063","pause":0,"date_type":2,"cam_kind":4,"own_cd":11265}},{"type":"Feature","geometry":{"type":"Point","coordinates":[131.6624452,33.6312193]},"properties":{"id":111265115,"name":"鶴川橋","name_kana":"","ofc_cd":89,"sys_id":1,"sys_cam_id":"11265115","pause":0,"date_type":2,"cam_kind":4,"own_cd":11265}},{"type":"Feature","geometry":{"type":"Point","coordinates":[131.7244417,33.4986083]},"properties":{"id":311267001,"name":"百全橋","name_kana":"","ofc_cd":44,"sys_id":3,"sys_cam_id":"44010035","pause":0,"date_type":1,"cam_kind":2,"own_cd":11267}},{"type":"Feature","geometry":{"type":"Point","coordinates":[131.697775,33.4680528]},"properties":{"id":311267002,"name":"安岐中央大橋","name_kana":"","ofc_cd":44,"sys_id":3,"sys_cam_id":"44010036","pause":0,"date_type":1,"cam_kind":2,"own_cd":11267}}]}