{"type":"FeatureCollection","crs":{"type":"name","properties":{"name":"EPSG:4326"}},"features":[{"type":"Feature","geometry":{"type":"Point","coordinates":[138.919689,36.366142]},"properties":{"id":102561021,"name":"烏川７．３ｋ中河原橋","name_kana":"からすがわ７．３ｋなかがわらばし","ofc_cd":83,"sys_id":1,"sys_cam_id":"2561021","pause":0,"date_type":2,"cam_kind":4,"own_cd":2561}},{"type":"Feature","geometry":{"type":"Point","coordinates":[139.047464,36.334781]},"properties":{"id":102561022,"name":"井野川６．７ｋ境橋","name_kana":"いのがわ６．７ｋさかいばし","ofc_cd":83,"sys_id":1,"sys_cam_id":"2561022","pause":0,"date_type":2,"cam_kind":4,"own_cd":2561}},{"type":"Feature","geometry":{"type":"Point","coordinates":[139.019381,36.392077]},"properties":{"id":102561023,"name":"染谷川７．４ｋ花園橋","name_kana":"そめやがわ７．４ｋはなぞのばし","ofc_cd":83,"sys_id":1,"sys_cam_id":"2561023","pause":0,"date_type":2,"cam_kind":4,"own_cd":2561}},{"type":"Feature","geometry":{"type":"Point","coordinates":[139.007258,36.25779]},"properties":{"id":102561024,"name":"鏑川３．９ｋ入野橋","name_kana":"かぶらがわ３．９ｋいりのばし","ofc_cd":83,"sys_id":1,"sys_cam_id":"2561024","pause":0,"date_type":2,"cam_kind":4,"own_cd":2561}},{"type":"Feature","geometry":{"type":"Point","coordinates":[138.954923,36.265303]},"properties":{"id":102561025,"name":"鏑川９．８ｋ吉井大橋","name_kana":"かぶらがわ９．８ｋよしいおおはし","ofc_cd":83,"sys_id":1,"sys_cam_id":"2561025","pause":0,"date_type":2,"cam_kind":4,"own_cd":2561}},{"type":"Feature","geometry":{"type":"Point","coordinates":[138.953919,36.333323]},"properties":{"id":102561026,"name":"碓氷川２．８ｋ鼻高橋下流","name_kana":"うすいがわ２．８ｋはなだかばしかりゅう","ofc_cd":83,"sys_id":1,"sys_cam_id":"2561026","pause":0,"date_type":2,"cam_kind":4,"own_cd":2561}},{"type":"Feature","geometry":{"type":"Point","coordinates":[139.067881,36.31951]},"properties":{"id":102561027,"name":"井野川４．０ｋ常慶橋","name_kana":"いのがわ４．０ｋじょうけいばし","ofc_cd":83,"sys_id":1,"sys_cam_id":"2561027","pause":0,"date_type":2,"cam_kind":4,"own_cd":2561}},{"type":"Feature","geometry":{"type":"Point","coordinates":[138.991344,36.269842]},"properties":{"id":102561073,"name":"鏑川６．０ｋ多胡橋","name_kana":"かぶらがわ６．０ｋたごばし","ofc_cd":83,"sys_id":1,"sys_cam_id":"2561073","pause":0,"date_type":1,"cam_kind":4,"own_cd":2561}},{"type":"Feature","geometry":{"type":"Point","coordinates":[139.084333,36.303806]},"properties":{"id":102561074,"name":"井野川１．６ｋ鎌倉橋","name_kana":"いのがわ１．６ｋかまくらばし","ofc_cd":83,"sys_id":1,"sys_cam_id":"2561074","pause":0,"date_type":1,"cam_kind":4,"own_cd":2561}},{"type":"Feature","geometry":{"type":"Point","coordinates":[138.996028,36.301306]},"properties":{"id":102561075,"name":"雁行川１．６ｋ館公民館付近","name_kana":"がんぎょうがわ１．６ｋたてこうみんかんふきん","ofc_cd":83,"sys_id":1,"sys_cam_id":"2561075","pause":0,"date_type":1,"cam_kind":4,"own_cd":2561}},{"type":"Feature","geometry":{"type":"Point","coordinates":[138.985917,36.325667]},"properties":{"id":102561076,"name":"荒久沢川０．１ｋ乗附小学校","name_kana":"あらくざわかわ０．１ｋのつけしょうがっこう","ofc_cd":83,"sys_id":1,"sys_cam_id":"2561076","pause":0,"date_type":1,"cam_kind":4,"own_cd":2561}},{"type":"Feature","geometry":{"type":"Point","coordinates":[139.06066666,36.32736111]},"properties":{"id":102561095,"name":"井野川５．１ｋ下井野川橋上流","name_kana":"いのがわ５．１ｋしもいのがわばしじょうりゅう","ofc_cd":83,"sys_id":1,"sys_cam_id":"2561095","pause":0,"date_type":1,"cam_kind":4,"own_cd":2561}},{"type":"Feature","geometry":{"type":"Point","coordinates":[138.9615146,36.3939087]},"properties":{"id":102561113,"name":"天神川１．２ｋ天神橋下流","name_kana":"てんじんがわ１．２ｋてんじんばしかりゅう","ofc_cd":83,"sys_id":1,"sys_cam_id":"2561113","pause":0,"date_type":1,"cam_kind":4,"own_cd":2561}},{"type":"Feature","geometry":{"type":"Point","coordinates":[139.0193103,36.3369784]},"properties":{"id":102561114,"name":"一貫堀川４．９ｋ稲荷児童公園","name_kana":"いっかんぼりがわ４．９ｋいなりじどうこうえん","ofc_cd":83,"sys_id":1,"sys_cam_id":"2561114","pause":0,"date_type":1,"cam_kind":4,"own_cd":2561}},{"type":"Feature","geometry":{"type":"Point","coordinates":[139.0017904,36.3130957]},"properties":{"id":102561115,"name":"新川０．０ｋ石原団地","name_kana":"しんかわ０．０ｋいしはらだんち","ofc_cd":83,"sys_id":1,"sys_cam_id":"2561115","pause":0,"date_type":1,"cam_kind":4,"own_cd":2561}},{"type":"Feature","geometry":{"type":"Point","coordinates":[139.0566467,36.3098004]},"properties":{"id":102561116,"name":"粕川３．６ｋ矢中中学校","name_kana":"かすかわ３．６ｋやなかちゅうがっこう","ofc_cd":83,"sys_id":1,"sys_cam_id":"2561116","pause":0,"date_type":1,"cam_kind":4,"own_cd":2561}},{"type":"Feature","geometry":{"type":"Point","coordinates":[138.9812685,36.3434495]},"properties":{"id":102561117,"name":"天神川０．２ｋ上並榎町","name_kana":"てんじんがわ０．２ｋかみなみえまち","ofc_cd":83,"sys_id":1,"sys_cam_id":"2561117","pause":0,"date_type":1,"cam_kind":4,"own_cd":2561}},{"type":"Feature","geometry":{"type":"Point","coordinates":[139.0343745,36.3433546]},"properties":{"id":102561118,"name":"道木堀川０．５ｋ牛之堰橋","name_kana":"どうきぼりがわ０．５ｋうしのせきばし","ofc_cd":83,"sys_id":1,"sys_cam_id":"2561118","pause":0,"date_type":1,"cam_kind":4,"own_cd":2561}},{"type":"Feature","geometry":{"type":"Point","coordinates":[138.997135,36.3629239]},"properties":{"id":102561119,"name":"唐沢川０．５ｋ唐沢川橋","name_kana":"からさわがわ０．５ｋからさわがわばし","ofc_cd":83,"sys_id":1,"sys_cam_id":"2561119","pause":0,"date_type":1,"cam_kind":4,"own_cd":2561}},{"type":"Feature","geometry":{"type":"Point","coordinates":[139.0387596,36.3463765]},"properties":{"id":102561120,"name":"染谷川１．０ｋ稲荷木堰","name_kana":"そめやがわ１．０ｋいなりぎぜき","ofc_cd":83,"sys_id":1,"sys_cam_id":"2561120","pause":0,"date_type":1,"cam_kind":4,"own_cd":2561}},{"type":"Feature","geometry":{"type":"Point","coordinates":[138.875717,36.390763]},"properties":{"id":102561149,"name":"滑川１．６ｋ江戸村橋下流","name_kana":"なめかわ１．６ｋえどむらばしかりゅう","ofc_cd":83,"sys_id":1,"sys_cam_id":"2561149","pause":0,"date_type":1,"cam_kind":4,"own_cd":2561}},{"type":"Feature","geometry":{"type":"Point","coordinates":[138.909676,36.367093]},"properties":{"id":102561150,"name":"向井川５．１ｋ根岸８号橋","name_kana":"むかいがわ５．１ｋねぎしはちごうきょう","ofc_cd":83,"sys_id":1,"sys_cam_id":"2561150","pause":0,"date_type":1,"cam_kind":4,"own_cd":2561}},{"type":"Feature","geometry":{"type":"Point","coordinates":[138.778316,36.424065]},"properties":{"id":102561151,"name":"相間川０．９ｋ倉渕せせらぎ公園","name_kana":"あいまがわ０．９ｋくらぶちせせらぎこうえん","ofc_cd":83,"sys_id":1,"sys_cam_id":"2561151","pause":0,"date_type":1,"cam_kind":4,"own_cd":2561}},{"type":"Feature","geometry":{"type":"Point","coordinates":[138.776944,36.456549]},"properties":{"id":102561152,"name":"長井川１．５ｋ長井川橋下流","name_kana":"ながいがわ１．５ｋながいがわばしかりゅう","ofc_cd":83,"sys_id":1,"sys_cam_id":"2561152","pause":0,"date_type":1,"cam_kind":4,"own_cd":2561}},{"type":"Feature","geometry":{"type":"Point","coordinates":[139.040898,36.287058]},"properties":{"id":121293001,"name":"烏川右岸 11.6k","name_kana":"","ofc_cd":83,"sys_id":1,"sys_cam_id":"21293001","pause":0,"date_type":2,"cam_kind":4,"own_cd":21293}},{"type":"Feature","geometry":{"type":"Point","coordinates":[139.012775,36.3083306]},"properties":{"id":221293001,"name":"城南","name_kana":"","ofc_cd":83,"sys_id":2,"sys_cam_id":"10010002","pause":0,"date_type":0,"cam_kind":2,"own_cd":21293}},{"type":"Feature","geometry":{"type":"Point","coordinates":[139.0033306,36.3216667]},"properties":{"id":221293002,"name":"高崎市役所屋上","name_kana":"","ofc_cd":83,"sys_id":2,"sys_cam_id":"10010005","pause":0,"date_type":0,"cam_kind":2,"own_cd":21293}},{"type":"Feature","geometry":{"type":"Point","coordinates":[139.0118056,36.3040278]},"properties":{"id":221293003,"name":"寺尾","name_kana":"","ofc_cd":83,"sys_id":2,"sys_cam_id":"10010006","pause":0,"date_type":0,"cam_kind":2,"own_cd":21293}}]}