{"type":"FeatureCollection","crs":{"type":"name","properties":{"name":"EPSG:4326"}},"features":[{"type":"Feature","geometry":{"type":"Point","coordinates":[136.1680833,34.8056399]},"properties":{"id":106145036,"name":"柘植川(佐那具橋上流側)","name_kana":"つげがわ(さなぐばしじょうりゅうがわ)","ofc_cd":86,"sys_id":1,"sys_cam_id":"6145036","pause":0,"date_type":1,"cam_kind":4,"own_cd":6145}},{"type":"Feature","geometry":{"type":"Point","coordinates":[136.160277778,34.774166667]},"properties":{"id":106145037,"name":"服部川 荒木(下流側)","name_kana":"はっとりがわ あらき(かりゅうがわ)","ofc_cd":86,"sys_id":1,"sys_cam_id":"6145037","pause":0,"date_type":1,"cam_kind":4,"own_cd":6145}},{"type":"Feature","geometry":{"type":"Point","coordinates":[136.1563333,34.6753066]},"properties":{"id":106145038,"name":"木津川(比土橋上流側)","name_kana":"きづがわ(ひどばしじょうりゅうがわ)","ofc_cd":86,"sys_id":1,"sys_cam_id":"6145038","pause":0,"date_type":1,"cam_kind":4,"own_cd":6145}},{"type":"Feature","geometry":{"type":"Point","coordinates":[136.16496,34.662151]},"properties":{"id":106145052,"name":"木津川(前深瀬川合流点)","name_kana":"きづがわ(まえふかせがわごうりゅうてん)","ofc_cd":86,"sys_id":1,"sys_cam_id":"6145052","pause":0,"date_type":1,"cam_kind":4,"own_cd":6145}},{"type":"Feature","geometry":{"type":"Point","coordinates":[136.145035,34.753068]},"properties":{"id":106145069,"name":"久米川(町田橋下流側)","name_kana":"くめがわ(まちだばしかりゅうがわ)","ofc_cd":86,"sys_id":1,"sys_cam_id":"6145069","pause":0,"date_type":1,"cam_kind":4,"own_cd":6145}},{"type":"Feature","geometry":{"type":"Point","coordinates":[136.176503,34.827411]},"properties":{"id":106145077,"name":"河合川(高松橋下流側)","name_kana":"かわいがわ(たかまつばしかりゅうがわ)","ofc_cd":86,"sys_id":1,"sys_cam_id":"6145077","pause":0,"date_type":1,"cam_kind":4,"own_cd":6145}},{"type":"Feature","geometry":{"type":"Point","coordinates":[136.19266,34.77594]},"properties":{"id":106145078,"name":"服部川(真泥橋下流側)","name_kana":"はっとりがわ(みどろばしかりゅうがわ)","ofc_cd":86,"sys_id":1,"sys_cam_id":"6145078","pause":0,"date_type":1,"cam_kind":4,"own_cd":6145}},{"type":"Feature","geometry":{"type":"Point","coordinates":[136.088147222,34.779938889]},"properties":{"id":122107003,"name":"木津川 西高倉１","name_kana":"","ofc_cd":86,"sys_id":1,"sys_cam_id":"22107003","pause":0,"date_type":0,"cam_kind":4,"own_cd":22107}},{"type":"Feature","geometry":{"type":"Point","coordinates":[136.09326111,34.7785389]},"properties":{"id":122107004,"name":"木津川 西高倉２","name_kana":"","ofc_cd":86,"sys_id":1,"sys_cam_id":"22107004","pause":0,"date_type":0,"cam_kind":4,"own_cd":22107}},{"type":"Feature","geometry":{"type":"Point","coordinates":[136.121205556,34.786694444]},"properties":{"id":122107005,"name":"服部川 野間","name_kana":"","ofc_cd":86,"sys_id":1,"sys_cam_id":"22107005","pause":0,"date_type":0,"cam_kind":4,"own_cd":22107}},{"type":"Feature","geometry":{"type":"Point","coordinates":[136.128891667,34.782891667]},"properties":{"id":122107006,"name":"服部川 三田１","name_kana":"","ofc_cd":86,"sys_id":1,"sys_cam_id":"22107006","pause":0,"date_type":0,"cam_kind":4,"own_cd":22107}},{"type":"Feature","geometry":{"type":"Point","coordinates":[136.12843611,34.7850944]},"properties":{"id":122107007,"name":"柘植川 三田２","name_kana":"","ofc_cd":86,"sys_id":1,"sys_cam_id":"22107007","pause":0,"date_type":0,"cam_kind":4,"own_cd":22107}},{"type":"Feature","geometry":{"type":"Point","coordinates":[136.136027778,34.786641667]},"properties":{"id":122107008,"name":"柘植川 三田３","name_kana":"","ofc_cd":86,"sys_id":1,"sys_cam_id":"22107008","pause":0,"date_type":0,"cam_kind":4,"own_cd":22107}},{"type":"Feature","geometry":{"type":"Point","coordinates":[136.139383333,34.792663889]},"properties":{"id":122107009,"name":"柘植川 山神","name_kana":"","ofc_cd":86,"sys_id":1,"sys_cam_id":"22107009","pause":0,"date_type":0,"cam_kind":4,"own_cd":22107}},{"type":"Feature","geometry":{"type":"Point","coordinates":[136.057515,34.767588]},"properties":{"id":122107026,"name":"木津川　島ヶ原","name_kana":"","ofc_cd":86,"sys_id":1,"sys_cam_id":"22107026","pause":0,"date_type":0,"cam_kind":4,"own_cd":22107}},{"type":"Feature","geometry":{"type":"Point","coordinates":[136.120695,34.777396]},"properties":{"id":122107027,"name":"木津川　小田遊水地　小田町","name_kana":"","ofc_cd":86,"sys_id":1,"sys_cam_id":"22107027","pause":0,"date_type":0,"cam_kind":4,"own_cd":22107}},{"type":"Feature","geometry":{"type":"Point","coordinates":[136.16268055,34.66188888]},"properties":{"id":219606001,"name":"新羽根橋","name_kana":"しんはねばし","ofc_cd":76,"sys_id":2,"sys_cam_id":"19606001","pause":0,"date_type":0,"cam_kind":2,"own_cd":19606}},{"type":"Feature","geometry":{"type":"Point","coordinates":[136.15694444,34.66916666]},"properties":{"id":219606002,"name":"高瀬橋","name_kana":"たかせばし","ofc_cd":76,"sys_id":2,"sys_cam_id":"19606002","pause":0,"date_type":0,"cam_kind":2,"own_cd":19606}},{"type":"Feature","geometry":{"type":"Point","coordinates":[136.15640277,34.67520833]},"properties":{"id":219606003,"name":"比土橋","name_kana":"ひどばし","ofc_cd":76,"sys_id":2,"sys_cam_id":"19606003","pause":0,"date_type":0,"cam_kind":2,"own_cd":19606}},{"type":"Feature","geometry":{"type":"Point","coordinates":[136.186944444,34.657222222]},"properties":{"id":219606007,"name":"管理所鉄塔","name_kana":"","ofc_cd":76,"sys_id":2,"sys_cam_id":"19606004","pause":0,"date_type":0,"cam_kind":2,"own_cd":19606}},{"type":"Feature","geometry":{"type":"Point","coordinates":[136.186388889,34.656388889]},"properties":{"id":219606008,"name":"減勢工右岸","name_kana":"","ofc_cd":76,"sys_id":2,"sys_cam_id":"19606005","pause":0,"date_type":0,"cam_kind":2,"own_cd":19606}},{"type":"Feature","geometry":{"type":"Point","coordinates":[136.101980556,34.779655556]},"properties":{"id":222107001,"name":"岩倉排水樋門（全景）","name_kana":"","ofc_cd":86,"sys_id":2,"sys_cam_id":"22107001","pause":0,"date_type":0,"cam_kind":2,"own_cd":22107}},{"type":"Feature","geometry":{"type":"Point","coordinates":[136.135111111,34.788572222]},"properties":{"id":222107006,"name":"柘植","name_kana":"","ofc_cd":86,"sys_id":2,"sys_cam_id":"22107006","pause":0,"date_type":0,"cam_kind":2,"own_cd":22107}},{"type":"Feature","geometry":{"type":"Point","coordinates":[136.1135,34.781805556]},"properties":{"id":222107007,"name":"大坪排水樋門（全景）","name_kana":"","ofc_cd":86,"sys_id":2,"sys_cam_id":"22107007","pause":0,"date_type":0,"cam_kind":2,"own_cd":22107}},{"type":"Feature","geometry":{"type":"Point","coordinates":[136.123630556,34.785213889]},"properties":{"id":222107008,"name":"伊賀上野橋","name_kana":"","ofc_cd":86,"sys_id":2,"sys_cam_id":"22107008","pause":0,"date_type":0,"cam_kind":2,"own_cd":22107}},{"type":"Feature","geometry":{"type":"Point","coordinates":[136.131102778,34.777927778]},"properties":{"id":222107009,"name":"新服部橋下流","name_kana":"","ofc_cd":86,"sys_id":2,"sys_cam_id":"22107009","pause":0,"date_type":0,"cam_kind":2,"own_cd":22107}},{"type":"Feature","geometry":{"type":"Point","coordinates":[136.136858333,34.775908333]},"properties":{"id":222107010,"name":"服部橋下流","name_kana":"","ofc_cd":86,"sys_id":2,"sys_cam_id":"22107010","pause":0,"date_type":0,"cam_kind":2,"own_cd":22107}},{"type":"Feature","geometry":{"type":"Point","coordinates":[136.059052778,34.768805556]},"properties":{"id":222107024,"name":"島ヶ原大橋上流","name_kana":"","ofc_cd":86,"sys_id":2,"sys_cam_id":"22107024","pause":0,"date_type":0,"cam_kind":2,"own_cd":22107}},{"type":"Feature","geometry":{"type":"Point","coordinates":[136.105908333,34.777866667]},"properties":{"id":222107025,"name":"平野川排水樋門（全景）","name_kana":"","ofc_cd":86,"sys_id":2,"sys_cam_id":"22107025","pause":0,"date_type":0,"cam_kind":2,"own_cd":22107}},{"type":"Feature","geometry":{"type":"Point","coordinates":[136.110841667,34.769061111]},"properties":{"id":222107026,"name":"市場","name_kana":"","ofc_cd":86,"sys_id":2,"sys_cam_id":"22107026","pause":0,"date_type":0,"cam_kind":2,"own_cd":22107}},{"type":"Feature","geometry":{"type":"Point","coordinates":[136.112602778,34.763580556]},"properties":{"id":222107027,"name":"長田排水門（全景）","name_kana":"","ofc_cd":86,"sys_id":2,"sys_cam_id":"22107027","pause":0,"date_type":0,"cam_kind":2,"own_cd":22107}},{"type":"Feature","geometry":{"type":"Point","coordinates":[136.113877778,34.765755556]},"properties":{"id":222107028,"name":"木興排水門（全景）","name_kana":"","ofc_cd":86,"sys_id":2,"sys_cam_id":"22107028","pause":0,"date_type":0,"cam_kind":2,"own_cd":22107}},{"type":"Feature","geometry":{"type":"Point","coordinates":[136.115305556,34.758344444]},"properties":{"id":222107029,"name":"木興","name_kana":"","ofc_cd":86,"sys_id":2,"sys_cam_id":"22107029","pause":0,"date_type":0,"cam_kind":2,"own_cd":22107}},{"type":"Feature","geometry":{"type":"Point","coordinates":[136.118772222,34.755841667]},"properties":{"id":222107030,"name":"八幡排水樋門（全景）","name_kana":"","ofc_cd":86,"sys_id":2,"sys_cam_id":"22107030","pause":0,"date_type":0,"cam_kind":2,"own_cd":22107}},{"type":"Feature","geometry":{"type":"Point","coordinates":[136.116305556,34.747138889]},"properties":{"id":222107031,"name":"大野木","name_kana":"","ofc_cd":86,"sys_id":2,"sys_cam_id":"22107031","pause":0,"date_type":0,"cam_kind":2,"own_cd":22107}}]}