{"type":"FeatureCollection","crs":{"type":"name","properties":{"name":"EPSG:4326"}},"features":[{"type":"Feature","geometry":{"type":"Point","coordinates":[138.8702268,35.0991971]},"properties":{"id":121826001,"name":"狩野川　3k400　右岸","name_kana":"","ofc_cd":85,"sys_id":1,"sys_cam_id":"21826001","pause":0,"date_type":2,"cam_kind":4,"own_cd":21826}},{"type":"Feature","geometry":{"type":"Point","coordinates":[138.9129728,35.0772856]},"properties":{"id":121826006,"name":"狩野川　11k000　左岸","name_kana":"","ofc_cd":85,"sys_id":1,"sys_cam_id":"21826006","pause":0,"date_type":2,"cam_kind":4,"own_cd":21826}},{"type":"Feature","geometry":{"type":"Point","coordinates":[138.8868233,35.1136239]},"properties":{"id":121826015,"name":"黄瀬川　2k000　右岸","name_kana":"","ofc_cd":85,"sys_id":1,"sys_cam_id":"21826015","pause":0,"date_type":2,"cam_kind":4,"own_cd":21826}},{"type":"Feature","geometry":{"type":"Point","coordinates":[138.861394993,35.088732062]},"properties":{"id":121826021,"name":"狩野川　1.4k-16　左岸","name_kana":"","ofc_cd":85,"sys_id":1,"sys_cam_id":"21826021","pause":0,"date_type":1,"cam_kind":4,"own_cd":21826}},{"type":"Feature","geometry":{"type":"Point","coordinates":[138.921525,35.0734472]},"properties":{"id":221826011,"name":"大場川","name_kana":"","ofc_cd":85,"sys_id":2,"sys_cam_id":"22010080","pause":0,"date_type":0,"cam_kind":2,"own_cd":21826}},{"type":"Feature","geometry":{"type":"Point","coordinates":[138.8861389,35.1196139]},"properties":{"id":221826012,"name":"本宿","name_kana":"","ofc_cd":85,"sys_id":2,"sys_cam_id":"22010081","pause":0,"date_type":0,"cam_kind":2,"own_cd":21826}},{"type":"Feature","geometry":{"type":"Point","coordinates":[138.8756944,35.0918306]},"properties":{"id":221826013,"name":"香貫山展望台","name_kana":"","ofc_cd":85,"sys_id":2,"sys_cam_id":"22010082","pause":0,"date_type":0,"cam_kind":2,"own_cd":21826}},{"type":"Feature","geometry":{"type":"Point","coordinates":[138.8594472,35.0813028]},"properties":{"id":221826014,"name":"狩野川河口","name_kana":"","ofc_cd":85,"sys_id":2,"sys_cam_id":"22010083","pause":0,"date_type":0,"cam_kind":2,"own_cd":21826}},{"type":"Feature","geometry":{"type":"Point","coordinates":[138.9186111,35.0466667]},"properties":{"id":221826020,"name":"珍野","name_kana":"","ofc_cd":85,"sys_id":2,"sys_cam_id":"22010112","pause":0,"date_type":0,"cam_kind":2,"own_cd":21826}},{"type":"Feature","geometry":{"type":"Point","coordinates":[138.9150694,35.048175]},"properties":{"id":221826021,"name":"長塚橋","name_kana":"","ofc_cd":85,"sys_id":2,"sys_cam_id":"22010113","pause":0,"date_type":0,"cam_kind":2,"own_cd":21826}},{"type":"Feature","geometry":{"type":"Point","coordinates":[138.9063889,35.0486111]},"properties":{"id":221826022,"name":"口野橋","name_kana":"","ofc_cd":85,"sys_id":2,"sys_cam_id":"22010114","pause":0,"date_type":0,"cam_kind":2,"own_cd":21826}},{"type":"Feature","geometry":{"type":"Point","coordinates":[138.9060528,35.0472222]},"properties":{"id":221826023,"name":"口野水位観測所","name_kana":"","ofc_cd":85,"sys_id":2,"sys_cam_id":"22010115","pause":0,"date_type":0,"cam_kind":2,"own_cd":21826}},{"type":"Feature","geometry":{"type":"Point","coordinates":[138.8634528,35.0818972]},"properties":{"id":221826024,"name":"江川排水機場","name_kana":"","ofc_cd":85,"sys_id":2,"sys_cam_id":"22010116","pause":0,"date_type":0,"cam_kind":2,"own_cd":21826}},{"type":"Feature","geometry":{"type":"Point","coordinates":[138.8726472,35.0980361]},"properties":{"id":221826025,"name":"黒瀬橋","name_kana":"","ofc_cd":85,"sys_id":2,"sys_cam_id":"22010117","pause":0,"date_type":0,"cam_kind":2,"own_cd":21826}},{"type":"Feature","geometry":{"type":"Point","coordinates":[138.8816167,35.10145]},"properties":{"id":221826026,"name":"黄瀬川合流点","name_kana":"","ofc_cd":85,"sys_id":2,"sys_cam_id":"22010118","pause":0,"date_type":0,"cam_kind":2,"own_cd":21826}},{"type":"Feature","geometry":{"type":"Point","coordinates":[138.8855528,35.1]},"properties":{"id":221826027,"name":"香貫大橋","name_kana":"","ofc_cd":85,"sys_id":2,"sys_cam_id":"22010119","pause":0,"date_type":0,"cam_kind":2,"own_cd":21826}},{"type":"Feature","geometry":{"type":"Point","coordinates":[138.8657056,35.0976278]},"properties":{"id":221826028,"name":"三園橋","name_kana":"","ofc_cd":85,"sys_id":2,"sys_cam_id":"22010120","pause":0,"date_type":0,"cam_kind":2,"own_cd":21826}},{"type":"Feature","geometry":{"type":"Point","coordinates":[138.882025,35.1030583]},"properties":{"id":221826029,"name":"木瀬地区","name_kana":"","ofc_cd":85,"sys_id":2,"sys_cam_id":"22010121","pause":0,"date_type":0,"cam_kind":2,"own_cd":21826}},{"type":"Feature","geometry":{"type":"Point","coordinates":[138.8635194,35.0956444]},"properties":{"id":221826030,"name":"沼津市役所","name_kana":"","ofc_cd":85,"sys_id":2,"sys_cam_id":"22010122","pause":0,"date_type":0,"cam_kind":2,"own_cd":21826}},{"type":"Feature","geometry":{"type":"Point","coordinates":[138.8600444,35.0963417]},"properties":{"id":221826031,"name":"御成橋","name_kana":"","ofc_cd":85,"sys_id":2,"sys_cam_id":"22010123","pause":0,"date_type":0,"cam_kind":2,"own_cd":21826}}]}