{"type":"FeatureCollection","crs":{"type":"name","properties":{"name":"EPSG:4326"}},"features":[{"type":"Feature","geometry":{"type":"Point","coordinates":[131.0256111,32.9542778]},"properties":{"id":111009045,"name":"黒川（小野遊水地）","name_kana":"","ofc_cd":89,"sys_id":1,"sys_cam_id":"11009045","pause":0,"date_type":2,"cam_kind":4,"own_cd":11009}},{"type":"Feature","geometry":{"type":"Point","coordinates":[131.0666111,32.9726389]},"properties":{"id":111009046,"name":"黒川（今町橋）","name_kana":"","ofc_cd":89,"sys_id":1,"sys_cam_id":"11009046","pause":0,"date_type":2,"cam_kind":4,"own_cd":11009}},{"type":"Feature","geometry":{"type":"Point","coordinates":[131.0055556,32.935275]},"properties":{"id":311009023,"name":"黒川(阿蘇市跡ヶ瀬)","name_kana":"","ofc_cd":43,"sys_id":3,"sys_cam_id":"43010122","pause":0,"date_type":1,"cam_kind":2,"own_cd":11009}},{"type":"Feature","geometry":{"type":"Point","coordinates":[131.0413889,32.9725]},"properties":{"id":311009024,"name":"黒川(阿蘇市内牧)","name_kana":"","ofc_cd":43,"sys_id":3,"sys_cam_id":"43010123","pause":0,"date_type":1,"cam_kind":2,"own_cd":11009}},{"type":"Feature","geometry":{"type":"Point","coordinates":[131.055,32.9727778]},"properties":{"id":311009025,"name":"黒川(ふれあい水辺公園)","name_kana":"","ofc_cd":43,"sys_id":3,"sys_cam_id":"43010124","pause":0,"date_type":1,"cam_kind":2,"own_cd":11009}},{"type":"Feature","geometry":{"type":"Point","coordinates":[131.1297222,32.9708333]},"properties":{"id":311009026,"name":"黒川(阿蘇市古城)","name_kana":"","ofc_cd":43,"sys_id":3,"sys_cam_id":"43010125","pause":0,"date_type":1,"cam_kind":2,"own_cd":11009}}]}