{"type":"FeatureCollection","crs":{"type":"name","properties":{"name":"EPSG:4326"}},"features":[{"type":"Feature","geometry":{"type":"Point","coordinates":[135.164497222,34.245041667]},"properties":{"id":122087001,"name":"紀の川 福島","name_kana":"きのかわ　ふくしま","ofc_cd":86,"sys_id":1,"sys_cam_id":"22087001","pause":0,"date_type":0,"cam_kind":4,"own_cd":22087}},{"type":"Feature","geometry":{"type":"Point","coordinates":[135.222086111,34.251880556]},"properties":{"id":122087002,"name":"紀の川 小豆島右岸","name_kana":"きのかわ　あずしまうがん","ofc_cd":86,"sys_id":1,"sys_cam_id":"22087002","pause":0,"date_type":0,"cam_kind":4,"own_cd":22087}},{"type":"Feature","geometry":{"type":"Point","coordinates":[135.228847222,34.2449]},"properties":{"id":122087003,"name":"紀の川 出島","name_kana":"きのかわ　でじま","ofc_cd":86,"sys_id":1,"sys_cam_id":"22087003","pause":0,"date_type":0,"cam_kind":4,"own_cd":22087}},{"type":"Feature","geometry":{"type":"Point","coordinates":[135.136,34.21975]},"properties":{"id":222087008,"name":"青岸","name_kana":"あおぎし","ofc_cd":86,"sys_id":2,"sys_cam_id":"30010004","pause":0,"date_type":0,"cam_kind":2,"own_cd":22087}},{"type":"Feature","geometry":{"type":"Point","coordinates":[135.1362222,34.2254444]},"properties":{"id":222087009,"name":"湊河口","name_kana":"みなとかこう","ofc_cd":86,"sys_id":2,"sys_cam_id":"30010005","pause":0,"date_type":0,"cam_kind":2,"own_cd":22087}},{"type":"Feature","geometry":{"type":"Point","coordinates":[135.140556389,34.221390278]},"properties":{"id":222087010,"name":"青岸クリーンセンター","name_kana":"あおぎしくりーんせんたー","ofc_cd":86,"sys_id":2,"sys_cam_id":"30010006","pause":0,"date_type":0,"cam_kind":2,"own_cd":22087}},{"type":"Feature","geometry":{"type":"Point","coordinates":[135.153888889,34.225277778]},"properties":{"id":222087011,"name":"築港","name_kana":"ちっこう","ofc_cd":86,"sys_id":2,"sys_cam_id":"30010007","pause":0,"date_type":0,"cam_kind":3,"own_cd":22087}},{"type":"Feature","geometry":{"type":"Point","coordinates":[135.1501111,34.22875]},"properties":{"id":222087012,"name":"湊右岸","name_kana":"みなとうがん","ofc_cd":86,"sys_id":2,"sys_cam_id":"30010008","pause":0,"date_type":0,"cam_kind":2,"own_cd":22087}},{"type":"Feature","geometry":{"type":"Point","coordinates":[135.157172222,34.227505556]},"properties":{"id":222087013,"name":"湊","name_kana":"みなと","ofc_cd":86,"sys_id":2,"sys_cam_id":"30010009","pause":0,"date_type":0,"cam_kind":2,"own_cd":22087}},{"type":"Feature","geometry":{"type":"Point","coordinates":[135.1619722,34.2333889]},"properties":{"id":222087014,"name":"湊紺屋町","name_kana":"みなとこんやまち","ofc_cd":86,"sys_id":2,"sys_cam_id":"30010010","pause":0,"date_type":0,"cam_kind":2,"own_cd":22087}},{"type":"Feature","geometry":{"type":"Point","coordinates":[135.1610028,34.2396389]},"properties":{"id":222087015,"name":"和歌山市北島","name_kana":"わかやましきたじま","ofc_cd":86,"sys_id":2,"sys_cam_id":"30010011","pause":0,"date_type":0,"cam_kind":2,"own_cd":22087}},{"type":"Feature","geometry":{"type":"Point","coordinates":[135.1764583,34.2432722]},"properties":{"id":222087016,"name":"紀の国大橋下流左岸","name_kana":"きのくにおおはしかりゅうさがん","ofc_cd":86,"sys_id":2,"sys_cam_id":"30010012","pause":0,"date_type":0,"cam_kind":2,"own_cd":22087}},{"type":"Feature","geometry":{"type":"Point","coordinates":[135.202525,34.2579833]},"properties":{"id":222087017,"name":"六十谷","name_kana":"むそた","ofc_cd":86,"sys_id":2,"sys_cam_id":"30010013","pause":0,"date_type":0,"cam_kind":2,"own_cd":22087}},{"type":"Feature","geometry":{"type":"Point","coordinates":[135.2127333,34.2574833]},"properties":{"id":222087018,"name":"直川","name_kana":"のうがわ","ofc_cd":86,"sys_id":2,"sys_cam_id":"30010014","pause":0,"date_type":0,"cam_kind":2,"own_cd":22087}},{"type":"Feature","geometry":{"type":"Point","coordinates":[135.2139972,34.2515861]},"properties":{"id":222087019,"name":"松島","name_kana":"まつしま","ofc_cd":86,"sys_id":2,"sys_cam_id":"30010015","pause":0,"date_type":0,"cam_kind":2,"own_cd":22087}},{"type":"Feature","geometry":{"type":"Point","coordinates":[135.2623306,34.2535944]},"properties":{"id":222087021,"name":"川辺","name_kana":"かわなべ","ofc_cd":86,"sys_id":2,"sys_cam_id":"30010017","pause":0,"date_type":0,"cam_kind":2,"own_cd":22087}}]}