{"type":"FeatureCollection","crs":{"type":"name","properties":{"name":"EPSG:4326"}},"features":[{"type":"Feature","geometry":{"type":"Point","coordinates":[137.8562122,36.395991]},"properties":{"id":105121118,"name":"細野橋","name_kana":"ほそのばし","ofc_cd":84,"sys_id":1,"sys_cam_id":"5121118","pause":0,"date_type":1,"cam_kind":4,"own_cd":5121}},{"type":"Feature","geometry":{"type":"Point","coordinates":[137.8546241,36.3955813]},"properties":{"id":105121119,"name":"南神戸橋","name_kana":"みなみごうどばし","ofc_cd":84,"sys_id":1,"sys_cam_id":"5121119","pause":0,"date_type":1,"cam_kind":4,"own_cd":5121}},{"type":"Feature","geometry":{"type":"Point","coordinates":[137.86757989,36.42147747]},"properties":{"id":105121268,"name":"高瀬川大橋","name_kana":"たかせがわおおはし","ofc_cd":84,"sys_id":1,"sys_cam_id":"5121268","pause":0,"date_type":2,"cam_kind":4,"own_cd":5121}},{"type":"Feature","geometry":{"type":"Point","coordinates":[137.8671111,36.4025528]},"properties":{"id":221547004,"name":"松川","name_kana":"","ofc_cd":84,"sys_id":2,"sys_cam_id":"20010049","pause":0,"date_type":0,"cam_kind":3,"own_cd":21547}},{"type":"Feature","geometry":{"type":"Point","coordinates":[137.8711861,36.4251306]},"properties":{"id":221547005,"name":"池田","name_kana":"","ofc_cd":84,"sys_id":2,"sys_cam_id":"20010050","pause":0,"date_type":0,"cam_kind":3,"own_cd":21547}},{"type":"Feature","geometry":{"type":"Point","coordinates":[137.8726611,36.4096361]},"properties":{"id":221547006,"name":"林中","name_kana":"","ofc_cd":84,"sys_id":2,"sys_cam_id":"20010051","pause":0,"date_type":0,"cam_kind":3,"own_cd":21547}},{"type":"Feature","geometry":{"type":"Point","coordinates":[137.8752833,36.384475]},"properties":{"id":221547015,"name":"川会","name_kana":"","ofc_cd":84,"sys_id":2,"sys_cam_id":"20010060","pause":0,"date_type":0,"cam_kind":3,"own_cd":21547}}]}