{"type":"FeatureCollection","crs":{"type":"name","properties":{"name":"EPSG:4326"}},"features":[{"type":"Feature","geometry":{"type":"Point","coordinates":[138.343824,37.173453]},"properties":{"id":103841103,"name":"保倉川遊水池","name_kana":"","ofc_cd":84,"sys_id":1,"sys_cam_id":"3841103","pause":0,"date_type":1,"cam_kind":4,"own_cd":3841}},{"type":"Feature","geometry":{"type":"Point","coordinates":[138.342692,37.174338]},"properties":{"id":103841104,"name":"遊水池外水位","name_kana":"","ofc_cd":84,"sys_id":1,"sys_cam_id":"3841104","pause":0,"date_type":1,"cam_kind":4,"own_cd":3841}},{"type":"Feature","geometry":{"type":"Point","coordinates":[138.228425,37.140304]},"properties":{"id":103841107,"name":"藤新田","name_kana":"","ofc_cd":84,"sys_id":1,"sys_cam_id":"3841107","pause":0,"date_type":1,"cam_kind":4,"own_cd":3841}},{"type":"Feature","geometry":{"type":"Point","coordinates":[138.396342,37.256024]},"properties":{"id":103841108,"name":"角取","name_kana":"","ofc_cd":84,"sys_id":1,"sys_cam_id":"3841108","pause":0,"date_type":1,"cam_kind":4,"own_cd":3841}},{"type":"Feature","geometry":{"type":"Point","coordinates":[138.25515,37.077919]},"properties":{"id":103841110,"name":"石沢","name_kana":"","ofc_cd":84,"sys_id":1,"sys_cam_id":"3841110","pause":0,"date_type":1,"cam_kind":4,"own_cd":3841}},{"type":"Feature","geometry":{"type":"Point","coordinates":[138.424138,37.158101]},"properties":{"id":103841112,"name":"顕聖寺","name_kana":"","ofc_cd":84,"sys_id":1,"sys_cam_id":"3841112","pause":0,"date_type":1,"cam_kind":4,"own_cd":3841}},{"type":"Feature","geometry":{"type":"Point","coordinates":[138.440207,37.155946]},"properties":{"id":103841113,"name":"虫川","name_kana":"","ofc_cd":84,"sys_id":1,"sys_cam_id":"3841113","pause":0,"date_type":1,"cam_kind":4,"own_cd":3841}},{"type":"Feature","geometry":{"type":"Point","coordinates":[138.507596,37.117287]},"properties":{"id":103841114,"name":"棚岡","name_kana":"","ofc_cd":84,"sys_id":1,"sys_cam_id":"3841114","pause":0,"date_type":1,"cam_kind":4,"own_cd":3841}},{"type":"Feature","geometry":{"type":"Point","coordinates":[138.510442,37.154802]},"properties":{"id":103841128,"name":"田麦川","name_kana":"","ofc_cd":84,"sys_id":1,"sys_cam_id":"3841128","pause":0,"date_type":1,"cam_kind":4,"own_cd":3841}},{"type":"Feature","geometry":{"type":"Point","coordinates":[138.260358,37.170836]},"properties":{"id":103841129,"name":"面川","name_kana":"","ofc_cd":84,"sys_id":1,"sys_cam_id":"3841129","pause":0,"date_type":1,"cam_kind":4,"own_cd":3841}},{"type":"Feature","geometry":{"type":"Point","coordinates":[138.24855193,37.13248585]},"properties":{"id":121539010,"name":"土橋（関川６．０ｋ左岸）","name_kana":"","ofc_cd":84,"sys_id":1,"sys_cam_id":"21539010","pause":0,"date_type":2,"cam_kind":4,"own_cd":21539}},{"type":"Feature","geometry":{"type":"Point","coordinates":[138.25253026,37.17894763]},"properties":{"id":121539011,"name":"川原町第二排水樋管","name_kana":"","ofc_cd":84,"sys_id":1,"sys_cam_id":"21539011","pause":0,"date_type":2,"cam_kind":4,"own_cd":21539}},{"type":"Feature","geometry":{"type":"Point","coordinates":[138.243646,37.154141]},"properties":{"id":121539049,"name":"金子川排水樋管（関川左岸３．６ｋ付近）","name_kana":"","ofc_cd":84,"sys_id":1,"sys_cam_id":"21539049","pause":0,"date_type":2,"cam_kind":4,"own_cd":21539}},{"type":"Feature","geometry":{"type":"Point","coordinates":[138.253614,37.131131]},"properties":{"id":121539050,"name":"関川右岸６．４ｋ付近","name_kana":"せきかわうがん6.4ｋふきん","ofc_cd":84,"sys_id":1,"sys_cam_id":"21539050","pause":0,"date_type":2,"cam_kind":4,"own_cd":21539}},{"type":"Feature","geometry":{"type":"Point","coordinates":[138.26734299,37.114443]},"properties":{"id":121539051,"name":"古川排水樋管（関川右岸８．８ｋ付近）","name_kana":"","ofc_cd":84,"sys_id":1,"sys_cam_id":"21539051","pause":0,"date_type":2,"cam_kind":4,"own_cd":21539}},{"type":"Feature","geometry":{"type":"Point","coordinates":[138.267528,37.10668599]},"properties":{"id":121539052,"name":"鴨島排水樋管（関川右岸９．６ｋ付近）","name_kana":"","ofc_cd":84,"sys_id":1,"sys_cam_id":"21539052","pause":0,"date_type":2,"cam_kind":4,"own_cd":21539}},{"type":"Feature","geometry":{"type":"Point","coordinates":[138.256609,37.179012]},"properties":{"id":121539053,"name":"港町第四排水樋管（保倉川右岸０．６ｋ付近）","name_kana":"","ofc_cd":84,"sys_id":1,"sys_cam_id":"21539053","pause":0,"date_type":2,"cam_kind":4,"own_cd":21539}},{"type":"Feature","geometry":{"type":"Point","coordinates":[138.261612,37.179613]},"properties":{"id":121539054,"name":"港町第五排水樋管（保倉川右岸１．０ｋ付近）","name_kana":"","ofc_cd":84,"sys_id":1,"sys_cam_id":"21539054","pause":0,"date_type":2,"cam_kind":4,"own_cd":21539}},{"type":"Feature","geometry":{"type":"Point","coordinates":[138.2458444,37.1811361]},"properties":{"id":221539016,"name":"河口","name_kana":"","ofc_cd":84,"sys_id":2,"sys_cam_id":"15010035","pause":0,"date_type":0,"cam_kind":3,"own_cd":21539}},{"type":"Feature","geometry":{"type":"Point","coordinates":[138.2469833,37.1781722]},"properties":{"id":221539017,"name":"保倉川合流点","name_kana":"","ofc_cd":84,"sys_id":2,"sys_cam_id":"15010036","pause":0,"date_type":0,"cam_kind":3,"own_cd":21539}},{"type":"Feature","geometry":{"type":"Point","coordinates":[138.2508111,37.1676333]},"properties":{"id":221539018,"name":"関川大橋下流","name_kana":"","ofc_cd":84,"sys_id":2,"sys_cam_id":"15010037","pause":0,"date_type":0,"cam_kind":3,"own_cd":21539}},{"type":"Feature","geometry":{"type":"Point","coordinates":[138.2484806,37.1458278]},"properties":{"id":221539019,"name":"北陸道関川橋梁下流","name_kana":"","ofc_cd":84,"sys_id":2,"sys_cam_id":"15010038","pause":0,"date_type":0,"cam_kind":3,"own_cd":21539}},{"type":"Feature","geometry":{"type":"Point","coordinates":[138.2511444,37.1334722]},"properties":{"id":221539020,"name":"上越大橋下流","name_kana":"","ofc_cd":84,"sys_id":2,"sys_cam_id":"15010039","pause":0,"date_type":0,"cam_kind":3,"own_cd":21539}},{"type":"Feature","geometry":{"type":"Point","coordinates":[138.2627833,37.1240639]},"properties":{"id":221539021,"name":"上越工業用取水堰","name_kana":"","ofc_cd":84,"sys_id":2,"sys_cam_id":"15010040","pause":0,"date_type":0,"cam_kind":3,"own_cd":21539}},{"type":"Feature","geometry":{"type":"Point","coordinates":[138.2639833,37.1173444]},"properties":{"id":221539022,"name":"高田水位観測所水位標","name_kana":"","ofc_cd":84,"sys_id":2,"sys_cam_id":"15010041","pause":0,"date_type":0,"cam_kind":3,"own_cd":21539}},{"type":"Feature","geometry":{"type":"Point","coordinates":[138.2665694,37.1176556]},"properties":{"id":221539023,"name":"稲田橋上流","name_kana":"","ofc_cd":84,"sys_id":2,"sys_cam_id":"15010042","pause":0,"date_type":0,"cam_kind":3,"own_cd":21539}},{"type":"Feature","geometry":{"type":"Point","coordinates":[138.2645889,37.1070111]},"properties":{"id":221539024,"name":"中央橋上流","name_kana":"","ofc_cd":84,"sys_id":2,"sys_cam_id":"15010043","pause":0,"date_type":0,"cam_kind":3,"own_cd":21539}},{"type":"Feature","geometry":{"type":"Point","coordinates":[138.2564222,37.1060833]},"properties":{"id":221539025,"name":"高田公園南堀","name_kana":"","ofc_cd":84,"sys_id":2,"sys_cam_id":"15010044","pause":0,"date_type":0,"cam_kind":3,"own_cd":21539}},{"type":"Feature","geometry":{"type":"Point","coordinates":[138.2548361,37.1124833]},"properties":{"id":221539026,"name":"高田公園西堀","name_kana":"","ofc_cd":84,"sys_id":2,"sys_cam_id":"15010045","pause":0,"date_type":0,"cam_kind":3,"own_cd":21539}},{"type":"Feature","geometry":{"type":"Point","coordinates":[138.2693333,37.0941083]},"properties":{"id":221539027,"name":"今池橋上流","name_kana":"","ofc_cd":84,"sys_id":2,"sys_cam_id":"15010046","pause":0,"date_type":0,"cam_kind":3,"own_cd":21539}},{"type":"Feature","geometry":{"type":"Point","coordinates":[138.2765944,37.0879556]},"properties":{"id":221539028,"name":"別所川合流点","name_kana":"","ofc_cd":84,"sys_id":2,"sys_cam_id":"15010047","pause":0,"date_type":0,"cam_kind":3,"own_cd":21539}},{"type":"Feature","geometry":{"type":"Point","coordinates":[138.2572028,37.1777472]},"properties":{"id":221539029,"name":"マリーナ上越泊地","name_kana":"","ofc_cd":84,"sys_id":2,"sys_cam_id":"15010048","pause":0,"date_type":0,"cam_kind":3,"own_cd":21539}},{"type":"Feature","geometry":{"type":"Point","coordinates":[138.2637056,37.1792556]},"properties":{"id":221539030,"name":"JR保倉川橋梁下流","name_kana":"","ofc_cd":84,"sys_id":2,"sys_cam_id":"15010049","pause":0,"date_type":0,"cam_kind":3,"own_cd":21539}},{"type":"Feature","geometry":{"type":"Point","coordinates":[138.284275,37.1785333]},"properties":{"id":221539031,"name":"飯田川合流点　右岸　3.1km ","name_kana":"いいだがわごうりゅうてん　うがん","ofc_cd":84,"sys_id":2,"sys_cam_id":"15010050","pause":0,"date_type":0,"cam_kind":3,"own_cd":21539}},{"type":"Feature","geometry":{"type":"Point","coordinates":[138.2557778,37.1263333]},"properties":{"id":221539032,"name":"高土町","name_kana":"","ofc_cd":84,"sys_id":2,"sys_cam_id":"15010125","pause":0,"date_type":0,"cam_kind":3,"own_cd":21539}},{"type":"Feature","geometry":{"type":"Point","coordinates":[138.2432194,37.1567778]},"properties":{"id":221539040,"name":"関川大橋上流　左岸　3.3km ","name_kana":"せきかわおおはしじょうりゅう　さがん","ofc_cd":84,"sys_id":2,"sys_cam_id":"21539008","pause":0,"date_type":0,"cam_kind":3,"own_cd":21539}},{"type":"Feature","geometry":{"type":"Point","coordinates":[138.2444806,37.1421611]},"properties":{"id":221539046,"name":"木田　左岸　4.9km ","name_kana":"きだ　さがん","ofc_cd":84,"sys_id":2,"sys_cam_id":"21539014","pause":0,"date_type":0,"cam_kind":3,"own_cd":21539}}]}