{"type":"FeatureCollection","crs":{"type":"name","properties":{"name":"EPSG:4326"}},"features":[{"type":"Feature","geometry":{"type":"Point","coordinates":[139.9905,36.151694444]},"properties":{"id":102049072,"name":"瑞穂橋","name_kana":"みずほはし","ofc_cd":83,"sys_id":1,"sys_cam_id":"2049072","pause":0,"date_type":1,"cam_kind":4,"own_cd":2049}},{"type":"Feature","geometry":{"type":"Point","coordinates":[139.969638888,36.196194444]},"properties":{"id":102049073,"name":"宝橋","name_kana":"たからはし","ofc_cd":83,"sys_id":1,"sys_cam_id":"2049073","pause":0,"date_type":1,"cam_kind":4,"own_cd":2049}},{"type":"Feature","geometry":{"type":"Point","coordinates":[139.928861111,36.201833333]},"properties":{"id":102049078,"name":"桐ヶ瀬橋","name_kana":"きりがせはし","ofc_cd":83,"sys_id":1,"sys_cam_id":"2049078","pause":0,"date_type":1,"cam_kind":4,"own_cd":2049}},{"type":"Feature","geometry":{"type":"Point","coordinates":[139.9955556,36.1861083]},"properties":{"id":221261005,"name":"糸繰川水門","name_kana":"","ofc_cd":83,"sys_id":2,"sys_cam_id":"8010024","pause":0,"date_type":0,"cam_kind":2,"own_cd":21261}},{"type":"Feature","geometry":{"type":"Point","coordinates":[140.0124472,36.1812417]},"properties":{"id":221261006,"name":"豊原橋","name_kana":"","ofc_cd":83,"sys_id":2,"sys_cam_id":"8010025","pause":0,"date_type":0,"cam_kind":2,"own_cd":21261}},{"type":"Feature","geometry":{"type":"Point","coordinates":[139.9476389,36.1565]},"properties":{"id":221261007,"name":"水辺の楽校（左）","name_kana":"","ofc_cd":83,"sys_id":2,"sys_cam_id":"8010026","pause":0,"date_type":0,"cam_kind":2,"own_cd":21261}},{"type":"Feature","geometry":{"type":"Point","coordinates":[139.9447944,36.1536667]},"properties":{"id":221261008,"name":"水辺の楽校（右）","name_kana":"","ofc_cd":83,"sys_id":2,"sys_cam_id":"8010027","pause":0,"date_type":0,"cam_kind":2,"own_cd":21261}},{"type":"Feature","geometry":{"type":"Point","coordinates":[139.9492889,36.1522833]},"properties":{"id":221261009,"name":"鎌庭水位観測所","name_kana":"","ofc_cd":83,"sys_id":2,"sys_cam_id":"8010028","pause":0,"date_type":0,"cam_kind":2,"own_cd":21261}},{"type":"Feature","geometry":{"type":"Point","coordinates":[140.0113861,36.1788889]},"properties":{"id":221261043,"name":"柳原樋管","name_kana":"","ofc_cd":83,"sys_id":2,"sys_cam_id":"8010081","pause":0,"date_type":0,"cam_kind":2,"own_cd":21261}}]}