{"type":"FeatureCollection","crs":{"type":"name","properties":{"name":"EPSG:4326"}},"features":[{"type":"Feature","geometry":{"type":"Point","coordinates":[137.9036024,36.8429907]},"properties":{"id":105121112,"name":"来馬河原南","name_kana":"くるまがわらみなみ","ofc_cd":84,"sys_id":1,"sys_cam_id":"5121112","pause":0,"date_type":1,"cam_kind":4,"own_cd":5121}},{"type":"Feature","geometry":{"type":"Point","coordinates":[137.8851112,36.7399047]},"properties":{"id":105121113,"name":"白馬大池駅南","name_kana":"はくばおおいけえきみなみ","ofc_cd":84,"sys_id":1,"sys_cam_id":"5121113","pause":0,"date_type":1,"cam_kind":4,"own_cd":5121}},{"type":"Feature","geometry":{"type":"Point","coordinates":[137.9146981,36.78447325]},"properties":{"id":105121271,"name":"宮本橋","name_kana":"みやもとばし","ofc_cd":84,"sys_id":1,"sys_cam_id":"5121271","pause":0,"date_type":2,"cam_kind":4,"own_cd":5121}},{"type":"Feature","geometry":{"type":"Point","coordinates":[137.8749861,36.7953139]},"properties":{"id":221546013,"name":"金山沢土石流観測所","name_kana":"","ofc_cd":84,"sys_id":2,"sys_cam_id":"21546013","pause":0,"date_type":0,"cam_kind":3,"own_cd":21546}},{"type":"Feature","geometry":{"type":"Point","coordinates":[137.9040556,36.824125]},"properties":{"id":221546017,"name":"浦川スーパー暗渠","name_kana":"","ofc_cd":84,"sys_id":2,"sys_cam_id":"21546017","pause":0,"date_type":0,"cam_kind":3,"own_cd":21546}},{"type":"Feature","geometry":{"type":"Point","coordinates":[137.8993611,36.8389417]},"properties":{"id":221546018,"name":"来馬河原","name_kana":"","ofc_cd":84,"sys_id":2,"sys_cam_id":"21546018","pause":0,"date_type":0,"cam_kind":3,"own_cd":21546}},{"type":"Feature","geometry":{"type":"Point","coordinates":[137.8972222,36.8258333]},"properties":{"id":221546076,"name":"来馬河原","name_kana":"くるまがわら","ofc_cd":84,"sys_id":2,"sys_cam_id":"21546085","pause":0,"date_type":0,"cam_kind":3,"own_cd":21546}},{"type":"Feature","geometry":{"type":"Point","coordinates":[137.9040556,36.824125]},"properties":{"id":221546085,"name":"浦川スーパー暗渠えん堤","name_kana":"うらかわすーぱーあんきょえんてい","ofc_cd":84,"sys_id":2,"sys_cam_id":"21546084","pause":0,"date_type":0,"cam_kind":3,"own_cd":21546}}]}