{"type":"FeatureCollection","crs":{"type":"name","properties":{"name":"EPSG:4326"}},"features":[{"type":"Feature","geometry":{"type":"Point","coordinates":[139.488981,35.331438]},"properties":{"id":103585054,"name":"境川奥田橋カメラ","name_kana":"","ofc_cd":83,"sys_id":1,"sys_cam_id":"3585054","pause":0,"date_type":2,"cam_kind":4,"own_cd":3585}},{"type":"Feature","geometry":{"type":"Point","coordinates":[139.459029,35.351763]},"properties":{"id":103585056,"name":"高名橋","name_kana":"","ofc_cd":83,"sys_id":1,"sys_cam_id":"3585056","pause":0,"date_type":2,"cam_kind":4,"own_cd":3585}},{"type":"Feature","geometry":{"type":"Point","coordinates":[139.4870389,35.345483333]},"properties":{"id":103585108,"name":"境川　藤沢橋","name_kana":"さかいがわ　ふじさわばし","ofc_cd":83,"sys_id":1,"sys_cam_id":"3585108","pause":0,"date_type":2,"cam_kind":4,"own_cd":3585}},{"type":"Feature","geometry":{"type":"Point","coordinates":[139.4848889,35.312236111]},"properties":{"id":103585109,"name":"境川　山本橋","name_kana":"さかいがわ　やまもとばし","ofc_cd":83,"sys_id":1,"sys_cam_id":"3585109","pause":0,"date_type":2,"cam_kind":4,"own_cd":3585}},{"type":"Feature","geometry":{"type":"Point","coordinates":[139.4666111,35.3479722]},"properties":{"id":103585110,"name":"引地川　引地橋","name_kana":"ひきじがわ　ひきちばし","ofc_cd":83,"sys_id":1,"sys_cam_id":"3585110","pause":0,"date_type":2,"cam_kind":4,"own_cd":3585}},{"type":"Feature","geometry":{"type":"Point","coordinates":[139.4568888,35.3607777]},"properties":{"id":103585111,"name":"引地川　天神橋","name_kana":"ひきじがわ　てんじんばし","ofc_cd":83,"sys_id":1,"sys_cam_id":"3585111","pause":0,"date_type":2,"cam_kind":4,"own_cd":3585}},{"type":"Feature","geometry":{"type":"Point","coordinates":[139.46061111,35.3916388]},"properties":{"id":103585112,"name":"引地川　円行大橋","name_kana":"ひきじがわ　えんぎょうおおはし","ofc_cd":83,"sys_id":1,"sys_cam_id":"3585112","pause":0,"date_type":2,"cam_kind":4,"own_cd":3585}},{"type":"Feature","geometry":{"type":"Point","coordinates":[139.45813888,35.416]},"properties":{"id":103585113,"name":"引地川　長後橋","name_kana":"ひきじがわ　ちょうごばし","ofc_cd":83,"sys_id":1,"sys_cam_id":"3585113","pause":0,"date_type":2,"cam_kind":4,"own_cd":3585}}]}