{"type":"FeatureCollection","crs":{"type":"name","properties":{"name":"EPSG:4326"}},"features":[{"type":"Feature","geometry":{"type":"Point","coordinates":[137.878441,36.266718]},"properties":{"id":105121108,"name":"黒沢川堀廻堰合流部","name_kana":"くろさわがわほりまわしせぎごうりゅうぶ","ofc_cd":84,"sys_id":1,"sys_cam_id":"5121108","pause":0,"date_type":1,"cam_kind":4,"own_cd":5121}},{"type":"Feature","geometry":{"type":"Point","coordinates":[137.882815,36.289306]},"properties":{"id":105121109,"name":"万水川拾ヶ堰合流部","name_kana":"よろずいがわじゅっかせぎごうりゅうぶ","ofc_cd":84,"sys_id":1,"sys_cam_id":"5121109","pause":0,"date_type":1,"cam_kind":4,"own_cd":5121}},{"type":"Feature","geometry":{"type":"Point","coordinates":[137.875968,36.375094]},"properties":{"id":105121110,"name":"高瀬川高瀬橋","name_kana":"たかせがわおおはしたかせばし","ofc_cd":84,"sys_id":1,"sys_cam_id":"5121110","pause":0,"date_type":1,"cam_kind":4,"own_cd":5121}},{"type":"Feature","geometry":{"type":"Point","coordinates":[137.903038,36.334455]},"properties":{"id":105121111,"name":"万水川白金橋","name_kana":"よろずいがわしろがねばし","ofc_cd":84,"sys_id":1,"sys_cam_id":"5121111","pause":0,"date_type":1,"cam_kind":4,"own_cd":5121}},{"type":"Feature","geometry":{"type":"Point","coordinates":[137.833305,36.36518]},"properties":{"id":105121261,"name":"天満沢橋","name_kana":"てんまさわばし","ofc_cd":84,"sys_id":1,"sys_cam_id":"5121261","pause":0,"date_type":1,"cam_kind":4,"own_cd":5121}},{"type":"Feature","geometry":{"type":"Point","coordinates":[137.871977,36.35942]},"properties":{"id":105121262,"name":"乳房橋","name_kana":"ちぶさばし","ofc_cd":84,"sys_id":1,"sys_cam_id":"5121262","pause":0,"date_type":1,"cam_kind":4,"own_cd":5121}},{"type":"Feature","geometry":{"type":"Point","coordinates":[137.889659,36.346954]},"properties":{"id":105121263,"name":"常盤橋","name_kana":"ときわばし","ofc_cd":84,"sys_id":1,"sys_cam_id":"5121263","pause":0,"date_type":1,"cam_kind":4,"own_cd":5121}},{"type":"Feature","geometry":{"type":"Point","coordinates":[137.923063,36.348828]},"properties":{"id":105121264,"name":"川手橋","name_kana":"かわてばし","ofc_cd":84,"sys_id":1,"sys_cam_id":"5121264","pause":0,"date_type":1,"cam_kind":4,"own_cd":5121}},{"type":"Feature","geometry":{"type":"Point","coordinates":[137.931893,36.366659]},"properties":{"id":105121265,"name":"潮沢川橋","name_kana":"うしおざわがわばし","ofc_cd":84,"sys_id":1,"sys_cam_id":"5121265","pause":0,"date_type":1,"cam_kind":4,"own_cd":5121}},{"type":"Feature","geometry":{"type":"Point","coordinates":[137.931737,36.357951]},"properties":{"id":105121266,"name":"会田川橋","name_kana":"あいだがわばし","ofc_cd":84,"sys_id":1,"sys_cam_id":"5121266","pause":0,"date_type":1,"cam_kind":4,"own_cd":5121}},{"type":"Feature","geometry":{"type":"Point","coordinates":[137.938668,36.309151]},"properties":{"id":105121267,"name":"濁沢川（小瀬幅）","name_kana":"にごりさわ（こせはば）","ofc_cd":84,"sys_id":1,"sys_cam_id":"5121267","pause":0,"date_type":1,"cam_kind":4,"own_cd":5121}},{"type":"Feature","geometry":{"type":"Point","coordinates":[137.9267167,36.3957778]},"properties":{"id":221545001,"name":"陸郷","name_kana":"","ofc_cd":84,"sys_id":2,"sys_cam_id":"20010001","pause":0,"date_type":0,"cam_kind":3,"own_cd":21545}},{"type":"Feature","geometry":{"type":"Point","coordinates":[137.9313861,36.367775]},"properties":{"id":221545002,"name":"木戸橋","name_kana":"","ofc_cd":84,"sys_id":2,"sys_cam_id":"20010002","pause":0,"date_type":0,"cam_kind":3,"own_cd":21545}},{"type":"Feature","geometry":{"type":"Point","coordinates":[137.9344417,36.3008306]},"properties":{"id":221545003,"name":"田沢橋","name_kana":"","ofc_cd":84,"sys_id":2,"sys_cam_id":"20010003","pause":0,"date_type":0,"cam_kind":3,"own_cd":21545}},{"type":"Feature","geometry":{"type":"Point","coordinates":[137.8762333,36.3745389]},"properties":{"id":221547001,"name":"高瀬下橋","name_kana":"","ofc_cd":84,"sys_id":2,"sys_cam_id":"20010046","pause":0,"date_type":0,"cam_kind":3,"own_cd":21547}},{"type":"Feature","geometry":{"type":"Point","coordinates":[137.908025,36.3473889]},"properties":{"id":221547002,"name":"安曇橋","name_kana":"","ofc_cd":84,"sys_id":2,"sys_cam_id":"20010047","pause":0,"date_type":0,"cam_kind":3,"own_cd":21547}},{"type":"Feature","geometry":{"type":"Point","coordinates":[137.91335,36.3493139]},"properties":{"id":221547003,"name":"犀川合流点","name_kana":"","ofc_cd":84,"sys_id":2,"sys_cam_id":"20010048","pause":0,"date_type":0,"cam_kind":3,"own_cd":21547}}]}