{"type":"FeatureCollection","crs":{"type":"name","properties":{"name":"EPSG:4326"}},"features":[{"type":"Feature","geometry":{"type":"Point","coordinates":[136.5188899,34.7565566]},"properties":{"id":106145018,"name":"横川(横川潮止堰上流側)","name_kana":"よこがわ(よこがわしおどめぜきじょうりゅうがわ)","ofc_cd":85,"sys_id":1,"sys_cam_id":"6145018","pause":0,"date_type":1,"cam_kind":4,"own_cd":6145}},{"type":"Feature","geometry":{"type":"Point","coordinates":[136.5190566,34.7552222]},"properties":{"id":106145019,"name":"志登茂川(志登茂橋上流側)","name_kana":"しともがわ(しともばしじょうりゅうがわ)","ofc_cd":85,"sys_id":1,"sys_cam_id":"6145019","pause":0,"date_type":1,"cam_kind":4,"own_cd":6145}},{"type":"Feature","geometry":{"type":"Point","coordinates":[136.45975,34.7511677]},"properties":{"id":106145020,"name":"安濃川(曽根橋上流側)","name_kana":"あのうがわ(そねばしじょうりゅうがわ)","ofc_cd":85,"sys_id":1,"sys_cam_id":"6145020","pause":0,"date_type":1,"cam_kind":4,"own_cd":6145}},{"type":"Feature","geometry":{"type":"Point","coordinates":[136.4994722,34.7269177]},"properties":{"id":106145021,"name":"美濃屋川(美濃屋橋上流400m)","name_kana":"みのやがわ(みのやばしじょうりゅう400m)","ofc_cd":85,"sys_id":1,"sys_cam_id":"6145021","pause":0,"date_type":1,"cam_kind":4,"own_cd":6145}},{"type":"Feature","geometry":{"type":"Point","coordinates":[136.4848333,34.7120566]},"properties":{"id":106145022,"name":"岩田川(神戸新橋下流側)","name_kana":"いわたがわ(かんべしんばしかりゅうがわ)","ofc_cd":85,"sys_id":1,"sys_cam_id":"6145022","pause":0,"date_type":1,"cam_kind":4,"own_cd":6145}},{"type":"Feature","geometry":{"type":"Point","coordinates":[136.5097788,34.6812222]},"properties":{"id":106145023,"name":"相川(相川橋)","name_kana":"あいかわ(あいかわばし)","ofc_cd":85,"sys_id":1,"sys_cam_id":"6145023","pause":0,"date_type":1,"cam_kind":4,"own_cd":6145}},{"type":"Feature","geometry":{"type":"Point","coordinates":[136.275,34.5651111]},"properties":{"id":106145024,"name":"雲出川 元小西(大鹿橋上流側)","name_kana":"くもずがわ もとこにし(おおしかばしじょうりゅうがわ)","ofc_cd":85,"sys_id":1,"sys_cam_id":"6145024","pause":0,"date_type":1,"cam_kind":4,"own_cd":6145}},{"type":"Feature","geometry":{"type":"Point","coordinates":[136.467458,34.64939]},"properties":{"id":106145056,"name":"赤川(相互橋)","name_kana":"あかがわ(そうごばし)","ofc_cd":85,"sys_id":1,"sys_cam_id":"6145056","pause":0,"date_type":1,"cam_kind":4,"own_cd":6145}},{"type":"Feature","geometry":{"type":"Point","coordinates":[136.472125,34.726373]},"properties":{"id":106145067,"name":"安濃川(一色橋)","name_kana":"あのうがわ(いっしきばし)","ofc_cd":85,"sys_id":1,"sys_cam_id":"6145067","pause":0,"date_type":1,"cam_kind":4,"own_cd":6145}},{"type":"Feature","geometry":{"type":"Point","coordinates":[136.512386,34.673157]},"properties":{"id":106145068,"name":"天神川(町屋橋)","name_kana":"てんじんがわ(まちやばし)","ofc_cd":85,"sys_id":1,"sys_cam_id":"6145068","pause":0,"date_type":1,"cam_kind":4,"own_cd":6145}},{"type":"Feature","geometry":{"type":"Point","coordinates":[136.4554444,34.7383889]},"properties":{"id":106145081,"name":"穴倉川(広永橋)","name_kana":"あなくらがわ(ひろながばし)","ofc_cd":85,"sys_id":1,"sys_cam_id":"6145081","pause":0,"date_type":1,"cam_kind":4,"own_cd":6145}},{"type":"Feature","geometry":{"type":"Point","coordinates":[136.552913,34.798149]},"properties":{"id":106145082,"name":"田中川(大蔵橋)","name_kana":"たなかがわ(たいぞうばし)","ofc_cd":85,"sys_id":1,"sys_cam_id":"6145082","pause":0,"date_type":1,"cam_kind":4,"own_cd":6145}},{"type":"Feature","geometry":{"type":"Point","coordinates":[136.3712222,34.6091389]},"properties":{"id":106145083,"name":"波瀬川(薬師橋)","name_kana":"はぜがわ(やくしばし)","ofc_cd":85,"sys_id":1,"sys_cam_id":"6145083","pause":0,"date_type":1,"cam_kind":4,"own_cd":6145}},{"type":"Feature","geometry":{"type":"Point","coordinates":[136.530444,34.648778]},"properties":{"id":121801054,"name":"雲出川　左岸　2.4km-43.2m","name_kana":"","ofc_cd":85,"sys_id":1,"sys_cam_id":"21801054","pause":0,"date_type":2,"cam_kind":4,"own_cd":21801}},{"type":"Feature","geometry":{"type":"Point","coordinates":[136.422944,34.670889]},"properties":{"id":121801055,"name":"雲出川　左岸　14.0km-50.0m","name_kana":"","ofc_cd":85,"sys_id":1,"sys_cam_id":"21801055","pause":0,"date_type":2,"cam_kind":4,"own_cd":21801}},{"type":"Feature","geometry":{"type":"Point","coordinates":[136.527111,34.6515]},"properties":{"id":121801056,"name":"雲出古川　右岸　2.4km+13.7m","name_kana":"","ofc_cd":85,"sys_id":1,"sys_cam_id":"21801056","pause":0,"date_type":2,"cam_kind":4,"own_cd":21801}},{"type":"Feature","geometry":{"type":"Point","coordinates":[136.447694,34.656194]},"properties":{"id":121801061,"name":"波瀬川　右岸　1.23km+51.5m","name_kana":"","ofc_cd":85,"sys_id":1,"sys_cam_id":"21801061","pause":0,"date_type":2,"cam_kind":4,"own_cd":21801}},{"type":"Feature","geometry":{"type":"Point","coordinates":[136.429139,34.652861]},"properties":{"id":121801062,"name":"波瀬川　左岸　3.4km-126.9m","name_kana":"","ofc_cd":85,"sys_id":1,"sys_cam_id":"21801062","pause":0,"date_type":2,"cam_kind":4,"own_cd":21801}},{"type":"Feature","geometry":{"type":"Point","coordinates":[136.422889,34.650083]},"properties":{"id":121801063,"name":"波瀬川　左岸　4.0km+23.0m","name_kana":"","ofc_cd":85,"sys_id":1,"sys_cam_id":"21801063","pause":0,"date_type":2,"cam_kind":4,"own_cd":21801}},{"type":"Feature","geometry":{"type":"Point","coordinates":[136.463833,34.661333]},"properties":{"id":121801077,"name":"雲出川左岸９．８ｋｍ","name_kana":"","ofc_cd":85,"sys_id":1,"sys_cam_id":"21801077","pause":0,"date_type":2,"cam_kind":4,"own_cd":21801}},{"type":"Feature","geometry":{"type":"Point","coordinates":[136.452411,34.669857]},"properties":{"id":121801079,"name":"雲出川左岸11.2km","name_kana":"くもづがわさがん","ofc_cd":85,"sys_id":1,"sys_cam_id":"21801079","pause":0,"date_type":2,"cam_kind":4,"own_cd":21801}},{"type":"Feature","geometry":{"type":"Point","coordinates":[136.4247306,34.6513806]},"properties":{"id":221801002,"name":"下川原水位観測所","name_kana":"","ofc_cd":85,"sys_id":2,"sys_cam_id":"24010002","pause":0,"date_type":0,"cam_kind":2,"own_cd":21801}},{"type":"Feature","geometry":{"type":"Point","coordinates":[136.4078,34.6445611]},"properties":{"id":221801015,"name":"大仰水位観測所","name_kana":"","ofc_cd":85,"sys_id":2,"sys_cam_id":"24010020","pause":0,"date_type":0,"cam_kind":2,"own_cd":21801}},{"type":"Feature","geometry":{"type":"Point","coordinates":[136.4678,34.6605306]},"properties":{"id":221801016,"name":"須賀瀬橋","name_kana":"","ofc_cd":85,"sys_id":2,"sys_cam_id":"24010021","pause":0,"date_type":0,"cam_kind":2,"own_cd":21801}},{"type":"Feature","geometry":{"type":"Point","coordinates":[136.4808806,34.6489389]},"properties":{"id":221801017,"name":"近鉄名古屋線橋梁","name_kana":"","ofc_cd":85,"sys_id":2,"sys_cam_id":"24010022","pause":0,"date_type":0,"cam_kind":2,"own_cd":21801}},{"type":"Feature","geometry":{"type":"Point","coordinates":[136.4132111,34.6602]},"properties":{"id":221801044,"name":"石橋","name_kana":"","ofc_cd":85,"sys_id":2,"sys_cam_id":"24010049","pause":0,"date_type":0,"cam_kind":2,"own_cd":21801}},{"type":"Feature","geometry":{"type":"Point","coordinates":[136.4257111,34.6693806]},"properties":{"id":221801045,"name":"庄田町","name_kana":"","ofc_cd":85,"sys_id":2,"sys_cam_id":"24010050","pause":0,"date_type":0,"cam_kind":2,"own_cd":21801}},{"type":"Feature","geometry":{"type":"Point","coordinates":[136.4370194,34.6696611]},"properties":{"id":221801046,"name":"一志町高野","name_kana":"","ofc_cd":85,"sys_id":2,"sys_cam_id":"24010051","pause":0,"date_type":0,"cam_kind":2,"own_cd":21801}},{"type":"Feature","geometry":{"type":"Point","coordinates":[136.4516,34.6661194]},"properties":{"id":221801047,"name":"一志町庄村","name_kana":"","ofc_cd":85,"sys_id":2,"sys_cam_id":"24010052","pause":0,"date_type":0,"cam_kind":2,"own_cd":21801}},{"type":"Feature","geometry":{"type":"Point","coordinates":[136.4575694,34.6661306]},"properties":{"id":221801048,"name":"小戸木橋","name_kana":"","ofc_cd":85,"sys_id":2,"sys_cam_id":"24010053","pause":0,"date_type":0,"cam_kind":2,"own_cd":21801}},{"type":"Feature","geometry":{"type":"Point","coordinates":[136.4558306,34.6628194]},"properties":{"id":221801049,"name":"小戸木町","name_kana":"","ofc_cd":85,"sys_id":2,"sys_cam_id":"24010054","pause":0,"date_type":0,"cam_kind":2,"own_cd":21801}},{"type":"Feature","geometry":{"type":"Point","coordinates":[136.4780389,34.6554389]},"properties":{"id":221801050,"name":"牧町","name_kana":"","ofc_cd":85,"sys_id":2,"sys_cam_id":"24010055","pause":0,"date_type":0,"cam_kind":2,"own_cd":21801}},{"type":"Feature","geometry":{"type":"Point","coordinates":[136.4749694,34.6513389]},"properties":{"id":221801051,"name":"須ヶ瀬町","name_kana":"","ofc_cd":85,"sys_id":2,"sys_cam_id":"24010056","pause":0,"date_type":0,"cam_kind":2,"own_cd":21801}},{"type":"Feature","geometry":{"type":"Point","coordinates":[136.4853806,34.64775]},"properties":{"id":221801052,"name":"大正橋","name_kana":"","ofc_cd":85,"sys_id":2,"sys_cam_id":"24010057","pause":0,"date_type":0,"cam_kind":2,"own_cd":21801}},{"type":"Feature","geometry":{"type":"Point","coordinates":[136.4982806,34.6525806]},"properties":{"id":221801055,"name":"前田川排水ひ門","name_kana":"","ofc_cd":85,"sys_id":2,"sys_cam_id":"24010060","pause":0,"date_type":0,"cam_kind":2,"own_cd":21801}},{"type":"Feature","geometry":{"type":"Point","coordinates":[136.5134889,34.6504111]},"properties":{"id":221801056,"name":"雲出橋　下流","name_kana":"","ofc_cd":85,"sys_id":2,"sys_cam_id":"24010061","pause":0,"date_type":0,"cam_kind":2,"own_cd":21801}},{"type":"Feature","geometry":{"type":"Point","coordinates":[136.5308,34.6526389]},"properties":{"id":221801059,"name":"雲出川防災ステーション","name_kana":"","ofc_cd":85,"sys_id":2,"sys_cam_id":"24010064","pause":0,"date_type":0,"cam_kind":2,"own_cd":21801}},{"type":"Feature","geometry":{"type":"Point","coordinates":[136.5378111,34.6591306]},"properties":{"id":221801060,"name":"津香良洲大橋","name_kana":"","ofc_cd":85,"sys_id":2,"sys_cam_id":"24010065","pause":0,"date_type":0,"cam_kind":2,"own_cd":21801}},{"type":"Feature","geometry":{"type":"Point","coordinates":[136.5441889,34.6617111]},"properties":{"id":221801061,"name":"雲出古川河口部","name_kana":"","ofc_cd":85,"sys_id":2,"sys_cam_id":"24010066","pause":0,"date_type":0,"cam_kind":2,"own_cd":21801}},{"type":"Feature","geometry":{"type":"Point","coordinates":[136.4364611,34.6543194]},"properties":{"id":221801067,"name":"一志団地","name_kana":"","ofc_cd":85,"sys_id":2,"sys_cam_id":"24010072","pause":0,"date_type":0,"cam_kind":2,"own_cd":21801}},{"type":"Feature","geometry":{"type":"Point","coordinates":[136.4415389,34.6537111]},"properties":{"id":221801068,"name":"八太新橋","name_kana":"","ofc_cd":85,"sys_id":2,"sys_cam_id":"24010073","pause":0,"date_type":0,"cam_kind":2,"own_cd":21801}},{"type":"Feature","geometry":{"type":"Point","coordinates":[136.4506389,34.6563194]},"properties":{"id":221801069,"name":"其村","name_kana":"","ofc_cd":85,"sys_id":2,"sys_cam_id":"24010074","pause":0,"date_type":0,"cam_kind":2,"own_cd":21801}},{"type":"Feature","geometry":{"type":"Point","coordinates":[136.4616,34.65625]},"properties":{"id":221801070,"name":"波瀬川合流点","name_kana":"","ofc_cd":85,"sys_id":2,"sys_cam_id":"24010075","pause":0,"date_type":0,"cam_kind":2,"own_cd":21801}},{"type":"Feature","geometry":{"type":"Point","coordinates":[136.608099,34.957398]},"properties":{"id":106145004,"name":"鹿化川(鹿化橋上流側)","name_kana":"かばけかわ(かばけはしじょうりゅうがわ)","ofc_cd":85,"sys_id":1,"sys_cam_id":"6145004","pause":0,"date_type":2,"cam_kind":4,"own_cd":6145}},{"type":"Feature","geometry":{"type":"Point","coordinates":[136.5840288,35.0363611]},"properties":{"id":106145009,"name":"朝明川(下野橋)","name_kana":"あさけかわ(しものはし)","ofc_cd":85,"sys_id":1,"sys_cam_id":"6145009","pause":0,"date_type":1,"cam_kind":4,"own_cd":6145}},{"type":"Feature","geometry":{"type":"Point","coordinates":[136.5988333,34.9956111]},"properties":{"id":106145012,"name":"海蔵川(野中橋上流側)","name_kana":"かいぞうかわ(のなかはしじょうりゅうがわ)","ofc_cd":85,"sys_id":1,"sys_cam_id":"6145012","pause":0,"date_type":1,"cam_kind":4,"own_cd":6145}},{"type":"Feature","geometry":{"type":"Point","coordinates":[136.5662788,34.9793611]},"properties":{"id":106145013,"name":"三滝川(神前橋)","name_kana":"みたきかわ(かんざきはし)","ofc_cd":85,"sys_id":1,"sys_cam_id":"6145013","pause":0,"date_type":1,"cam_kind":4,"own_cd":6145}},{"type":"Feature","geometry":{"type":"Point","coordinates":[136.6081111,34.9503333]},"properties":{"id":106145014,"name":"天白川(天白橋)","name_kana":"てんぱくかわ(てんぱくはし)","ofc_cd":85,"sys_id":1,"sys_cam_id":"6145014","pause":0,"date_type":1,"cam_kind":4,"own_cd":6145}},{"type":"Feature","geometry":{"type":"Point","coordinates":[136.56157,34.927615]},"properties":{"id":106145066,"name":"鎌谷川(鎌谷川2号橋)","name_kana":"かまたにがわ(かまたにがわ2ごうきょう)","ofc_cd":85,"sys_id":1,"sys_cam_id":"6145066","pause":0,"date_type":1,"cam_kind":4,"own_cd":6145}},{"type":"Feature","geometry":{"type":"Point","coordinates":[136.5681944,34.9346111]},"properties":{"id":106145074,"name":"足見川(波木橋)","name_kana":"あしみかわ(はぎはし)","ofc_cd":85,"sys_id":1,"sys_cam_id":"6145074","pause":0,"date_type":1,"cam_kind":4,"own_cd":6145}},{"type":"Feature","geometry":{"type":"Point","coordinates":[136.528583,34.934028]},"properties":{"id":106145079,"name":"内部川(六名橋)","name_kana":"うつべがわ(ろくみょうばし)","ofc_cd":85,"sys_id":1,"sys_cam_id":"6145079","pause":0,"date_type":2,"cam_kind":4,"own_cd":6145}},{"type":"Feature","geometry":{"type":"Point","coordinates":[136.630476,34.912563]},"properties":{"id":121801046,"name":"鈴鹿川派川　左岸　1.6km+18.4m","name_kana":"","ofc_cd":85,"sys_id":1,"sys_cam_id":"21801046","pause":0,"date_type":2,"cam_kind":4,"own_cd":21801}},{"type":"Feature","geometry":{"type":"Point","coordinates":[136.615054,34.92429]},"properties":{"id":121801047,"name":"内部川　右岸　0.2km+8.5m","name_kana":"","ofc_cd":85,"sys_id":1,"sys_cam_id":"21801047","pause":0,"date_type":2,"cam_kind":4,"own_cd":21801}},{"type":"Feature","geometry":{"type":"Point","coordinates":[136.581886,34.923587]},"properties":{"id":121801048,"name":"内部川　右岸　3.4km+17.7m","name_kana":"","ofc_cd":85,"sys_id":1,"sys_cam_id":"21801048","pause":0,"date_type":2,"cam_kind":4,"own_cd":21801}},{"type":"Feature","geometry":{"type":"Point","coordinates":[136.569786,34.928836]},"properties":{"id":121801049,"name":"内部川　左岸　4.8km+70.2m","name_kana":"","ofc_cd":85,"sys_id":1,"sys_cam_id":"21801049","pause":0,"date_type":1,"cam_kind":4,"own_cd":21801}},{"type":"Feature","geometry":{"type":"Point","coordinates":[136.561806,34.923472]},"properties":{"id":121801050,"name":"内部川　左岸　6.0km+89.0m","name_kana":"","ofc_cd":85,"sys_id":1,"sys_cam_id":"21801050","pause":0,"date_type":2,"cam_kind":4,"own_cd":21801}},{"type":"Feature","geometry":{"type":"Point","coordinates":[136.62033305,34.92275]},"properties":{"id":121801078,"name":"鈴鹿川右岸３．０ｋｍ－３．０ｍ","name_kana":"","ofc_cd":85,"sys_id":1,"sys_cam_id":"21801078","pause":0,"date_type":2,"cam_kind":4,"own_cd":21801}},{"type":"Feature","geometry":{"type":"Point","coordinates":[136.6054306,34.9098194]},"properties":{"id":221801023,"name":"鈴鹿大橋","name_kana":"","ofc_cd":85,"sys_id":2,"sys_cam_id":"24010028","pause":0,"date_type":0,"cam_kind":2,"own_cd":21801}},{"type":"Feature","geometry":{"type":"Point","coordinates":[136.6160889,34.9069611]},"properties":{"id":221801024,"name":"南川水位観測所","name_kana":"","ofc_cd":85,"sys_id":2,"sys_cam_id":"24010029","pause":0,"date_type":0,"cam_kind":2,"own_cd":21801}},{"type":"Feature","geometry":{"type":"Point","coordinates":[136.5974889,34.9078]},"properties":{"id":221801033,"name":"鈴鹿川出張所鉄塔","name_kana":"","ofc_cd":85,"sys_id":2,"sys_cam_id":"24010038","pause":0,"date_type":0,"cam_kind":2,"own_cd":21801}},{"type":"Feature","geometry":{"type":"Point","coordinates":[136.6100889,34.9143194]},"properties":{"id":221801034,"name":"本郷橋","name_kana":"","ofc_cd":85,"sys_id":2,"sys_cam_id":"24010039","pause":0,"date_type":0,"cam_kind":2,"own_cd":21801}},{"type":"Feature","geometry":{"type":"Point","coordinates":[136.6203694,34.9262111]},"properties":{"id":221801035,"name":"内部川合流点","name_kana":"","ofc_cd":85,"sys_id":2,"sys_cam_id":"24010040","pause":0,"date_type":0,"cam_kind":2,"own_cd":21801}},{"type":"Feature","geometry":{"type":"Point","coordinates":[136.6349611,34.9296889]},"properties":{"id":221801036,"name":"磯津橋","name_kana":"","ofc_cd":85,"sys_id":2,"sys_cam_id":"24010041","pause":0,"date_type":0,"cam_kind":2,"own_cd":21801}},{"type":"Feature","geometry":{"type":"Point","coordinates":[136.6466194,34.9348194]},"properties":{"id":221801037,"name":"鈴鹿川河口部","name_kana":"","ofc_cd":85,"sys_id":2,"sys_cam_id":"24010042","pause":0,"date_type":0,"cam_kind":2,"own_cd":21801}},{"type":"Feature","geometry":{"type":"Point","coordinates":[136.6297,34.9106806]},"properties":{"id":221801038,"name":"五味塚橋","name_kana":"","ofc_cd":85,"sys_id":2,"sys_cam_id":"24010043","pause":0,"date_type":0,"cam_kind":2,"own_cd":21801}},{"type":"Feature","geometry":{"type":"Point","coordinates":[136.6334,34.9106306]},"properties":{"id":221801039,"name":"新五味塚橋","name_kana":"","ofc_cd":85,"sys_id":2,"sys_cam_id":"24010044","pause":0,"date_type":0,"cam_kind":2,"own_cd":21801}},{"type":"Feature","geometry":{"type":"Point","coordinates":[136.6424389,34.90615]},"properties":{"id":221801040,"name":"鈴鹿川派川河口部","name_kana":"","ofc_cd":85,"sys_id":2,"sys_cam_id":"24010045","pause":0,"date_type":0,"cam_kind":2,"own_cd":21801}},{"type":"Feature","geometry":{"type":"Point","coordinates":[136.58455,34.9214111]},"properties":{"id":221801041,"name":"内部橋","name_kana":"","ofc_cd":85,"sys_id":2,"sys_cam_id":"24010046","pause":0,"date_type":0,"cam_kind":2,"own_cd":21801}},{"type":"Feature","geometry":{"type":"Point","coordinates":[136.5960111,34.9191]},"properties":{"id":221801042,"name":"河原田水位観測所","name_kana":"","ofc_cd":85,"sys_id":2,"sys_cam_id":"24010047","pause":0,"date_type":0,"cam_kind":2,"own_cd":21801}},{"type":"Feature","geometry":{"type":"Point","coordinates":[136.6061306,34.9223306]},"properties":{"id":221801043,"name":"ＪＲ関西本線内部川橋梁","name_kana":"","ofc_cd":85,"sys_id":2,"sys_cam_id":"24010048","pause":0,"date_type":0,"cam_kind":2,"own_cd":21801}},{"type":"Feature","geometry":{"type":"Point","coordinates":[136.6566399,34.5507788]},"properties":{"id":106145031,"name":"大堀川(大堀川新橋上流側)","name_kana":"おおほりがわ(おおほりがわしんばしじょうりゅうがわ)","ofc_cd":85,"sys_id":1,"sys_cam_id":"6145031","pause":0,"date_type":1,"cam_kind":4,"own_cd":6145}},{"type":"Feature","geometry":{"type":"Point","coordinates":[136.6629444,34.5053899]},"properties":{"id":106145032,"name":"外城田川(五十鈴橋下流100m)","name_kana":"ときたがわ(いすずばしかりゅう100m)","ofc_cd":85,"sys_id":1,"sys_cam_id":"6145032","pause":0,"date_type":1,"cam_kind":4,"own_cd":6145}},{"type":"Feature","geometry":{"type":"Point","coordinates":[136.7356111,34.4760566]},"properties":{"id":106145034,"name":"五十鈴川(五十鈴橋上流側)","name_kana":"いすずがわ(いすずばしじょうりゅうがわ)","ofc_cd":85,"sys_id":1,"sys_cam_id":"6145034","pause":0,"date_type":1,"cam_kind":4,"own_cd":6145}},{"type":"Feature","geometry":{"type":"Point","coordinates":[136.719972,34.501962]},"properties":{"id":106145049,"name":"桧尻川(小木橋)","name_kana":"ひのきじりがわ(こうぎばし)","ofc_cd":85,"sys_id":1,"sys_cam_id":"6145049","pause":0,"date_type":2,"cam_kind":4,"own_cd":6145}},{"type":"Feature","geometry":{"type":"Point","coordinates":[136.715778,34.529556]},"properties":{"id":121801073,"name":"宮川　左岸　1.6km-1.0m","name_kana":"","ofc_cd":85,"sys_id":1,"sys_cam_id":"21801073","pause":0,"date_type":2,"cam_kind":4,"own_cd":21801}},{"type":"Feature","geometry":{"type":"Point","coordinates":[136.681306,34.499583]},"properties":{"id":121801074,"name":"宮川　左岸　6.4km-197.7m","name_kana":"","ofc_cd":85,"sys_id":1,"sys_cam_id":"21801074","pause":0,"date_type":2,"cam_kind":4,"own_cd":21801}},{"type":"Feature","geometry":{"type":"Point","coordinates":[136.676278,34.482556]},"properties":{"id":121801075,"name":"宮川　左岸　8.6km-74.9m","name_kana":"","ofc_cd":85,"sys_id":1,"sys_cam_id":"21801075","pause":0,"date_type":2,"cam_kind":4,"own_cd":21801}},{"type":"Feature","geometry":{"type":"Point","coordinates":[136.678809,34.477511]},"properties":{"id":121801080,"name":"宮川右岸８．８ｋｍ－５．２ｍ","name_kana":"みやがわうがん","ofc_cd":85,"sys_id":1,"sys_cam_id":"21801080","pause":0,"date_type":0,"cam_kind":4,"own_cd":21801}},{"type":"Feature","geometry":{"type":"Point","coordinates":[136.745163,34.476725]},"properties":{"id":12401203001,"name":"矢田川","name_kana":"","ofc_cd":85,"sys_id":1,"sys_cam_id":"2401203001","pause":0,"date_type":2,"cam_kind":4,"own_cd":2401203}},{"type":"Feature","geometry":{"type":"Point","coordinates":[136.708154,34.501913]},"properties":{"id":12401203002,"name":"桧尻川","name_kana":"","ofc_cd":85,"sys_id":1,"sys_cam_id":"2401203002","pause":0,"date_type":2,"cam_kind":4,"own_cd":2401203}},{"type":"Feature","geometry":{"type":"Point","coordinates":[136.679739,34.500682]},"properties":{"id":12401203003,"name":"汁谷川","name_kana":"","ofc_cd":85,"sys_id":1,"sys_cam_id":"2401203003","pause":0,"date_type":2,"cam_kind":4,"own_cd":2401203}},{"type":"Feature","geometry":{"type":"Point","coordinates":[136.6822111,34.49355]},"properties":{"id":221801003,"name":"度会橋（県）","name_kana":"わたらいばし（けん）","ofc_cd":85,"sys_id":2,"sys_cam_id":"24010007","pause":0,"date_type":0,"cam_kind":2,"own_cd":21801}},{"type":"Feature","geometry":{"type":"Point","coordinates":[136.6865611,34.5102306]},"properties":{"id":221801004,"name":"近鉄宮川橋梁","name_kana":"","ofc_cd":85,"sys_id":2,"sys_cam_id":"24010008","pause":0,"date_type":0,"cam_kind":2,"own_cd":21801}},{"type":"Feature","geometry":{"type":"Point","coordinates":[136.6925694,34.5136694]},"properties":{"id":221801005,"name":"宮川大橋","name_kana":"","ofc_cd":85,"sys_id":2,"sys_cam_id":"24010009","pause":0,"date_type":0,"cam_kind":2,"own_cd":21801}},{"type":"Feature","geometry":{"type":"Point","coordinates":[136.7104694,34.4832111]},"properties":{"id":221801006,"name":"岡本水位観測所","name_kana":"","ofc_cd":85,"sys_id":2,"sys_cam_id":"24010010","pause":0,"date_type":0,"cam_kind":2,"own_cd":21801}},{"type":"Feature","geometry":{"type":"Point","coordinates":[136.7163611,34.4888389]},"properties":{"id":221801007,"name":"ＪＲ勢田川橋梁（桜橋）","name_kana":"","ofc_cd":85,"sys_id":2,"sys_cam_id":"24010011","pause":0,"date_type":0,"cam_kind":2,"own_cd":21801}},{"type":"Feature","geometry":{"type":"Point","coordinates":[136.7310694,34.5000389]},"properties":{"id":221801008,"name":"勢田大橋水位観測所","name_kana":"","ofc_cd":85,"sys_id":2,"sys_cam_id":"24010012","pause":0,"date_type":0,"cam_kind":2,"own_cd":21801}},{"type":"Feature","geometry":{"type":"Point","coordinates":[136.6676806,34.4714611]},"properties":{"id":221801084,"name":"小田古川排水樋門","name_kana":"","ofc_cd":85,"sys_id":2,"sys_cam_id":"24010089","pause":0,"date_type":0,"cam_kind":2,"own_cd":21801}},{"type":"Feature","geometry":{"type":"Point","coordinates":[136.6756889,34.4783194]},"properties":{"id":221801085,"name":"伊勢市上水道宮川水管橋","name_kana":"","ofc_cd":85,"sys_id":2,"sys_cam_id":"24010090","pause":0,"date_type":0,"cam_kind":2,"own_cd":21801}},{"type":"Feature","geometry":{"type":"Point","coordinates":[136.6839806,34.4805]},"properties":{"id":221801086,"name":"辻久留４号排水樋管","name_kana":"","ofc_cd":85,"sys_id":2,"sys_cam_id":"24010091","pause":0,"date_type":0,"cam_kind":2,"own_cd":21801}},{"type":"Feature","geometry":{"type":"Point","coordinates":[136.6859694,34.4997111]},"properties":{"id":221801088,"name":"宮川橋","name_kana":"","ofc_cd":85,"sys_id":2,"sys_cam_id":"24010093","pause":0,"date_type":0,"cam_kind":2,"own_cd":21801}},{"type":"Feature","geometry":{"type":"Point","coordinates":[136.6816306,34.5021]},"properties":{"id":221801089,"name":"JR宮川橋梁","name_kana":"","ofc_cd":85,"sys_id":2,"sys_cam_id":"24010094","pause":0,"date_type":0,"cam_kind":2,"own_cd":21801}},{"type":"Feature","geometry":{"type":"Point","coordinates":[136.7063389,34.5130389]},"properties":{"id":221801090,"name":"桜づつみ","name_kana":"","ofc_cd":85,"sys_id":2,"sys_cam_id":"24010095","pause":0,"date_type":0,"cam_kind":2,"own_cd":21801}},{"type":"Feature","geometry":{"type":"Point","coordinates":[136.7083611,34.5257]},"properties":{"id":221801091,"name":"東豊浜町","name_kana":"","ofc_cd":85,"sys_id":2,"sys_cam_id":"24010096","pause":0,"date_type":0,"cam_kind":2,"own_cd":21801}},{"type":"Feature","geometry":{"type":"Point","coordinates":[136.7205611,34.5361694]},"properties":{"id":221801092,"name":"宮川河口部（左岸）","name_kana":"","ofc_cd":85,"sys_id":2,"sys_cam_id":"24010097","pause":0,"date_type":0,"cam_kind":2,"own_cd":21801}},{"type":"Feature","geometry":{"type":"Point","coordinates":[136.7338889,34.5326]},"properties":{"id":221801093,"name":"宮川河口部（右岸）","name_kana":"","ofc_cd":85,"sys_id":2,"sys_cam_id":"24010098","pause":0,"date_type":0,"cam_kind":2,"own_cd":21801}},{"type":"Feature","geometry":{"type":"Point","coordinates":[136.7553194,34.5089194]},"properties":{"id":221801094,"name":"浜田排水ひ管","name_kana":"","ofc_cd":85,"sys_id":2,"sys_cam_id":"24010099","pause":0,"date_type":0,"cam_kind":2,"own_cd":21801}},{"type":"Feature","geometry":{"type":"Point","coordinates":[136.7153889,34.4865]},"properties":{"id":221801095,"name":"簀子橋","name_kana":"","ofc_cd":85,"sys_id":2,"sys_cam_id":"24010100","pause":0,"date_type":0,"cam_kind":2,"own_cd":21801}},{"type":"Feature","geometry":{"type":"Point","coordinates":[136.7168306,34.49115]},"properties":{"id":221801096,"name":"ＪＲ勢田川橋梁（清田橋）","name_kana":"","ofc_cd":85,"sys_id":2,"sys_cam_id":"24010101","pause":0,"date_type":0,"cam_kind":2,"own_cd":21801}},{"type":"Feature","geometry":{"type":"Point","coordinates":[136.73835,34.5023306]},"properties":{"id":221801097,"name":"勢田川橋","name_kana":"","ofc_cd":85,"sys_id":2,"sys_cam_id":"24010102","pause":0,"date_type":0,"cam_kind":2,"own_cd":21801}},{"type":"Feature","geometry":{"type":"Point","coordinates":[136.7380389,34.5079806]},"properties":{"id":221801098,"name":"勢田川防潮水門上流部右岸","name_kana":"","ofc_cd":85,"sys_id":2,"sys_cam_id":"24010103","pause":0,"date_type":0,"cam_kind":2,"own_cd":21801}},{"type":"Feature","geometry":{"type":"Point","coordinates":[136.7368389,34.5081111]},"properties":{"id":221801099,"name":"勢田川排水機場　屋上東","name_kana":"","ofc_cd":85,"sys_id":2,"sys_cam_id":"24010104","pause":0,"date_type":0,"cam_kind":2,"own_cd":21801}},{"type":"Feature","geometry":{"type":"Point","coordinates":[136.7525794,34.5127065]},"properties":{"id":221801103,"name":"五十鈴川河口部","name_kana":"いすずがわかこうぶ","ofc_cd":85,"sys_id":2,"sys_cam_id":"24010108","pause":0,"date_type":0,"cam_kind":2,"own_cd":21801}},{"type":"Feature","geometry":{"type":"Point","coordinates":[136.5436111,34.5763056]},"properties":{"id":106145001,"name":"愛宕川(通学橋下流側)","name_kana":"あたごがわ(つうがくばしかりゅうがわ)","ofc_cd":85,"sys_id":1,"sys_cam_id":"6145001","pause":0,"date_type":2,"cam_kind":4,"own_cd":6145}},{"type":"Feature","geometry":{"type":"Point","coordinates":[136.5189722,34.6317222]},"properties":{"id":106145025,"name":"碧川(碧川橋上流300m)","name_kana":"あおがわ(あおがわばしじょうりゅう300m)","ofc_cd":85,"sys_id":1,"sys_cam_id":"6145025","pause":0,"date_type":1,"cam_kind":4,"own_cd":6145}},{"type":"Feature","geometry":{"type":"Point","coordinates":[136.4878066,34.6104444]},"properties":{"id":106145026,"name":"三渡川(田村橋上流50m)","name_kana":"みわたりがわ(たむらばしじょうりゅう50m)","ofc_cd":85,"sys_id":1,"sys_cam_id":"6145026","pause":0,"date_type":1,"cam_kind":4,"own_cd":6145}},{"type":"Feature","geometry":{"type":"Point","coordinates":[136.53825,34.59175]},"properties":{"id":106145027,"name":"阪内川(荒木橋上流側)","name_kana":"さかないがわ(あらきばしじょうりゅうがわ)","ofc_cd":85,"sys_id":1,"sys_cam_id":"6145027","pause":0,"date_type":1,"cam_kind":4,"own_cd":6145}},{"type":"Feature","geometry":{"type":"Point","coordinates":[136.5380566,34.5591944]},"properties":{"id":106145028,"name":"金剛川(杉の森橋上流200m)","name_kana":"こんごうがわ(すぎのもりばしじょうりゅう200m)","ofc_cd":85,"sys_id":1,"sys_cam_id":"6145028","pause":0,"date_type":1,"cam_kind":4,"own_cd":6145}},{"type":"Feature","geometry":{"type":"Point","coordinates":[136.5405833,34.5651111]},"properties":{"id":106145029,"name":"名古須川(迎出橋上流側)","name_kana":"なこすがわ(むかいでばしじょうりゅうがわ)","ofc_cd":85,"sys_id":1,"sys_cam_id":"6145029","pause":0,"date_type":1,"cam_kind":4,"own_cd":6145}},{"type":"Feature","geometry":{"type":"Point","coordinates":[136.526101,34.600807]},"properties":{"id":106145047,"name":"百々川(長泉寺橋下流側)","name_kana":"どどがわ(ちょうせんじばしかりゅうがわ)","ofc_cd":85,"sys_id":1,"sys_cam_id":"6145047","pause":0,"date_type":2,"cam_kind":4,"own_cd":6145}},{"type":"Feature","geometry":{"type":"Point","coordinates":[136.519206,34.586273]},"properties":{"id":106145058,"name":"百々川(西之川橋下流側)","name_kana":"どどがわ(にしのかわばしかりゅうがわ)","ofc_cd":85,"sys_id":1,"sys_cam_id":"6145058","pause":0,"date_type":2,"cam_kind":4,"own_cd":6145}},{"type":"Feature","geometry":{"type":"Point","coordinates":[136.56617,34.58464]},"properties":{"id":106145062,"name":"勢々川(勢々川橋下流側)","name_kana":"ぜぜがわ(ぜぜがわばしかりゅうがわ)","ofc_cd":85,"sys_id":1,"sys_cam_id":"6145062","pause":0,"date_type":2,"cam_kind":4,"own_cd":6145}},{"type":"Feature","geometry":{"type":"Point","coordinates":[136.469806,34.636806]},"properties":{"id":121801057,"name":"中村川　左岸　1.4km+6.2m","name_kana":"","ofc_cd":85,"sys_id":1,"sys_cam_id":"21801057","pause":0,"date_type":1,"cam_kind":4,"own_cd":21801}},{"type":"Feature","geometry":{"type":"Point","coordinates":[136.457111,34.621222]},"properties":{"id":121801058,"name":"中村川　右岸　3.8km+75.0m（川表）","name_kana":"","ofc_cd":85,"sys_id":1,"sys_cam_id":"21801058","pause":0,"date_type":2,"cam_kind":4,"own_cd":21801}},{"type":"Feature","geometry":{"type":"Point","coordinates":[136.457411,34.621022]},"properties":{"id":121801059,"name":"中村川　右岸　3.8km+75.0m（川裏）","name_kana":"","ofc_cd":85,"sys_id":1,"sys_cam_id":"21801059","pause":0,"date_type":2,"cam_kind":4,"own_cd":21801}},{"type":"Feature","geometry":{"type":"Point","coordinates":[136.450111,34.619333]},"properties":{"id":121801060,"name":"中村川　左岸　4.6km-41.5m","name_kana":"","ofc_cd":85,"sys_id":1,"sys_cam_id":"21801060","pause":0,"date_type":2,"cam_kind":4,"own_cd":21801}},{"type":"Feature","geometry":{"type":"Point","coordinates":[136.586722,34.585861]},"properties":{"id":121801064,"name":"櫛田川　右岸　2.4km+22.4m","name_kana":"","ofc_cd":85,"sys_id":1,"sys_cam_id":"21801064","pause":0,"date_type":2,"cam_kind":4,"own_cd":21801}},{"type":"Feature","geometry":{"type":"Point","coordinates":[136.590306,34.575694]},"properties":{"id":121801065,"name":"櫛田川　左岸　3.6km-16.4m","name_kana":"","ofc_cd":85,"sys_id":1,"sys_cam_id":"21801065","pause":0,"date_type":2,"cam_kind":4,"own_cd":21801}},{"type":"Feature","geometry":{"type":"Point","coordinates":[136.589528,34.544444]},"properties":{"id":121801066,"name":"櫛田川　右岸　7.6km-57.2m","name_kana":"","ofc_cd":85,"sys_id":1,"sys_cam_id":"21801066","pause":0,"date_type":2,"cam_kind":4,"own_cd":21801}},{"type":"Feature","geometry":{"type":"Point","coordinates":[136.530944,34.506028]},"properties":{"id":121801068,"name":"櫛田川　左岸　15.2km+16.7m","name_kana":"","ofc_cd":85,"sys_id":1,"sys_cam_id":"21801068","pause":0,"date_type":2,"cam_kind":4,"own_cd":21801}},{"type":"Feature","geometry":{"type":"Point","coordinates":[136.5125611,34.6467889]},"properties":{"id":221801001,"name":"雲出橋水位観測所","name_kana":"","ofc_cd":85,"sys_id":2,"sys_cam_id":"24010001","pause":0,"date_type":0,"cam_kind":2,"own_cd":21801}},{"type":"Feature","geometry":{"type":"Point","coordinates":[136.4541111,34.6201111]},"properties":{"id":221801018,"name":"島田橋水位観測所","name_kana":"","ofc_cd":85,"sys_id":2,"sys_cam_id":"24010023","pause":0,"date_type":0,"cam_kind":2,"own_cd":21801}},{"type":"Feature","geometry":{"type":"Point","coordinates":[136.5716111,34.52375]},"properties":{"id":221801019,"name":"櫛田可動堰上流左岸","name_kana":"","ofc_cd":85,"sys_id":2,"sys_cam_id":"24010024","pause":0,"date_type":0,"cam_kind":2,"own_cd":21801}},{"type":"Feature","geometry":{"type":"Point","coordinates":[136.5851,34.5454889]},"properties":{"id":221801020,"name":"櫛田橋水位観測所","name_kana":"","ofc_cd":85,"sys_id":2,"sys_cam_id":"24010025","pause":0,"date_type":0,"cam_kind":2,"own_cd":21801}},{"type":"Feature","geometry":{"type":"Point","coordinates":[136.5920111,34.5796889]},"properties":{"id":221801021,"name":"大平橋","name_kana":"","ofc_cd":85,"sys_id":2,"sys_cam_id":"24010026","pause":0,"date_type":0,"cam_kind":2,"own_cd":21801}},{"type":"Feature","geometry":{"type":"Point","coordinates":[136.57575,34.6035306]},"properties":{"id":221801022,"name":"櫛田川河口","name_kana":"","ofc_cd":85,"sys_id":2,"sys_cam_id":"24010027","pause":0,"date_type":0,"cam_kind":2,"own_cd":21801}},{"type":"Feature","geometry":{"type":"Point","coordinates":[136.4929111,34.6464889]},"properties":{"id":221801053,"name":"新雲出大橋（中勢BP）","name_kana":"","ofc_cd":85,"sys_id":2,"sys_cam_id":"24010058","pause":0,"date_type":0,"cam_kind":2,"own_cd":21801}},{"type":"Feature","geometry":{"type":"Point","coordinates":[136.4975111,34.6486806]},"properties":{"id":221801054,"name":"舞出観測所","name_kana":"","ofc_cd":85,"sys_id":2,"sys_cam_id":"24010059","pause":0,"date_type":0,"cam_kind":2,"own_cd":21801}},{"type":"Feature","geometry":{"type":"Point","coordinates":[136.5257389,34.6467889]},"properties":{"id":221801057,"name":"雲出古川分流点","name_kana":"","ofc_cd":85,"sys_id":2,"sys_cam_id":"24010062","pause":0,"date_type":0,"cam_kind":2,"own_cd":21801}},{"type":"Feature","geometry":{"type":"Point","coordinates":[136.5481111,34.6326306]},"properties":{"id":221801058,"name":"雲出川河口部","name_kana":"","ofc_cd":85,"sys_id":2,"sys_cam_id":"24010063","pause":0,"date_type":0,"cam_kind":2,"own_cd":21801}},{"type":"Feature","geometry":{"type":"Point","coordinates":[136.4609694,34.6227194]},"properties":{"id":221801062,"name":"一志橋","name_kana":"","ofc_cd":85,"sys_id":2,"sys_cam_id":"24010067","pause":0,"date_type":0,"cam_kind":2,"own_cd":21801}},{"type":"Feature","geometry":{"type":"Point","coordinates":[136.4667111,34.62505]},"properties":{"id":221801063,"name":"大谷川水門","name_kana":"","ofc_cd":85,"sys_id":2,"sys_cam_id":"24010068","pause":0,"date_type":0,"cam_kind":2,"own_cd":21801}},{"type":"Feature","geometry":{"type":"Point","coordinates":[136.4707306,34.6309111]},"properties":{"id":221801064,"name":"ＪＲ中村川橋梁","name_kana":"","ofc_cd":85,"sys_id":2,"sys_cam_id":"24010069","pause":0,"date_type":0,"cam_kind":2,"own_cd":21801}},{"type":"Feature","geometry":{"type":"Point","coordinates":[136.4737306,34.6378694]},"properties":{"id":221801065,"name":"近鉄大阪線中村川橋梁","name_kana":"","ofc_cd":85,"sys_id":2,"sys_cam_id":"24010070","pause":0,"date_type":0,"cam_kind":2,"own_cd":21801}},{"type":"Feature","geometry":{"type":"Point","coordinates":[136.4785889,34.6442111]},"properties":{"id":221801066,"name":"中村川合流点","name_kana":"","ofc_cd":85,"sys_id":2,"sys_cam_id":"24010071","pause":0,"date_type":0,"cam_kind":2,"own_cd":21801}},{"type":"Feature","geometry":{"type":"Point","coordinates":[136.51385,34.50435]},"properties":{"id":221801071,"name":"庄第二排水ひ管","name_kana":"","ofc_cd":85,"sys_id":2,"sys_cam_id":"24010076","pause":0,"date_type":0,"cam_kind":2,"own_cd":21801}},{"type":"Feature","geometry":{"type":"Point","coordinates":[136.5456111,34.5099611]},"properties":{"id":221801072,"name":"新両郡橋","name_kana":"","ofc_cd":85,"sys_id":2,"sys_cam_id":"24010077","pause":0,"date_type":0,"cam_kind":2,"own_cd":21801}},{"type":"Feature","geometry":{"type":"Point","coordinates":[136.55295,34.5134806]},"properties":{"id":221801073,"name":"中万排水ひ管","name_kana":"","ofc_cd":85,"sys_id":2,"sys_cam_id":"24010078","pause":0,"date_type":0,"cam_kind":2,"own_cd":21801}},{"type":"Feature","geometry":{"type":"Point","coordinates":[136.5572389,34.5163194]},"properties":{"id":221801074,"name":"中万第三排水ひ管","name_kana":"","ofc_cd":85,"sys_id":2,"sys_cam_id":"24010079","pause":0,"date_type":0,"cam_kind":2,"own_cd":21801}},{"type":"Feature","geometry":{"type":"Point","coordinates":[136.5646389,34.5220889]},"properties":{"id":221801075,"name":"孫川合流点","name_kana":"","ofc_cd":85,"sys_id":2,"sys_cam_id":"24010080","pause":0,"date_type":0,"cam_kind":2,"own_cd":21801}},{"type":"Feature","geometry":{"type":"Point","coordinates":[136.5808194,34.5426694]},"properties":{"id":221801076,"name":"櫛田川出張所","name_kana":"","ofc_cd":85,"sys_id":2,"sys_cam_id":"24010081","pause":0,"date_type":0,"cam_kind":2,"own_cd":21801}},{"type":"Feature","geometry":{"type":"Point","coordinates":[136.5980111,34.5598306]},"properties":{"id":221801077,"name":"魚見樋管","name_kana":"","ofc_cd":85,"sys_id":2,"sys_cam_id":"24010082","pause":0,"date_type":0,"cam_kind":2,"own_cd":21801}},{"type":"Feature","geometry":{"type":"Point","coordinates":[136.5822694,34.5858306]},"properties":{"id":221801078,"name":"松阪東大橋","name_kana":"","ofc_cd":85,"sys_id":2,"sys_cam_id":"24010083","pause":0,"date_type":0,"cam_kind":2,"own_cd":21801}},{"type":"Feature","geometry":{"type":"Point","coordinates":[136.58375,34.5952806]},"properties":{"id":221801079,"name":"松名瀬町","name_kana":"","ofc_cd":85,"sys_id":2,"sys_cam_id":"24010084","pause":0,"date_type":0,"cam_kind":2,"own_cd":21801}},{"type":"Feature","geometry":{"type":"Point","coordinates":[136.57250555,34.52499444]},"properties":{"id":221801100,"name":"櫛田可動堰左岸全景","name_kana":"くしだがわかどうぜきさがんぜんけい","ofc_cd":85,"sys_id":2,"sys_cam_id":"24010105","pause":0,"date_type":0,"cam_kind":2,"own_cd":21801}},{"type":"Feature","geometry":{"type":"Point","coordinates":[136.59380277,34.55961944]},"properties":{"id":221801101,"name":"櫛田第二頭首工","name_kana":"くしだだいにとうしゅこう","ofc_cd":85,"sys_id":2,"sys_cam_id":"24010106","pause":0,"date_type":0,"cam_kind":2,"own_cd":21801}},{"type":"Feature","geometry":{"type":"Point","coordinates":[136.59053888,34.57167777]},"properties":{"id":221801102,"name":"魚見橋（県）","name_kana":"うおみばし（けん）","ofc_cd":85,"sys_id":2,"sys_cam_id":"24010107","pause":0,"date_type":0,"cam_kind":2,"own_cd":21801}},{"type":"Feature","geometry":{"type":"Point","coordinates":[136.211033,34.378574]},"properties":{"id":221805001,"name":"蓮ダム湖面監視","name_kana":"こめんかんし","ofc_cd":85,"sys_id":2,"sys_cam_id":"21805001","pause":0,"date_type":0,"cam_kind":2,"own_cd":21805}},{"type":"Feature","geometry":{"type":"Point","coordinates":[136.208817,34.374271]},"properties":{"id":221805002,"name":"蓮ダム　下流監視","name_kana":"かりゅうかんし","ofc_cd":85,"sys_id":2,"sys_cam_id":"21805002","pause":0,"date_type":0,"cam_kind":2,"own_cd":21805}},{"type":"Feature","geometry":{"type":"Point","coordinates":[136.216108,34.391386]},"properties":{"id":221805003,"name":"犬飼","name_kana":"いぬかい","ofc_cd":85,"sys_id":2,"sys_cam_id":"21805003","pause":0,"date_type":0,"cam_kind":2,"own_cd":21805}},{"type":"Feature","geometry":{"type":"Point","coordinates":[136.226665,34.41056]},"properties":{"id":221805004,"name":"七日市","name_kana":"なぬかいち","ofc_cd":85,"sys_id":2,"sys_cam_id":"21805004","pause":0,"date_type":0,"cam_kind":2,"own_cd":21805}},{"type":"Feature","geometry":{"type":"Point","coordinates":[136.266383,34.419995]},"properties":{"id":221805005,"name":"九十九曲","name_kana":"つづらくま","ofc_cd":85,"sys_id":2,"sys_cam_id":"21805005","pause":0,"date_type":0,"cam_kind":2,"own_cd":21805}},{"type":"Feature","geometry":{"type":"Point","coordinates":[136.291183,34.420819]},"properties":{"id":221805006,"name":"田引","name_kana":"たびき","ofc_cd":85,"sys_id":2,"sys_cam_id":"21805006","pause":0,"date_type":0,"cam_kind":2,"own_cd":21805}},{"type":"Feature","geometry":{"type":"Point","coordinates":[136.6545,35.0528333]},"properties":{"id":106145007,"name":"員弁川(桑部橋)","name_kana":"いなべがわ(くわべばし)","ofc_cd":85,"sys_id":1,"sys_cam_id":"6145007","pause":0,"date_type":1,"cam_kind":4,"own_cd":6145}},{"type":"Feature","geometry":{"type":"Point","coordinates":[136.6748333,35.0518066]},"properties":{"id":106145008,"name":"員弁川 安永(ＪＲ鉄橋)","name_kana":"いなべがわ やすなが(ＪＲてっきょう)","ofc_cd":85,"sys_id":1,"sys_cam_id":"6145008","pause":0,"date_type":1,"cam_kind":4,"own_cd":6145}},{"type":"Feature","geometry":{"type":"Point","coordinates":[136.689518,35.035004]},"properties":{"id":106145061,"name":"員弁川(町屋大橋)","name_kana":"いなべがわ(まちやおおはし)","ofc_cd":85,"sys_id":1,"sys_cam_id":"6145061","pause":0,"date_type":2,"cam_kind":4,"own_cd":6145}},{"type":"Feature","geometry":{"type":"Point","coordinates":[136.667834,35.097099]},"properties":{"id":106145076,"name":"流石川(高砂１号橋)","name_kana":"さざれいしがわ(たかさごいちごうきょう)","ofc_cd":85,"sys_id":1,"sys_cam_id":"6145076","pause":0,"date_type":2,"cam_kind":4,"own_cd":6145}},{"type":"Feature","geometry":{"type":"Point","coordinates":[136.6534487,35.1272477]},"properties":{"id":121818078,"name":"肱江川　1.4k＋129　左岸","name_kana":"","ofc_cd":85,"sys_id":1,"sys_cam_id":"21818078","pause":0,"date_type":2,"cam_kind":4,"own_cd":21818}},{"type":"Feature","geometry":{"type":"Point","coordinates":[136.689028,35.122833]},"properties":{"id":221818005,"name":"西川","name_kana":"にしかわ","ofc_cd":85,"sys_id":2,"sys_cam_id":"21818001","pause":0,"date_type":0,"cam_kind":2,"own_cd":21818}},{"type":"Feature","geometry":{"type":"Point","coordinates":[136.7029,35.108086]},"properties":{"id":221818006,"name":"長島出張所　鉄塔","name_kana":"ながしましゅっちょうじょ　てっとう","ofc_cd":85,"sys_id":2,"sys_cam_id":"21818002","pause":0,"date_type":0,"cam_kind":2,"own_cd":21818}},{"type":"Feature","geometry":{"type":"Point","coordinates":[136.725694,35.056917]},"properties":{"id":221818007,"name":"木曽川大橋（下）","name_kana":"きそがわおおはし（した）","ofc_cd":85,"sys_id":2,"sys_cam_id":"21818003","pause":0,"date_type":0,"cam_kind":2,"own_cd":21818}},{"type":"Feature","geometry":{"type":"Point","coordinates":[136.738056,35.035]},"properties":{"id":221818008,"name":"浦安（木曽川）","name_kana":"うらやす（きそがわ）","ofc_cd":85,"sys_id":2,"sys_cam_id":"21818004","pause":0,"date_type":0,"cam_kind":2,"own_cd":21818}},{"type":"Feature","geometry":{"type":"Point","coordinates":[136.731944,35.064167]},"properties":{"id":221818013,"name":"木曽川大橋（上）","name_kana":"きそがわおおはし（うえ）","ofc_cd":85,"sys_id":2,"sys_cam_id":"21818009","pause":0,"date_type":0,"cam_kind":2,"own_cd":21818}},{"type":"Feature","geometry":{"type":"Point","coordinates":[136.693056,35.089722]},"properties":{"id":221818022,"name":"遠浅","name_kana":"とおあさ","ofc_cd":85,"sys_id":2,"sys_cam_id":"21818018","pause":0,"date_type":0,"cam_kind":2,"own_cd":21818}},{"type":"Feature","geometry":{"type":"Point","coordinates":[136.653056,35.157222]},"properties":{"id":221818024,"name":"福永","name_kana":"ふくなが","ofc_cd":85,"sys_id":2,"sys_cam_id":"21818020","pause":0,"date_type":0,"cam_kind":2,"own_cd":21818}},{"type":"Feature","geometry":{"type":"Point","coordinates":[136.663889,35.133611]},"properties":{"id":221818025,"name":"二郷橋","name_kana":"にごうばし","ofc_cd":85,"sys_id":2,"sys_cam_id":"21818021","pause":0,"date_type":0,"cam_kind":2,"own_cd":21818}},{"type":"Feature","geometry":{"type":"Point","coordinates":[136.705428,35.045001]},"properties":{"id":221818026,"name":"貝須","name_kana":"かいす","ofc_cd":85,"sys_id":2,"sys_cam_id":"21818022","pause":0,"date_type":0,"cam_kind":2,"own_cd":21818}},{"type":"Feature","geometry":{"type":"Point","coordinates":[136.708624,35.02839]},"properties":{"id":221818027,"name":"城南（排）屋上","name_kana":"じょうなん（はい）おくじょう","ofc_cd":85,"sys_id":2,"sys_cam_id":"21818023","pause":0,"date_type":0,"cam_kind":2,"own_cd":21818}},{"type":"Feature","geometry":{"type":"Point","coordinates":[136.725278,35.028056]},"properties":{"id":221818030,"name":"浦安（揖斐川）","name_kana":"うらやす（いびがわ）","ofc_cd":85,"sys_id":2,"sys_cam_id":"21818026","pause":0,"date_type":0,"cam_kind":2,"own_cd":21818}},{"type":"Feature","geometry":{"type":"Point","coordinates":[136.650556,35.125]},"properties":{"id":221818031,"name":"肱江橋","name_kana":"ひじえばし","ofc_cd":85,"sys_id":2,"sys_cam_id":"21818027","pause":0,"date_type":0,"cam_kind":2,"own_cd":21818}},{"type":"Feature","geometry":{"type":"Point","coordinates":[136.650278,35.138611]},"properties":{"id":221818032,"name":"多度橋","name_kana":"たどばし","ofc_cd":85,"sys_id":2,"sys_cam_id":"21818028","pause":0,"date_type":0,"cam_kind":2,"own_cd":21818}},{"type":"Feature","geometry":{"type":"Point","coordinates":[136.654722,35.131667]},"properties":{"id":221818033,"name":"中須橋","name_kana":"なかすばし","ofc_cd":85,"sys_id":2,"sys_cam_id":"21818029","pause":0,"date_type":0,"cam_kind":2,"own_cd":21818}},{"type":"Feature","geometry":{"type":"Point","coordinates":[136.686944,35.078056]},"properties":{"id":221818034,"name":"木曽川下流河川事務所鉄塔","name_kana":"きそがわかりゅうかせんじむしょてっとう","ofc_cd":85,"sys_id":2,"sys_cam_id":"21818030","pause":0,"date_type":0,"cam_kind":2,"own_cd":21818}},{"type":"Feature","geometry":{"type":"Point","coordinates":[136.654167,35.125556]},"properties":{"id":221818035,"name":"肱江川水位観測所","name_kana":"ひじえがわすいいかんそくじょ","ofc_cd":85,"sys_id":2,"sys_cam_id":"21818031","pause":0,"date_type":0,"cam_kind":2,"own_cd":21818}},{"type":"Feature","geometry":{"type":"Point","coordinates":[136.680222,35.089813]},"properties":{"id":221818040,"name":"JR橋梁上流","name_kana":"JRきょうりょうじょうりゅう","ofc_cd":85,"sys_id":2,"sys_cam_id":"21818036","pause":0,"date_type":0,"cam_kind":2,"own_cd":21818}},{"type":"Feature","geometry":{"type":"Point","coordinates":[136.660429,35.145319]},"properties":{"id":221818046,"name":"油島大橋","name_kana":"あぶらじまおおはし","ofc_cd":85,"sys_id":2,"sys_cam_id":"21818042","pause":0,"date_type":0,"cam_kind":2,"own_cd":21818}},{"type":"Feature","geometry":{"type":"Point","coordinates":[136.685556,35.096667]},"properties":{"id":221818047,"name":"西外面","name_kana":"にしども","ofc_cd":85,"sys_id":2,"sys_cam_id":"21818043","pause":0,"date_type":0,"cam_kind":2,"own_cd":21818}},{"type":"Feature","geometry":{"type":"Point","coordinates":[136.723889,35.084167]},"properties":{"id":221818048,"name":"加路戸","name_kana":"かろと","ofc_cd":85,"sys_id":2,"sys_cam_id":"21818044","pause":0,"date_type":0,"cam_kind":2,"own_cd":21818}},{"type":"Feature","geometry":{"type":"Point","coordinates":[136.717667,35.072389]},"properties":{"id":221818049,"name":"鎌ヶ地","name_kana":"かまがんじ","ofc_cd":85,"sys_id":2,"sys_cam_id":"21818045","pause":0,"date_type":0,"cam_kind":2,"own_cd":21818}},{"type":"Feature","geometry":{"type":"Point","coordinates":[136.6975,35.067778]},"properties":{"id":221818050,"name":"吉之丸水門統合管理所","name_kana":"よしのまるすいもんとうごうかんりしょ","ofc_cd":85,"sys_id":2,"sys_cam_id":"21818046","pause":0,"date_type":0,"cam_kind":2,"own_cd":21818}},{"type":"Feature","geometry":{"type":"Point","coordinates":[136.703889,35.053889]},"properties":{"id":221818051,"name":"地蔵（上）","name_kana":"じぞう（うえ）","ofc_cd":85,"sys_id":2,"sys_cam_id":"21818047","pause":0,"date_type":0,"cam_kind":2,"own_cd":21818}},{"type":"Feature","geometry":{"type":"Point","coordinates":[136.714992,35.055827]},"properties":{"id":221818052,"name":"揖斐長良大橋（下）","name_kana":"いびながらがわおおはし（した）","ofc_cd":85,"sys_id":2,"sys_cam_id":"21818048","pause":0,"date_type":0,"cam_kind":2,"own_cd":21818}},{"type":"Feature","geometry":{"type":"Point","coordinates":[136.719834,35.03459]},"properties":{"id":221818053,"name":"松蔭","name_kana":"まつかげ","ofc_cd":85,"sys_id":2,"sys_cam_id":"21818049","pause":0,"date_type":0,"cam_kind":2,"own_cd":21818}},{"type":"Feature","geometry":{"type":"Point","coordinates":[136.739445,35.05209]},"properties":{"id":221818054,"name":"源緑","name_kana":"げんろく","ofc_cd":85,"sys_id":2,"sys_cam_id":"21818050","pause":0,"date_type":0,"cam_kind":2,"own_cd":21818}},{"type":"Feature","geometry":{"type":"Point","coordinates":[136.5668899,34.8200833]},"properties":{"id":106145016,"name":"堀切川(一本松橋上流側)","name_kana":"ほりきりがわ(いっぽんまつばしじょうりゅうがわ)","ofc_cd":85,"sys_id":1,"sys_cam_id":"6145016","pause":0,"date_type":1,"cam_kind":4,"own_cd":6145}},{"type":"Feature","geometry":{"type":"Point","coordinates":[136.5508066,34.8218611]},"properties":{"id":106145017,"name":"中ノ川 秋永(中島橋)","name_kana":"なかのがわ あきなが(なかじまばし)","ofc_cd":85,"sys_id":1,"sys_cam_id":"6145017","pause":0,"date_type":1,"cam_kind":4,"own_cd":6145}},{"type":"Feature","geometry":{"type":"Point","coordinates":[136.525167,34.887778]},"properties":{"id":106145054,"name":"芥川(庄野12号橋)","name_kana":"あくたかわ(しょうの12ごうきょう)","ofc_cd":85,"sys_id":1,"sys_cam_id":"6145054","pause":0,"date_type":1,"cam_kind":4,"own_cd":6145}},{"type":"Feature","geometry":{"type":"Point","coordinates":[136.565792,34.896275]},"properties":{"id":121801040,"name":"鈴鹿川　左岸　9.0km+9.6m","name_kana":"","ofc_cd":85,"sys_id":1,"sys_cam_id":"21801040","pause":0,"date_type":2,"cam_kind":4,"own_cd":21801}},{"type":"Feature","geometry":{"type":"Point","coordinates":[136.548197,34.888409]},"properties":{"id":121801041,"name":"鈴鹿川　右岸　10.8km+74.9m","name_kana":"","ofc_cd":85,"sys_id":1,"sys_cam_id":"21801041","pause":0,"date_type":2,"cam_kind":4,"own_cd":21801}},{"type":"Feature","geometry":{"type":"Point","coordinates":[136.513806,34.875556]},"properties":{"id":121801042,"name":"鈴鹿川　左岸　14.6km+75.2m","name_kana":"","ofc_cd":85,"sys_id":1,"sys_cam_id":"21801042","pause":0,"date_type":2,"cam_kind":4,"own_cd":21801}},{"type":"Feature","geometry":{"type":"Point","coordinates":[136.509483,34.874122]},"properties":{"id":121801051,"name":"安楽川　左岸　0.0km-36.3m","name_kana":"","ofc_cd":85,"sys_id":1,"sys_cam_id":"21801051","pause":0,"date_type":2,"cam_kind":4,"own_cd":21801}},{"type":"Feature","geometry":{"type":"Point","coordinates":[136.499687,34.872083]},"properties":{"id":121801052,"name":"安楽川　右岸　1.0km-7.7m","name_kana":"","ofc_cd":85,"sys_id":1,"sys_cam_id":"21801052","pause":0,"date_type":2,"cam_kind":4,"own_cd":21801}},{"type":"Feature","geometry":{"type":"Point","coordinates":[136.5289194,34.8801389]},"properties":{"id":221801011,"name":"庄野橋","name_kana":"","ofc_cd":85,"sys_id":2,"sys_cam_id":"24010016","pause":0,"date_type":0,"cam_kind":2,"own_cd":21801}},{"type":"Feature","geometry":{"type":"Point","coordinates":[136.59425,34.9014306]},"properties":{"id":221801012,"name":"高岡水位観測所","name_kana":"","ofc_cd":85,"sys_id":2,"sys_cam_id":"24010017","pause":0,"date_type":0,"cam_kind":2,"own_cd":21801}},{"type":"Feature","geometry":{"type":"Point","coordinates":[136.4891694,34.8513806]},"properties":{"id":221801027,"name":"菅内排水ひ門","name_kana":"","ofc_cd":85,"sys_id":2,"sys_cam_id":"24010032","pause":0,"date_type":0,"cam_kind":2,"own_cd":21801}},{"type":"Feature","geometry":{"type":"Point","coordinates":[136.5039806,34.8669]},"properties":{"id":221801028,"name":"平和橋","name_kana":"","ofc_cd":85,"sys_id":2,"sys_cam_id":"24010033","pause":0,"date_type":0,"cam_kind":2,"own_cd":21801}},{"type":"Feature","geometry":{"type":"Point","coordinates":[136.5136889,34.8722194]},"properties":{"id":221801029,"name":"安楽川合流点","name_kana":"","ofc_cd":85,"sys_id":2,"sys_cam_id":"24010034","pause":0,"date_type":0,"cam_kind":2,"own_cd":21801}},{"type":"Feature","geometry":{"type":"Point","coordinates":[136.5369694,34.8867111]},"properties":{"id":221801030,"name":"鈴鹿市河川防災ステーション","name_kana":"","ofc_cd":85,"sys_id":2,"sys_cam_id":"24010035","pause":0,"date_type":0,"cam_kind":2,"own_cd":21801}},{"type":"Feature","geometry":{"type":"Point","coordinates":[136.5434111,34.8901306]},"properties":{"id":221801031,"name":"定五郎橋","name_kana":"","ofc_cd":85,"sys_id":2,"sys_cam_id":"24010036","pause":0,"date_type":0,"cam_kind":2,"own_cd":21801}},{"type":"Feature","geometry":{"type":"Point","coordinates":[136.5602389,34.8931306]},"properties":{"id":221801032,"name":"鈴鹿市甲斐","name_kana":"","ofc_cd":85,"sys_id":2,"sys_cam_id":"24010037","pause":0,"date_type":0,"cam_kind":2,"own_cd":21801}},{"type":"Feature","geometry":{"type":"Point","coordinates":[136.078447,34.593454]},"properties":{"id":106145045,"name":"滝川(風呂屋橋上流側)","name_kana":"たきがわ(ふろやばしじょうりゅうがわ)","ofc_cd":86,"sys_id":1,"sys_cam_id":"6145045","pause":0,"date_type":1,"cam_kind":4,"own_cd":6145}},{"type":"Feature","geometry":{"type":"Point","coordinates":[136.119002,34.63737]},"properties":{"id":106145070,"name":"シャックリ川(国道165号上流側)","name_kana":"しゃっくりがわ(こくどう165ごうじょうりゅうがわ)","ofc_cd":86,"sys_id":1,"sys_cam_id":"6145070","pause":0,"date_type":1,"cam_kind":4,"own_cd":6145}},{"type":"Feature","geometry":{"type":"Point","coordinates":[136.090502778,34.6185]},"properties":{"id":122107013,"name":"名張川 瀬古口","name_kana":"","ofc_cd":86,"sys_id":1,"sys_cam_id":"22107013","pause":0,"date_type":0,"cam_kind":4,"own_cd":22107}},{"type":"Feature","geometry":{"type":"Point","coordinates":[136.095272222,34.617722222]},"properties":{"id":122107014,"name":"名張川 夏見1","name_kana":"","ofc_cd":86,"sys_id":1,"sys_cam_id":"22107014","pause":0,"date_type":0,"cam_kind":4,"own_cd":22107}},{"type":"Feature","geometry":{"type":"Point","coordinates":[136.084547222,34.612833333]},"properties":{"id":122107015,"name":"宇陀川 箕曲中村１","name_kana":"","ofc_cd":86,"sys_id":1,"sys_cam_id":"22107015","pause":0,"date_type":0,"cam_kind":4,"own_cd":22107}},{"type":"Feature","geometry":{"type":"Point","coordinates":[136.08045277,34.6091083]},"properties":{"id":122107016,"name":"宇陀川 箕曲中村２","name_kana":"","ofc_cd":86,"sys_id":1,"sys_cam_id":"22107016","pause":0,"date_type":0,"cam_kind":4,"own_cd":22107}},{"type":"Feature","geometry":{"type":"Point","coordinates":[136.062158333,34.592613889]},"properties":{"id":122107018,"name":"宇陀川 安部田１","name_kana":"","ofc_cd":86,"sys_id":1,"sys_cam_id":"22107018","pause":0,"date_type":0,"cam_kind":4,"own_cd":22107}},{"type":"Feature","geometry":{"type":"Point","coordinates":[136.061316667,34.589947222]},"properties":{"id":122107019,"name":"宇陀川 安部田２","name_kana":"","ofc_cd":86,"sys_id":1,"sys_cam_id":"22107019","pause":0,"date_type":0,"cam_kind":4,"own_cd":22107}},{"type":"Feature","geometry":{"type":"Point","coordinates":[136.056519444,34.587469444]},"properties":{"id":122107020,"name":"宇陀川 阿清水橋1","name_kana":"","ofc_cd":86,"sys_id":1,"sys_cam_id":"22107020","pause":0,"date_type":0,"cam_kind":4,"own_cd":22107}},{"type":"Feature","geometry":{"type":"Point","coordinates":[136.101342,34.63654]},"properties":{"id":122107029,"name":"名張川　蔵持町","name_kana":"","ofc_cd":86,"sys_id":1,"sys_cam_id":"22107029","pause":0,"date_type":0,"cam_kind":4,"own_cd":22107}},{"type":"Feature","geometry":{"type":"Point","coordinates":[136.105747,34.618472]},"properties":{"id":122107030,"name":"名張川　夏見2","name_kana":"なばりがわ　なつみ２","ofc_cd":86,"sys_id":1,"sys_cam_id":"22107030","pause":0,"date_type":0,"cam_kind":4,"own_cd":22107}},{"type":"Feature","geometry":{"type":"Point","coordinates":[136.062777,34.595245]},"properties":{"id":122107031,"name":"宇陀川　安部田3","name_kana":"","ofc_cd":86,"sys_id":1,"sys_cam_id":"22107031","pause":0,"date_type":0,"cam_kind":4,"own_cd":22107}},{"type":"Feature","geometry":{"type":"Point","coordinates":[136.062761,34.595073]},"properties":{"id":122107032,"name":"宇陀川　矢川","name_kana":"","ofc_cd":86,"sys_id":1,"sys_cam_id":"22107032","pause":0,"date_type":0,"cam_kind":4,"own_cd":22107}},{"type":"Feature","geometry":{"type":"Point","coordinates":[136.056437,34.5874626]},"properties":{"id":122107033,"name":"宇陀川　阿清水橋2","name_kana":"","ofc_cd":86,"sys_id":1,"sys_cam_id":"22107033","pause":0,"date_type":0,"cam_kind":4,"own_cd":22107}},{"type":"Feature","geometry":{"type":"Point","coordinates":[136.120916667,34.604916667]},"properties":{"id":219602001,"name":"管理所屋上","name_kana":"","ofc_cd":76,"sys_id":2,"sys_cam_id":"19602001","pause":0,"date_type":0,"cam_kind":2,"own_cd":19602}},{"type":"Feature","geometry":{"type":"Point","coordinates":[136.119638889,34.605083333]},"properties":{"id":219602002,"name":"ダム下流","name_kana":"","ofc_cd":76,"sys_id":2,"sys_cam_id":"19602002","pause":0,"date_type":0,"cam_kind":2,"own_cd":19602}},{"type":"Feature","geometry":{"type":"Point","coordinates":[136.155972222,34.615916667]},"properties":{"id":219605001,"name":"ダム軸","name_kana":"","ofc_cd":76,"sys_id":2,"sys_cam_id":"19605001","pause":0,"date_type":0,"cam_kind":2,"own_cd":19605}},{"type":"Feature","geometry":{"type":"Point","coordinates":[136.15375,34.614277778]},"properties":{"id":219605002,"name":"ダム右岸下流","name_kana":"","ofc_cd":76,"sys_id":2,"sys_cam_id":"19605002","pause":0,"date_type":0,"cam_kind":2,"own_cd":19605}},{"type":"Feature","geometry":{"type":"Point","coordinates":[136.081455556,34.618772222]},"properties":{"id":222107002,"name":"名張大橋","name_kana":"","ofc_cd":86,"sys_id":2,"sys_cam_id":"22107002","pause":0,"date_type":0,"cam_kind":2,"own_cd":22107}},{"type":"Feature","geometry":{"type":"Point","coordinates":[136.081836111,34.609975]},"properties":{"id":222107003,"name":"錦滝橋","name_kana":"","ofc_cd":86,"sys_id":2,"sys_cam_id":"22107003","pause":0,"date_type":0,"cam_kind":2,"own_cd":22107}},{"type":"Feature","geometry":{"type":"Point","coordinates":[136.070041667,34.651866667]},"properties":{"id":222107012,"name":"家野","name_kana":"","ofc_cd":86,"sys_id":2,"sys_cam_id":"22107012","pause":0,"date_type":0,"cam_kind":2,"own_cd":22107}},{"type":"Feature","geometry":{"type":"Point","coordinates":[136.0826444,34.6515556]},"properties":{"id":222107013,"name":"薦生","name_kana":"","ofc_cd":86,"sys_id":2,"sys_cam_id":"22107013","pause":0,"date_type":0,"cam_kind":2,"own_cd":22107}},{"type":"Feature","geometry":{"type":"Point","coordinates":[136.101691667,34.634038889]},"properties":{"id":222107014,"name":"名張防災ＳＴ","name_kana":"","ofc_cd":86,"sys_id":2,"sys_cam_id":"22107014","pause":0,"date_type":0,"cam_kind":2,"own_cd":22107}},{"type":"Feature","geometry":{"type":"Point","coordinates":[136.092291667,34.629475]},"properties":{"id":222107015,"name":"大屋戸橋","name_kana":"","ofc_cd":86,"sys_id":2,"sys_cam_id":"22107015","pause":0,"date_type":0,"cam_kind":2,"own_cd":22107}},{"type":"Feature","geometry":{"type":"Point","coordinates":[136.085908333,34.622930556]},"properties":{"id":222107016,"name":"事務所鉄塔","name_kana":"","ofc_cd":86,"sys_id":2,"sys_cam_id":"22107016","pause":0,"date_type":0,"cam_kind":2,"own_cd":22107}},{"type":"Feature","geometry":{"type":"Point","coordinates":[136.083913889,34.61775]},"properties":{"id":222107017,"name":"新町橋","name_kana":"","ofc_cd":86,"sys_id":2,"sys_cam_id":"22107017","pause":0,"date_type":0,"cam_kind":2,"own_cd":22107}},{"type":"Feature","geometry":{"type":"Point","coordinates":[136.098344444,34.617616667]},"properties":{"id":222107018,"name":"沖津藻大橋","name_kana":"","ofc_cd":86,"sys_id":2,"sys_cam_id":"22107018","pause":0,"date_type":0,"cam_kind":2,"own_cd":22107}},{"type":"Feature","geometry":{"type":"Point","coordinates":[136.103588889,34.618888889]},"properties":{"id":222107019,"name":"新夏見橋","name_kana":"","ofc_cd":86,"sys_id":2,"sys_cam_id":"22107019","pause":0,"date_type":0,"cam_kind":2,"own_cd":22107}},{"type":"Feature","geometry":{"type":"Point","coordinates":[136.192335,34.065822]},"properties":{"id":106145053,"name":"中川(新中川橋)","name_kana":"なかがわ(しんなかがわはし)","ofc_cd":85,"sys_id":1,"sys_cam_id":"6145053","pause":0,"date_type":1,"cam_kind":4,"own_cd":6145}},{"type":"Feature","geometry":{"type":"Point","coordinates":[136.178852,33.974546]},"properties":{"id":106145064,"name":"古川(銀杏)","name_kana":"ふるかわ(いちょう)","ofc_cd":85,"sys_id":1,"sys_cam_id":"6145064","pause":0,"date_type":1,"cam_kind":4,"own_cd":6145}},{"type":"Feature","geometry":{"type":"Point","coordinates":[136.197114,34.076248]},"properties":{"id":106145065,"name":"北川(北川橋)","name_kana":"きたがわ(きたがわばし)","ofc_cd":85,"sys_id":1,"sys_cam_id":"6145065","pause":0,"date_type":1,"cam_kind":4,"own_cd":6145}},{"type":"Feature","geometry":{"type":"Point","coordinates":[136.2069667,33.9979403]},"properties":{"id":106145073,"name":"八十川(八十川橋上流側)","name_kana":"やそがわ(やそがわばしじょうりゅうがわ)","ofc_cd":85,"sys_id":1,"sys_cam_id":"6145073","pause":0,"date_type":1,"cam_kind":4,"own_cd":6145}},{"type":"Feature","geometry":{"type":"Point","coordinates":[136.4679444,34.8648611]},"properties":{"id":106145015,"name":"椋川(下椿世橋)","name_kana":"むくがわ(しもつばいそばし)","ofc_cd":85,"sys_id":1,"sys_cam_id":"6145015","pause":0,"date_type":1,"cam_kind":4,"own_cd":6145}},{"type":"Feature","geometry":{"type":"Point","coordinates":[136.464414,34.848851]},"properties":{"id":121801043,"name":"鈴鹿川　左岸　20.8km+45.0m","name_kana":"","ofc_cd":85,"sys_id":1,"sys_cam_id":"21801043","pause":0,"date_type":2,"cam_kind":4,"own_cd":21801}},{"type":"Feature","geometry":{"type":"Point","coordinates":[136.45045,34.8485]},"properties":{"id":121801044,"name":"鈴鹿川　左岸　22.2km-59.0m","name_kana":"","ofc_cd":85,"sys_id":1,"sys_cam_id":"21801044","pause":0,"date_type":2,"cam_kind":4,"own_cd":21801}},{"type":"Feature","geometry":{"type":"Point","coordinates":[136.426,34.855361]},"properties":{"id":121801045,"name":"鈴鹿川　左岸　24.6km-78.6m","name_kana":"","ofc_cd":85,"sys_id":1,"sys_cam_id":"21801045","pause":0,"date_type":2,"cam_kind":4,"own_cd":21801}},{"type":"Feature","geometry":{"type":"Point","coordinates":[136.493119,34.878663]},"properties":{"id":121801053,"name":"安楽川　右岸　2.0km-11.1m","name_kana":"","ofc_cd":85,"sys_id":1,"sys_cam_id":"21801053","pause":0,"date_type":2,"cam_kind":4,"own_cd":21801}},{"type":"Feature","geometry":{"type":"Point","coordinates":[136.4432806,34.8490194]},"properties":{"id":221801009,"name":"亀山水位観測所","name_kana":"","ofc_cd":85,"sys_id":2,"sys_cam_id":"24010013","pause":0,"date_type":0,"cam_kind":2,"own_cd":21801}},{"type":"Feature","geometry":{"type":"Point","coordinates":[136.4842111,34.8827194]},"properties":{"id":221801010,"name":"川崎水位観測所","name_kana":"","ofc_cd":85,"sys_id":2,"sys_cam_id":"24010014","pause":0,"date_type":0,"cam_kind":2,"own_cd":21801}},{"type":"Feature","geometry":{"type":"Point","coordinates":[136.4647111,34.8469694]},"properties":{"id":221801025,"name":"鹿島橋","name_kana":"","ofc_cd":85,"sys_id":2,"sys_cam_id":"24010030","pause":0,"date_type":0,"cam_kind":2,"own_cd":21801}},{"type":"Feature","geometry":{"type":"Point","coordinates":[136.47665,34.8504111]},"properties":{"id":221801026,"name":"亀山大橋","name_kana":"","ofc_cd":85,"sys_id":2,"sys_cam_id":"24010031","pause":0,"date_type":0,"cam_kind":2,"own_cd":21801}},{"type":"Feature","geometry":{"type":"Point","coordinates":[136.8416111,34.4574177]},"properties":{"id":106145035,"name":"加茂川(浜橋上流側)","name_kana":"かもがわ(はまばしじょうりゅうがわ)","ofc_cd":85,"sys_id":1,"sys_cam_id":"6145035","pause":0,"date_type":1,"cam_kind":4,"own_cd":6145}},{"type":"Feature","geometry":{"type":"Point","coordinates":[136.843342,34.447173]},"properties":{"id":106145059,"name":"鳥羽河内川(田城橋上流側)","name_kana":"とばこうちがわ(たじょうばしじょうりゅうがわ)","ofc_cd":85,"sys_id":1,"sys_cam_id":"6145059","pause":0,"date_type":2,"cam_kind":4,"own_cd":6145}},{"type":"Feature","geometry":{"type":"Point","coordinates":[136.0707788,33.8565833]},"properties":{"id":106145042,"name":"産田川(大前池)","name_kana":"うぶたがわ(おおまえいけ)","ofc_cd":85,"sys_id":1,"sys_cam_id":"6145042","pause":0,"date_type":1,"cam_kind":4,"own_cd":6145}},{"type":"Feature","geometry":{"type":"Point","coordinates":[135.9269177,33.8774722]},"properties":{"id":106145043,"name":"板屋川(矢倉川合流点)","name_kana":"いたやがわ(やぐらがわごうりゅうてん)","ofc_cd":86,"sys_id":1,"sys_cam_id":"6145043","pause":0,"date_type":1,"cam_kind":4,"own_cd":6145}},{"type":"Feature","geometry":{"type":"Point","coordinates":[136.09565,33.88878]},"properties":{"id":106145057,"name":"井戸川(井戸川橋下流側)","name_kana":"いどがわ(いどがわばしかりゅうがわ)","ofc_cd":85,"sys_id":1,"sys_cam_id":"6145057","pause":0,"date_type":1,"cam_kind":4,"own_cd":6145}},{"type":"Feature","geometry":{"type":"Point","coordinates":[136.1058219,33.8939492]},"properties":{"id":106145084,"name":"西郷川(蛍橋下流側)","name_kana":"にしごがわ(ほたるばしかりゅうがわ)","ofc_cd":85,"sys_id":1,"sys_cam_id":"6145084","pause":0,"date_type":1,"cam_kind":4,"own_cd":6145}},{"type":"Feature","geometry":{"type":"Point","coordinates":[136.5177222,35.1446111]},"properties":{"id":106145005,"name":"員弁川 阿下喜(員弁川橋)","name_kana":"いなべがわ あげき(いなべがわばし)","ofc_cd":85,"sys_id":1,"sys_cam_id":"6145005","pause":0,"date_type":1,"cam_kind":4,"own_cd":6145}},{"type":"Feature","geometry":{"type":"Point","coordinates":[136.557436,35.075796]},"properties":{"id":106145060,"name":"養父川(宮川橋下流側)","name_kana":"やぶがわ(みやがわばしかりゅうがわ)","ofc_cd":85,"sys_id":1,"sys_cam_id":"6145060","pause":0,"date_type":2,"cam_kind":4,"own_cd":6145}},{"type":"Feature","geometry":{"type":"Point","coordinates":[136.500989,35.16192]},"properties":{"id":106145075,"name":"真名川(藤原橋下流側)","name_kana":"さながわ(ふじわらばしかりゅうがわ)","ofc_cd":85,"sys_id":1,"sys_cam_id":"6145075","pause":0,"date_type":2,"cam_kind":4,"own_cd":6145}},{"type":"Feature","geometry":{"type":"Point","coordinates":[136.81191,34.37065]},"properties":{"id":106145046,"name":"前川(稲葉橋下流側)","name_kana":"まえかわ(いなばばしかりゅうがわ)","ofc_cd":85,"sys_id":1,"sys_cam_id":"6145046","pause":0,"date_type":2,"cam_kind":4,"own_cd":6145}},{"type":"Feature","geometry":{"type":"Point","coordinates":[136.1680833,34.8056399]},"properties":{"id":106145036,"name":"柘植川(佐那具橋上流側)","name_kana":"つげがわ(さなぐばしじょうりゅうがわ)","ofc_cd":86,"sys_id":1,"sys_cam_id":"6145036","pause":0,"date_type":1,"cam_kind":4,"own_cd":6145}},{"type":"Feature","geometry":{"type":"Point","coordinates":[136.160277778,34.774166667]},"properties":{"id":106145037,"name":"服部川 荒木(下流側)","name_kana":"はっとりがわ あらき(かりゅうがわ)","ofc_cd":86,"sys_id":1,"sys_cam_id":"6145037","pause":0,"date_type":1,"cam_kind":4,"own_cd":6145}},{"type":"Feature","geometry":{"type":"Point","coordinates":[136.1563333,34.6753066]},"properties":{"id":106145038,"name":"木津川(比土橋上流側)","name_kana":"きづがわ(ひどばしじょうりゅうがわ)","ofc_cd":86,"sys_id":1,"sys_cam_id":"6145038","pause":0,"date_type":1,"cam_kind":4,"own_cd":6145}},{"type":"Feature","geometry":{"type":"Point","coordinates":[136.16496,34.662151]},"properties":{"id":106145052,"name":"木津川(前深瀬川合流点)","name_kana":"きづがわ(まえふかせがわごうりゅうてん)","ofc_cd":86,"sys_id":1,"sys_cam_id":"6145052","pause":0,"date_type":1,"cam_kind":4,"own_cd":6145}},{"type":"Feature","geometry":{"type":"Point","coordinates":[136.145035,34.753068]},"properties":{"id":106145069,"name":"久米川(町田橋下流側)","name_kana":"くめがわ(まちだばしかりゅうがわ)","ofc_cd":86,"sys_id":1,"sys_cam_id":"6145069","pause":0,"date_type":1,"cam_kind":4,"own_cd":6145}},{"type":"Feature","geometry":{"type":"Point","coordinates":[136.176503,34.827411]},"properties":{"id":106145077,"name":"河合川(高松橋下流側)","name_kana":"かわいがわ(たかまつばしかりゅうがわ)","ofc_cd":86,"sys_id":1,"sys_cam_id":"6145077","pause":0,"date_type":1,"cam_kind":4,"own_cd":6145}},{"type":"Feature","geometry":{"type":"Point","coordinates":[136.19266,34.77594]},"properties":{"id":106145078,"name":"服部川(真泥橋下流側)","name_kana":"はっとりがわ(みどろばしかりゅうがわ)","ofc_cd":86,"sys_id":1,"sys_cam_id":"6145078","pause":0,"date_type":1,"cam_kind":4,"own_cd":6145}},{"type":"Feature","geometry":{"type":"Point","coordinates":[136.088147222,34.779938889]},"properties":{"id":122107003,"name":"木津川 西高倉１","name_kana":"","ofc_cd":86,"sys_id":1,"sys_cam_id":"22107003","pause":0,"date_type":0,"cam_kind":4,"own_cd":22107}},{"type":"Feature","geometry":{"type":"Point","coordinates":[136.128891667,34.782891667]},"properties":{"id":122107006,"name":"服部川 三田１","name_kana":"","ofc_cd":86,"sys_id":1,"sys_cam_id":"22107006","pause":0,"date_type":0,"cam_kind":4,"own_cd":22107}},{"type":"Feature","geometry":{"type":"Point","coordinates":[136.136027778,34.786641667]},"properties":{"id":122107008,"name":"柘植川 三田３","name_kana":"","ofc_cd":86,"sys_id":1,"sys_cam_id":"22107008","pause":0,"date_type":0,"cam_kind":4,"own_cd":22107}},{"type":"Feature","geometry":{"type":"Point","coordinates":[136.057515,34.767588]},"properties":{"id":122107026,"name":"木津川　島ヶ原","name_kana":"","ofc_cd":86,"sys_id":1,"sys_cam_id":"22107026","pause":0,"date_type":0,"cam_kind":4,"own_cd":22107}},{"type":"Feature","geometry":{"type":"Point","coordinates":[136.120695,34.777396]},"properties":{"id":122107027,"name":"木津川　小田遊水地　小田町","name_kana":"","ofc_cd":86,"sys_id":1,"sys_cam_id":"22107027","pause":0,"date_type":0,"cam_kind":4,"own_cd":22107}},{"type":"Feature","geometry":{"type":"Point","coordinates":[136.16268055,34.66188888]},"properties":{"id":219606001,"name":"新羽根橋","name_kana":"しんはねばし","ofc_cd":76,"sys_id":2,"sys_cam_id":"19606001","pause":0,"date_type":0,"cam_kind":2,"own_cd":19606}},{"type":"Feature","geometry":{"type":"Point","coordinates":[136.15694444,34.66916666]},"properties":{"id":219606002,"name":"高瀬橋","name_kana":"たかせばし","ofc_cd":76,"sys_id":2,"sys_cam_id":"19606002","pause":0,"date_type":0,"cam_kind":2,"own_cd":19606}},{"type":"Feature","geometry":{"type":"Point","coordinates":[136.15640277,34.67520833]},"properties":{"id":219606003,"name":"比土橋","name_kana":"ひどばし","ofc_cd":76,"sys_id":2,"sys_cam_id":"19606003","pause":0,"date_type":0,"cam_kind":2,"own_cd":19606}},{"type":"Feature","geometry":{"type":"Point","coordinates":[136.186944444,34.657222222]},"properties":{"id":219606007,"name":"管理所鉄塔","name_kana":"","ofc_cd":76,"sys_id":2,"sys_cam_id":"19606004","pause":0,"date_type":0,"cam_kind":2,"own_cd":19606}},{"type":"Feature","geometry":{"type":"Point","coordinates":[136.186388889,34.656388889]},"properties":{"id":219606008,"name":"減勢工右岸","name_kana":"","ofc_cd":76,"sys_id":2,"sys_cam_id":"19606005","pause":0,"date_type":0,"cam_kind":2,"own_cd":19606}},{"type":"Feature","geometry":{"type":"Point","coordinates":[136.101980556,34.779655556]},"properties":{"id":222107001,"name":"岩倉排水樋門（全景）","name_kana":"","ofc_cd":86,"sys_id":2,"sys_cam_id":"22107001","pause":0,"date_type":0,"cam_kind":2,"own_cd":22107}},{"type":"Feature","geometry":{"type":"Point","coordinates":[136.135111111,34.788572222]},"properties":{"id":222107006,"name":"柘植","name_kana":"","ofc_cd":86,"sys_id":2,"sys_cam_id":"22107006","pause":0,"date_type":0,"cam_kind":2,"own_cd":22107}},{"type":"Feature","geometry":{"type":"Point","coordinates":[136.1135,34.781805556]},"properties":{"id":222107007,"name":"大坪排水樋門（全景）","name_kana":"","ofc_cd":86,"sys_id":2,"sys_cam_id":"22107007","pause":0,"date_type":0,"cam_kind":2,"own_cd":22107}},{"type":"Feature","geometry":{"type":"Point","coordinates":[136.123630556,34.785213889]},"properties":{"id":222107008,"name":"伊賀上野橋","name_kana":"","ofc_cd":86,"sys_id":2,"sys_cam_id":"22107008","pause":0,"date_type":0,"cam_kind":2,"own_cd":22107}},{"type":"Feature","geometry":{"type":"Point","coordinates":[136.131102778,34.777927778]},"properties":{"id":222107009,"name":"新服部橋下流","name_kana":"","ofc_cd":86,"sys_id":2,"sys_cam_id":"22107009","pause":0,"date_type":0,"cam_kind":2,"own_cd":22107}},{"type":"Feature","geometry":{"type":"Point","coordinates":[136.136858333,34.775908333]},"properties":{"id":222107010,"name":"服部橋下流","name_kana":"","ofc_cd":86,"sys_id":2,"sys_cam_id":"22107010","pause":0,"date_type":0,"cam_kind":2,"own_cd":22107}},{"type":"Feature","geometry":{"type":"Point","coordinates":[136.059052778,34.768805556]},"properties":{"id":222107024,"name":"島ヶ原大橋上流","name_kana":"","ofc_cd":86,"sys_id":2,"sys_cam_id":"22107024","pause":0,"date_type":0,"cam_kind":2,"own_cd":22107}},{"type":"Feature","geometry":{"type":"Point","coordinates":[136.105908333,34.777866667]},"properties":{"id":222107025,"name":"平野川排水樋門（全景）","name_kana":"","ofc_cd":86,"sys_id":2,"sys_cam_id":"22107025","pause":0,"date_type":0,"cam_kind":2,"own_cd":22107}},{"type":"Feature","geometry":{"type":"Point","coordinates":[136.110841667,34.769061111]},"properties":{"id":222107026,"name":"市場","name_kana":"","ofc_cd":86,"sys_id":2,"sys_cam_id":"22107026","pause":0,"date_type":0,"cam_kind":2,"own_cd":22107}},{"type":"Feature","geometry":{"type":"Point","coordinates":[136.112602778,34.763580556]},"properties":{"id":222107027,"name":"長田排水門（全景）","name_kana":"","ofc_cd":86,"sys_id":2,"sys_cam_id":"22107027","pause":0,"date_type":0,"cam_kind":2,"own_cd":22107}},{"type":"Feature","geometry":{"type":"Point","coordinates":[136.113877778,34.765755556]},"properties":{"id":222107028,"name":"木興排水門（全景）","name_kana":"","ofc_cd":86,"sys_id":2,"sys_cam_id":"22107028","pause":0,"date_type":0,"cam_kind":2,"own_cd":22107}},{"type":"Feature","geometry":{"type":"Point","coordinates":[136.115305556,34.758344444]},"properties":{"id":222107029,"name":"木興","name_kana":"","ofc_cd":86,"sys_id":2,"sys_cam_id":"22107029","pause":0,"date_type":0,"cam_kind":2,"own_cd":22107}},{"type":"Feature","geometry":{"type":"Point","coordinates":[136.118772222,34.755841667]},"properties":{"id":222107030,"name":"八幡排水樋門（全景）","name_kana":"","ofc_cd":86,"sys_id":2,"sys_cam_id":"22107030","pause":0,"date_type":0,"cam_kind":2,"own_cd":22107}},{"type":"Feature","geometry":{"type":"Point","coordinates":[136.116305556,34.747138889]},"properties":{"id":222107031,"name":"大野木","name_kana":"","ofc_cd":86,"sys_id":2,"sys_cam_id":"22107031","pause":0,"date_type":0,"cam_kind":2,"own_cd":22107}},{"type":"Feature","geometry":{"type":"Point","coordinates":[136.6001944,35.0602222]},"properties":{"id":106145006,"name":"員弁川(念仏大橋)","name_kana":"いなべがわ(ねんぶつおおはし)","ofc_cd":85,"sys_id":1,"sys_cam_id":"6145006","pause":0,"date_type":1,"cam_kind":4,"own_cd":6145}},{"type":"Feature","geometry":{"type":"Point","coordinates":[136.579049,35.060514]},"properties":{"id":106145050,"name":"三孤子川(振子橋上流側)","name_kana":"さごじがわ(ふりこばしじょうりゅうがわ)","ofc_cd":85,"sys_id":1,"sys_cam_id":"6145050","pause":0,"date_type":2,"cam_kind":4,"own_cd":6145}},{"type":"Feature","geometry":{"type":"Point","coordinates":[136.589922,35.08555]},"properties":{"id":106145051,"name":"藤川(東之内下橋下流側)","name_kana":"ふじかわ(ひがしのうちしもばしかりゅうがわ)","ofc_cd":85,"sys_id":1,"sys_cam_id":"6145051","pause":0,"date_type":2,"cam_kind":4,"own_cd":6145}},{"type":"Feature","geometry":{"type":"Point","coordinates":[136.4918155,35.0325533]},"properties":{"id":106145055,"name":"海蔵川(向城橋)","name_kana":"かいぞうかわ(むかいじょはし)","ofc_cd":85,"sys_id":1,"sys_cam_id":"6145055","pause":0,"date_type":1,"cam_kind":4,"own_cd":6145}},{"type":"Feature","geometry":{"type":"Point","coordinates":[136.6543333,35.0260833]},"properties":{"id":106145010,"name":"朝明川(朝明橋)","name_kana":"あさけかわ(あさけはし)","ofc_cd":85,"sys_id":1,"sys_cam_id":"6145010","pause":0,"date_type":1,"cam_kind":4,"own_cd":6145}},{"type":"Feature","geometry":{"type":"Point","coordinates":[136.6753611,35.0173899]},"properties":{"id":106145011,"name":"朝明川(福崎橋)","name_kana":"あさけかわ(ふくさきはし)","ofc_cd":85,"sys_id":1,"sys_cam_id":"6145011","pause":0,"date_type":1,"cam_kind":4,"own_cd":6145}},{"type":"Feature","geometry":{"type":"Point","coordinates":[136.463272,34.463909]},"properties":{"id":106145086,"name":"櫛田川(勢和大橋下流側)","name_kana":"くしだがわ(せいわおおはしかりゅうがわ)","ofc_cd":85,"sys_id":1,"sys_cam_id":"6145086","pause":0,"date_type":2,"cam_kind":4,"own_cd":6145}},{"type":"Feature","geometry":{"type":"Point","coordinates":[136.549917,34.510972]},"properties":{"id":121801067,"name":"櫛田川　右岸　13.2km-1.0m","name_kana":"","ofc_cd":85,"sys_id":1,"sys_cam_id":"21801067","pause":0,"date_type":2,"cam_kind":4,"own_cd":21801}},{"type":"Feature","geometry":{"type":"Point","coordinates":[136.520056,34.505889]},"properties":{"id":121801069,"name":"櫛田川　右岸　16.2km+66.8m","name_kana":"","ofc_cd":85,"sys_id":1,"sys_cam_id":"21801069","pause":0,"date_type":2,"cam_kind":4,"own_cd":21801}},{"type":"Feature","geometry":{"type":"Point","coordinates":[136.500461,34.499444]},"properties":{"id":121801070,"name":"櫛田川　右岸　18.2km+1.5m","name_kana":"","ofc_cd":85,"sys_id":1,"sys_cam_id":"21801070","pause":0,"date_type":2,"cam_kind":4,"own_cd":21801}},{"type":"Feature","geometry":{"type":"Point","coordinates":[136.500861,34.499444]},"properties":{"id":121801071,"name":"櫛田川　右岸　18.2km+1.5m（左岸監視）","name_kana":"","ofc_cd":85,"sys_id":1,"sys_cam_id":"21801071","pause":0,"date_type":2,"cam_kind":4,"own_cd":21801}},{"type":"Feature","geometry":{"type":"Point","coordinates":[136.550667,34.482389]},"properties":{"id":121801072,"name":"佐奈川　左岸　5.0km-94.6m","name_kana":"","ofc_cd":85,"sys_id":1,"sys_cam_id":"21801072","pause":0,"date_type":1,"cam_kind":4,"own_cd":21801}},{"type":"Feature","geometry":{"type":"Point","coordinates":[136.5402806,34.5055389]},"properties":{"id":221801013,"name":"両郡水位観測所","name_kana":"","ofc_cd":85,"sys_id":2,"sys_cam_id":"24010018","pause":0,"date_type":0,"cam_kind":2,"own_cd":21801}},{"type":"Feature","geometry":{"type":"Point","coordinates":[136.5553111,34.4889194]},"properties":{"id":221801014,"name":"西山橋水位観測所","name_kana":"","ofc_cd":85,"sys_id":2,"sys_cam_id":"24010019","pause":0,"date_type":0,"cam_kind":2,"own_cd":21801}},{"type":"Feature","geometry":{"type":"Point","coordinates":[136.5567889,34.4961306]},"properties":{"id":221801080,"name":"大峯橋","name_kana":"","ofc_cd":85,"sys_id":2,"sys_cam_id":"24010085","pause":0,"date_type":0,"cam_kind":2,"own_cd":21801}},{"type":"Feature","geometry":{"type":"Point","coordinates":[136.5624806,34.5067889]},"properties":{"id":221801081,"name":"池上橋","name_kana":"","ofc_cd":85,"sys_id":2,"sys_cam_id":"24010086","pause":0,"date_type":0,"cam_kind":2,"own_cd":21801}},{"type":"Feature","geometry":{"type":"Point","coordinates":[136.5643694,34.5113]},"properties":{"id":221801082,"name":"新橋","name_kana":"","ofc_cd":85,"sys_id":2,"sys_cam_id":"24010087","pause":0,"date_type":0,"cam_kind":2,"own_cd":21801}},{"type":"Feature","geometry":{"type":"Point","coordinates":[136.6402222,34.5640566]},"properties":{"id":106145030,"name":"笹笛川 行部(笹笛川橋下流側)","name_kana":"ささぶえがわ ゆくべ(ささぶえがわばしかりゅうがわ)","ofc_cd":85,"sys_id":1,"sys_cam_id":"6145030","pause":0,"date_type":1,"cam_kind":4,"own_cd":6145}},{"type":"Feature","geometry":{"type":"Point","coordinates":[136.640167,34.573967]},"properties":{"id":106145048,"name":"笹笛川(根倉橋下流側)","name_kana":"ささぶえがわ(ねぐらばしかりゅうがわ)","ofc_cd":85,"sys_id":1,"sys_cam_id":"6145048","pause":0,"date_type":2,"cam_kind":4,"own_cd":6145}},{"type":"Feature","geometry":{"type":"Point","coordinates":[136.618697,34.567036]},"properties":{"id":106145080,"name":"祓川(新小藪橋下流側)","name_kana":"はらいがわ(しんこやぶばしかりゅうがわ)","ofc_cd":85,"sys_id":1,"sys_cam_id":"6145080","pause":0,"date_type":2,"cam_kind":4,"own_cd":6145}},{"type":"Feature","geometry":{"type":"Point","coordinates":[136.655111,34.465444]},"properties":{"id":121801076,"name":"宮川　左岸　11.4km-27.5m","name_kana":"","ofc_cd":85,"sys_id":1,"sys_cam_id":"21801076","pause":0,"date_type":2,"cam_kind":4,"own_cd":21801}},{"type":"Feature","geometry":{"type":"Point","coordinates":[136.656123,34.477591]},"properties":{"id":12401461001,"name":"汁谷川　小社曽根","name_kana":"","ofc_cd":85,"sys_id":1,"sys_cam_id":"2401461001","pause":0,"date_type":2,"cam_kind":4,"own_cd":2401461}},{"type":"Feature","geometry":{"type":"Point","coordinates":[136.631891,34.486769]},"properties":{"id":12401461002,"name":"外城田川　佐田","name_kana":"","ofc_cd":85,"sys_id":1,"sys_cam_id":"2401461002","pause":0,"date_type":2,"cam_kind":4,"own_cd":2401461}},{"type":"Feature","geometry":{"type":"Point","coordinates":[136.640334,34.49208]},"properties":{"id":12401461003,"name":"外城田川　妙法寺","name_kana":"","ofc_cd":85,"sys_id":1,"sys_cam_id":"2401461003","pause":0,"date_type":2,"cam_kind":4,"own_cd":2401461}},{"type":"Feature","geometry":{"type":"Point","coordinates":[136.620289,34.485851]},"properties":{"id":12401461004,"name":"三郷川　野篠","name_kana":"","ofc_cd":85,"sys_id":1,"sys_cam_id":"2401461004","pause":0,"date_type":2,"cam_kind":4,"own_cd":2401461}},{"type":"Feature","geometry":{"type":"Point","coordinates":[136.641433,34.503087]},"properties":{"id":12401461005,"name":"相合川　長更","name_kana":"","ofc_cd":85,"sys_id":1,"sys_cam_id":"2401461005","pause":0,"date_type":2,"cam_kind":4,"own_cd":2401461}},{"type":"Feature","geometry":{"type":"Point","coordinates":[136.65345,34.4640611]},"properties":{"id":221801083,"name":"岩出水位観測所","name_kana":"","ofc_cd":85,"sys_id":2,"sys_cam_id":"24010088","pause":0,"date_type":0,"cam_kind":2,"own_cd":21801}},{"type":"Feature","geometry":{"type":"Point","coordinates":[136.6256833,34.4313086]},"properties":{"id":106145002,"name":"宮川(内城田大橋)","name_kana":"みやがわ(うちきだおおはし)","ofc_cd":85,"sys_id":1,"sys_cam_id":"6145002","pause":0,"date_type":2,"cam_kind":4,"own_cd":6145}},{"type":"Feature","geometry":{"type":"Point","coordinates":[136.625713,34.425536]},"properties":{"id":12401470001,"name":"一之瀬川　川口","name_kana":"","ofc_cd":85,"sys_id":1,"sys_cam_id":"2401470001","pause":0,"date_type":2,"cam_kind":4,"own_cd":2401470}},{"type":"Feature","geometry":{"type":"Point","coordinates":[136.587199,34.432842]},"properties":{"id":12401470002,"name":"宮川支川河内谷川　立岡","name_kana":"","ofc_cd":85,"sys_id":1,"sys_cam_id":"2401470002","pause":0,"date_type":2,"cam_kind":4,"own_cd":2401470}},{"type":"Feature","geometry":{"type":"Point","coordinates":[136.612119,34.433553]},"properties":{"id":12401470003,"name":"宮川（久具都比売橋上流側）","name_kana":"","ofc_cd":85,"sys_id":1,"sys_cam_id":"2401470003","pause":0,"date_type":2,"cam_kind":4,"own_cd":2401470}},{"type":"Feature","geometry":{"type":"Point","coordinates":[136.3568899,34.2776111]},"properties":{"id":106145033,"name":"大内山川 細野(車瀬橋)","name_kana":"おおうちやまがわ ほその(くるまぜばし)","ofc_cd":85,"sys_id":1,"sys_cam_id":"6145033","pause":0,"date_type":1,"cam_kind":4,"own_cd":6145}},{"type":"Feature","geometry":{"type":"Point","coordinates":[136.22549,34.1171706]},"properties":{"id":106145003,"name":"船津川 前柱(船津川橋)","name_kana":"ふなつがわ まえばしら(ふなつがわはし)","ofc_cd":85,"sys_id":1,"sys_cam_id":"6145003","pause":0,"date_type":2,"cam_kind":4,"own_cd":6145}},{"type":"Feature","geometry":{"type":"Point","coordinates":[136.3185288,34.2199722]},"properties":{"id":106145039,"name":"赤羽川(松原橋)","name_kana":"あかばがわ(まつばらはし)","ofc_cd":85,"sys_id":1,"sys_cam_id":"6145039","pause":0,"date_type":1,"cam_kind":4,"own_cd":6145}},{"type":"Feature","geometry":{"type":"Point","coordinates":[136.23375,34.1063899]},"properties":{"id":106145040,"name":"船津川(河口部左岸)","name_kana":"ふなつがわ(かこうぶさがん)","ofc_cd":85,"sys_id":1,"sys_cam_id":"6145040","pause":0,"date_type":1,"cam_kind":4,"own_cd":6145}},{"type":"Feature","geometry":{"type":"Point","coordinates":[136.2100288,34.1051399]},"properties":{"id":106145041,"name":"銚子川(便ノ山橋)","name_kana":"ちょうしがわ(びんのやまはし)","ofc_cd":85,"sys_id":1,"sys_cam_id":"6145041","pause":0,"date_type":1,"cam_kind":4,"own_cd":6145}},{"type":"Feature","geometry":{"type":"Point","coordinates":[136.224048,34.138191]},"properties":{"id":106145063,"name":"船津川(上里)","name_kana":"ふなつがわ(かみざと)","ofc_cd":85,"sys_id":1,"sys_cam_id":"6145063","pause":0,"date_type":1,"cam_kind":4,"own_cd":6145}},{"type":"Feature","geometry":{"type":"Point","coordinates":[136.2164878,34.1252058]},"properties":{"id":106145072,"name":"内頭川(梅田橋)","name_kana":"うちがしらがわ(うめだばし)","ofc_cd":85,"sys_id":1,"sys_cam_id":"6145072","pause":0,"date_type":1,"cam_kind":4,"own_cd":6145}},{"type":"Feature","geometry":{"type":"Point","coordinates":[136.0102489,33.8181575]},"properties":{"id":106145085,"name":"尾呂志川(新中立橋上流側)","name_kana":"おろしがわ(しんなかだちばしじょうりゅうがわ)","ofc_cd":85,"sys_id":1,"sys_cam_id":"6145085","pause":0,"date_type":1,"cam_kind":4,"own_cd":6145}},{"type":"Feature","geometry":{"type":"Point","coordinates":[135.9498611,33.7318333]},"properties":{"id":106145044,"name":"熊野川(瀬原)","name_kana":"くまのがわ(せばら)","ofc_cd":86,"sys_id":1,"sys_cam_id":"6145044","pause":0,"date_type":1,"cam_kind":4,"own_cd":6145}},{"type":"Feature","geometry":{"type":"Point","coordinates":[136.007829,33.738623]},"properties":{"id":106145071,"name":"神内川(日高橋下流側)","name_kana":"こうのうちがわ(ひだかばしかりゅうがわ)","ofc_cd":85,"sys_id":1,"sys_cam_id":"6145071","pause":0,"date_type":1,"cam_kind":4,"own_cd":6145}},{"type":"Feature","geometry":{"type":"Point","coordinates":[135.973075,33.7288111]},"properties":{"id":122088002,"name":"熊野川 北檜杖","name_kana":"くまのがわ きたひづえ","ofc_cd":86,"sys_id":1,"sys_cam_id":"22088002","pause":0,"date_type":0,"cam_kind":4,"own_cd":22088}},{"type":"Feature","geometry":{"type":"Point","coordinates":[135.9819444,33.7338889]},"properties":{"id":222088001,"name":"相筋第3樋門","name_kana":"あいすじだい３ひもん","ofc_cd":86,"sys_id":2,"sys_cam_id":"22088103","pause":0,"date_type":0,"cam_kind":2,"own_cd":22088}},{"type":"Feature","geometry":{"type":"Point","coordinates":[135.979444444,33.763888889]},"properties":{"id":222088002,"name":"高岡橋上流左岸","name_kana":"たかおかばしじょうりゅうさがん","ofc_cd":86,"sys_id":2,"sys_cam_id":"22088104","pause":0,"date_type":0,"cam_kind":2,"own_cd":22088}},{"type":"Feature","geometry":{"type":"Point","coordinates":[136.0116667,33.7305556]},"properties":{"id":222088003,"name":"熊野川０．０左岸","name_kana":"くまのがわ０．０さがん","ofc_cd":86,"sys_id":2,"sys_cam_id":"22088105","pause":0,"date_type":0,"cam_kind":2,"own_cd":22088}},{"type":"Feature","geometry":{"type":"Point","coordinates":[136.0046417,33.732675]},"properties":{"id":222088004,"name":"熊野川０．８左岸","name_kana":"くまのがわ０．８さがん","ofc_cd":86,"sys_id":2,"sys_cam_id":"22088106","pause":0,"date_type":0,"cam_kind":2,"own_cd":22088}},{"type":"Feature","geometry":{"type":"Point","coordinates":[135.9961222,33.7346528]},"properties":{"id":222088006,"name":"熊野川１．６左岸","name_kana":"くまのがわ１．６さがん","ofc_cd":86,"sys_id":2,"sys_cam_id":"22088108","pause":0,"date_type":0,"cam_kind":2,"own_cd":22088}},{"type":"Feature","geometry":{"type":"Point","coordinates":[135.9805556,33.7384556]},"properties":{"id":222088023,"name":"相野谷川排水機場１","name_kana":"おのだにがわはいすいきじょう１","ofc_cd":86,"sys_id":2,"sys_cam_id":"22088125","pause":0,"date_type":0,"cam_kind":2,"own_cd":22088}},{"type":"Feature","geometry":{"type":"Point","coordinates":[135.9771944,33.7437222]},"properties":{"id":222088026,"name":"弁慶橋陸閘","name_kana":"べんけいばしりっこう","ofc_cd":86,"sys_id":2,"sys_cam_id":"22088128","pause":0,"date_type":0,"cam_kind":2,"own_cd":22088}},{"type":"Feature","geometry":{"type":"Point","coordinates":[135.9727139,33.7433056]},"properties":{"id":222088027,"name":"鮒田西陸閘","name_kana":"ふなだにしりっこう","ofc_cd":86,"sys_id":2,"sys_cam_id":"22088129","pause":0,"date_type":0,"cam_kind":2,"own_cd":22088}},{"type":"Feature","geometry":{"type":"Point","coordinates":[135.9741333,33.7507028]},"properties":{"id":222088028,"name":"相野谷川1.4左岸","name_kana":"おのだにがわ１．４さがん","ofc_cd":86,"sys_id":2,"sys_cam_id":"22088130","pause":0,"date_type":0,"cam_kind":2,"own_cd":22088}},{"type":"Feature","geometry":{"type":"Point","coordinates":[135.9727778,33.7572639]},"properties":{"id":222088029,"name":"相野谷川2.1右岸","name_kana":"おのだにがわ２．１うがん","ofc_cd":86,"sys_id":2,"sys_cam_id":"22088131","pause":0,"date_type":0,"cam_kind":2,"own_cd":22088}},{"type":"Feature","geometry":{"type":"Point","coordinates":[135.97455,33.7570694]},"properties":{"id":222088030,"name":"高岡第2陸閘","name_kana":"たかおかばしだい２りっこう","ofc_cd":86,"sys_id":2,"sys_cam_id":"22088132","pause":0,"date_type":0,"cam_kind":2,"own_cd":22088}},{"type":"Feature","geometry":{"type":"Point","coordinates":[135.9803333,33.7383333]},"properties":{"id":222088031,"name":"鮒田水門01","name_kana":"ふなだすいもん０１","ofc_cd":86,"sys_id":2,"sys_cam_id":"22088134","pause":0,"date_type":0,"cam_kind":2,"own_cd":22088}},{"type":"Feature","geometry":{"type":"Point","coordinates":[135.9794444,33.7383333]},"properties":{"id":222088032,"name":"鮒田水門02","name_kana":"ふなだすいもん０２","ofc_cd":86,"sys_id":2,"sys_cam_id":"22088135","pause":0,"date_type":0,"cam_kind":2,"own_cd":22088}},{"type":"Feature","geometry":{"type":"Point","coordinates":[135.9802778,33.7384]},"properties":{"id":222088033,"name":"鮒田水門03","name_kana":"ふなだすいもん０３","ofc_cd":86,"sys_id":2,"sys_cam_id":"22088136","pause":0,"date_type":0,"cam_kind":2,"own_cd":22088}},{"type":"Feature","geometry":{"type":"Point","coordinates":[135.9829167,33.7675556]},"properties":{"id":222088034,"name":"相野谷川3.6右岸","name_kana":"おのだにがわ３．６うがん","ofc_cd":86,"sys_id":2,"sys_cam_id":"22088137","pause":0,"date_type":0,"cam_kind":2,"own_cd":22088}},{"type":"Feature","geometry":{"type":"Point","coordinates":[135.9822,33.7714861]},"properties":{"id":222088035,"name":"大里陸閘","name_kana":"おおさとりっこう","ofc_cd":86,"sys_id":2,"sys_cam_id":"22088138","pause":0,"date_type":0,"cam_kind":2,"own_cd":22088}},{"type":"Feature","geometry":{"type":"Point","coordinates":[135.9852778,33.7747222]},"properties":{"id":222088036,"name":"大里第３樋門","name_kana":"おおさとりっこうだい３ひもん","ofc_cd":86,"sys_id":2,"sys_cam_id":"22088139","pause":0,"date_type":0,"cam_kind":2,"own_cd":22088}},{"type":"Feature","geometry":{"type":"Point","coordinates":[135.9856944,33.7751111]},"properties":{"id":222088037,"name":"大里第４樋門","name_kana":"おおさとりっこうだい４ひもん","ofc_cd":86,"sys_id":2,"sys_cam_id":"22088140","pause":0,"date_type":0,"cam_kind":2,"own_cd":22088}},{"type":"Feature","geometry":{"type":"Point","coordinates":[135.9896389,33.7769167]},"properties":{"id":222088038,"name":"相野谷川4.8右岸","name_kana":"おのだにがわ４．８うがん","ofc_cd":86,"sys_id":2,"sys_cam_id":"22088141","pause":0,"date_type":0,"cam_kind":2,"own_cd":22088}},{"type":"Feature","geometry":{"type":"Point","coordinates":[135.9866389,33.7804444]},"properties":{"id":222088039,"name":"相野谷川5.3左岸","name_kana":"おのだにがわ５．３さがん","ofc_cd":86,"sys_id":2,"sys_cam_id":"22088142","pause":0,"date_type":0,"cam_kind":2,"own_cd":22088}}]}