{"type":"FeatureCollection","crs":{"type":"name","properties":{"name":"EPSG:4326"}},"features":[{"type":"Feature","geometry":{"type":"Point","coordinates":[138.3322638,36.3607004]},"properties":{"id":105121176,"name":"夏目田橋","name_kana":"なつめだばし","ofc_cd":84,"sys_id":1,"sys_cam_id":"5121176","pause":0,"date_type":1,"cam_kind":4,"own_cd":5121}},{"type":"Feature","geometry":{"type":"Point","coordinates":[138.3256924,36.3529717]},"properties":{"id":105121177,"name":"田中橋","name_kana":"たなかばし","ofc_cd":84,"sys_id":1,"sys_cam_id":"5121177","pause":0,"date_type":1,"cam_kind":4,"own_cd":5121}},{"type":"Feature","geometry":{"type":"Point","coordinates":[138.3470218,36.3321689]},"properties":{"id":105121180,"name":"前田橋","name_kana":"まえだばし","ofc_cd":84,"sys_id":1,"sys_cam_id":"5121180","pause":0,"date_type":1,"cam_kind":4,"own_cd":5121}},{"type":"Feature","geometry":{"type":"Point","coordinates":[138.3514979,36.362037]},"properties":{"id":105121181,"name":"鞍掛橋","name_kana":"くらかけばし","ofc_cd":84,"sys_id":1,"sys_cam_id":"5121181","pause":0,"date_type":1,"cam_kind":4,"own_cd":5121}},{"type":"Feature","geometry":{"type":"Point","coordinates":[138.35057,36.339549]},"properties":{"id":105121226,"name":"東御市境橋","name_kana":"とうみしさかいばし","ofc_cd":84,"sys_id":1,"sys_cam_id":"5121226","pause":0,"date_type":1,"cam_kind":4,"own_cd":5121}},{"type":"Feature","geometry":{"type":"Point","coordinates":[138.317992,36.363146]},"properties":{"id":105121232,"name":"本海野","name_kana":"もとうんの","ofc_cd":84,"sys_id":1,"sys_cam_id":"5121232","pause":0,"date_type":1,"cam_kind":4,"own_cd":5121}}]}