{"type":"FeatureCollection","crs":{"type":"name","properties":{"name":"EPSG:4326"}},"features":[{"type":"Feature","geometry":{"type":"Point","coordinates":[134.6920694,34.8027]},"properties":{"id":107177005,"name":"植木","name_kana":"うえき","ofc_cd":86,"sys_id":1,"sys_cam_id":"7177005","pause":0,"date_type":2,"cam_kind":4,"own_cd":7177}},{"type":"Feature","geometry":{"type":"Point","coordinates":[134.6837459,34.9435817]},"properties":{"id":107177006,"name":"古知之庄","name_kana":"こちのしょう","ofc_cd":86,"sys_id":1,"sys_cam_id":"7177006","pause":0,"date_type":2,"cam_kind":4,"own_cd":7177}},{"type":"Feature","geometry":{"type":"Point","coordinates":[134.6666167,34.8737278]},"properties":{"id":107177007,"name":"書写","name_kana":"しょしゃ","ofc_cd":86,"sys_id":1,"sys_cam_id":"7177007","pause":0,"date_type":2,"cam_kind":4,"own_cd":7177}},{"type":"Feature","geometry":{"type":"Point","coordinates":[134.6379889,34.9377306]},"properties":{"id":107177008,"name":"護持","name_kana":"ごじ","ofc_cd":86,"sys_id":1,"sys_cam_id":"7177008","pause":0,"date_type":2,"cam_kind":4,"own_cd":7177}},{"type":"Feature","geometry":{"type":"Point","coordinates":[134.64225,34.8679111]},"properties":{"id":107177009,"name":"実法寺","name_kana":"じほうじ","ofc_cd":86,"sys_id":1,"sys_cam_id":"7177009","pause":0,"date_type":2,"cam_kind":4,"own_cd":7177}},{"type":"Feature","geometry":{"type":"Point","coordinates":[134.6425127,35.0113817]},"properties":{"id":107177010,"name":"山中","name_kana":"やまなか","ofc_cd":86,"sys_id":1,"sys_cam_id":"7177010","pause":0,"date_type":2,"cam_kind":4,"own_cd":7177}},{"type":"Feature","geometry":{"type":"Point","coordinates":[134.5950694,34.8219806]},"properties":{"id":107177011,"name":"勝原","name_kana":"かつはら","ofc_cd":86,"sys_id":1,"sys_cam_id":"7177011","pause":0,"date_type":2,"cam_kind":4,"own_cd":7177}},{"type":"Feature","geometry":{"type":"Point","coordinates":[134.5818111,34.9419694]},"properties":{"id":107177012,"name":"穴部","name_kana":"あなべ","ofc_cd":86,"sys_id":1,"sys_cam_id":"7177012","pause":0,"date_type":2,"cam_kind":4,"own_cd":7177}},{"type":"Feature","geometry":{"type":"Point","coordinates":[134.5738,34.7951806]},"properties":{"id":107177013,"name":"余部区","name_kana":"よべく","ofc_cd":86,"sys_id":1,"sys_cam_id":"7177013","pause":0,"date_type":2,"cam_kind":4,"own_cd":7177}},{"type":"Feature","geometry":{"type":"Point","coordinates":[134.7052694,34.8527611]},"properties":{"id":107177014,"name":"軍人橋","name_kana":"ぐんじんばし","ofc_cd":86,"sys_id":1,"sys_cam_id":"7177014","pause":0,"date_type":2,"cam_kind":4,"own_cd":7177}},{"type":"Feature","geometry":{"type":"Point","coordinates":[134.5965361,34.7999861]},"properties":{"id":107177016,"name":"大津茂川潮止水門上流","name_kana":"おおつもがわしおどめすいもんじょうりゅう","ofc_cd":86,"sys_id":1,"sys_cam_id":"7177016","pause":0,"date_type":2,"cam_kind":4,"own_cd":7177}},{"type":"Feature","geometry":{"type":"Point","coordinates":[134.5959806,34.79925]},"properties":{"id":107177017,"name":"大津茂川潮止水門下流","name_kana":"おおつもがわしおどめすいもんかりゅう","ofc_cd":86,"sys_id":1,"sys_cam_id":"7177017","pause":0,"date_type":2,"cam_kind":4,"own_cd":7177}},{"type":"Feature","geometry":{"type":"Point","coordinates":[134.6495917,34.8042833]},"properties":{"id":107177018,"name":"水尾川潮止水門上流","name_kana":"みずおがわしおどめすいもんじょうりゅう","ofc_cd":86,"sys_id":1,"sys_cam_id":"7177018","pause":0,"date_type":2,"cam_kind":4,"own_cd":7177}},{"type":"Feature","geometry":{"type":"Point","coordinates":[134.6493091,34.8036587]},"properties":{"id":107177019,"name":"水尾川潮止水門下流","name_kana":"みずおがわしおどめすいもんかりゅう","ofc_cd":86,"sys_id":1,"sys_cam_id":"7177019","pause":0,"date_type":2,"cam_kind":4,"own_cd":7177}},{"type":"Feature","geometry":{"type":"Point","coordinates":[134.6026472,34.7934722]},"properties":{"id":107177020,"name":"西汐入川潮止水門","name_kana":"にししおりがわしおどめすいもん","ofc_cd":86,"sys_id":1,"sys_cam_id":"7177020","pause":0,"date_type":2,"cam_kind":4,"own_cd":7177}},{"type":"Feature","geometry":{"type":"Point","coordinates":[134.7496,34.769747]},"properties":{"id":107177021,"name":"西浜川水門","name_kana":"にしはまがわすいもん","ofc_cd":86,"sys_id":1,"sys_cam_id":"7177021","pause":0,"date_type":2,"cam_kind":4,"own_cd":7177}},{"type":"Feature","geometry":{"type":"Point","coordinates":[134.674056,34.796639]},"properties":{"id":107177022,"name":"野田川排水機場上流","name_kana":"のだがわはいすいきじょうじょうりゅう","ofc_cd":86,"sys_id":1,"sys_cam_id":"7177022","pause":0,"date_type":2,"cam_kind":4,"own_cd":7177}},{"type":"Feature","geometry":{"type":"Point","coordinates":[134.620625,34.788994]},"properties":{"id":107177023,"name":"汐入川水門","name_kana":"しおいりがわすいもん","ofc_cd":86,"sys_id":1,"sys_cam_id":"7177023","pause":0,"date_type":2,"cam_kind":4,"own_cd":7177}},{"type":"Feature","geometry":{"type":"Point","coordinates":[134.608264,34.781558]},"properties":{"id":107177024,"name":"西汐入川水門","name_kana":"にししおいりがわすいもん","ofc_cd":86,"sys_id":1,"sys_cam_id":"7177024","pause":0,"date_type":2,"cam_kind":4,"own_cd":7177}},{"type":"Feature","geometry":{"type":"Point","coordinates":[134.724167,34.777528]},"properties":{"id":107177025,"name":"八家川水門","name_kana":"やかがわすいもん","ofc_cd":86,"sys_id":1,"sys_cam_id":"7177025","pause":0,"date_type":2,"cam_kind":4,"own_cd":7177}},{"type":"Feature","geometry":{"type":"Point","coordinates":[134.740319,34.819634]},"properties":{"id":107177026,"name":"御着","name_kana":"ごちゃく","ofc_cd":86,"sys_id":1,"sys_cam_id":"7177026","pause":0,"date_type":1,"cam_kind":4,"own_cd":7177}},{"type":"Feature","geometry":{"type":"Point","coordinates":[134.703176,34.849945]},"properties":{"id":107177027,"name":"伊伝居","name_kana":"いでい","ofc_cd":86,"sys_id":1,"sys_cam_id":"7177027","pause":0,"date_type":1,"cam_kind":4,"own_cd":7177}},{"type":"Feature","geometry":{"type":"Point","coordinates":[134.68271,34.957702]},"properties":{"id":107177028,"name":"前之庄","name_kana":"まえのしょう","ofc_cd":86,"sys_id":1,"sys_cam_id":"7177028","pause":0,"date_type":1,"cam_kind":4,"own_cd":7177}},{"type":"Feature","geometry":{"type":"Point","coordinates":[134.590631,34.98103]},"properties":{"id":107177029,"name":"長野","name_kana":"ながの","ofc_cd":86,"sys_id":1,"sys_cam_id":"7177029","pause":0,"date_type":1,"cam_kind":4,"own_cd":7177}},{"type":"Feature","geometry":{"type":"Point","coordinates":[134.640112,34.909162]},"properties":{"id":107177030,"name":"菅生澗","name_kana":"すがだに","ofc_cd":86,"sys_id":1,"sys_cam_id":"7177030","pause":0,"date_type":1,"cam_kind":4,"own_cd":7177}},{"type":"Feature","geometry":{"type":"Point","coordinates":[134.5822388,34.7768694]},"properties":{"id":122061018,"name":"揖保川 網干区興浜１","name_kana":"","ofc_cd":86,"sys_id":1,"sys_cam_id":"22061018","pause":0,"date_type":2,"cam_kind":4,"own_cd":22061}},{"type":"Feature","geometry":{"type":"Point","coordinates":[134.5840416,34.783775]},"properties":{"id":122061019,"name":"揖保川 網干区興浜２","name_kana":"","ofc_cd":86,"sys_id":1,"sys_cam_id":"22061019","pause":0,"date_type":2,"cam_kind":4,"own_cd":22061}},{"type":"Feature","geometry":{"type":"Point","coordinates":[134.5803666,34.7859222]},"properties":{"id":122061020,"name":"揖保川 網干区興浜３","name_kana":"","ofc_cd":86,"sys_id":1,"sys_cam_id":"22061020","pause":0,"date_type":2,"cam_kind":4,"own_cd":22061}},{"type":"Feature","geometry":{"type":"Point","coordinates":[134.581984,34.779064]},"properties":{"id":122061057,"name":"揖保川 網干区興浜４","name_kana":"","ofc_cd":86,"sys_id":1,"sys_cam_id":"22061057","pause":0,"date_type":0,"cam_kind":4,"own_cd":22061}},{"type":"Feature","geometry":{"type":"Point","coordinates":[134.731858,34.86488]},"properties":{"id":207177001,"name":"市川砥堀","name_kana":"いちかわとぼり","ofc_cd":28,"sys_id":3,"sys_cam_id":"7177001","pause":0,"date_type":1,"cam_kind":2,"own_cd":7177}},{"type":"Feature","geometry":{"type":"Point","coordinates":[134.645555,34.844304]},"properties":{"id":207177002,"name":"夢前川下手野","name_kana":"ゆめさきがわしもての","ofc_cd":28,"sys_id":3,"sys_cam_id":"7177002","pause":0,"date_type":1,"cam_kind":2,"own_cd":7177}},{"type":"Feature","geometry":{"type":"Point","coordinates":[134.560833333,34.805277778]},"properties":{"id":222061045,"name":"上河原","name_kana":"かみがわら","ofc_cd":86,"sys_id":2,"sys_cam_id":"28010014","pause":0,"date_type":0,"cam_kind":2,"own_cd":22061}},{"type":"Feature","geometry":{"type":"Point","coordinates":[134.6345,35.00143]},"properties":{"id":307177003,"name":"菅生ダム上流","name_kana":"すごうだむじょうりゅう","ofc_cd":28,"sys_id":3,"sys_cam_id":"7177005","pause":0,"date_type":1,"cam_kind":2,"own_cd":7177}},{"type":"Feature","geometry":{"type":"Point","coordinates":[134.63339,35.00099]},"properties":{"id":307177004,"name":"菅生ダム下流","name_kana":"すごうだむかりゅう","ofc_cd":28,"sys_id":3,"sys_cam_id":"7177006","pause":0,"date_type":1,"cam_kind":2,"own_cd":7177}},{"type":"Feature","geometry":{"type":"Point","coordinates":[134.61246,35.04557]},"properties":{"id":307177005,"name":"安富ダム上流","name_kana":"やすとみだむじょうりゅう","ofc_cd":28,"sys_id":3,"sys_cam_id":"7177007","pause":0,"date_type":1,"cam_kind":2,"own_cd":7177}},{"type":"Feature","geometry":{"type":"Point","coordinates":[134.61294,35.04492]},"properties":{"id":307177006,"name":"安富ダム下流","name_kana":"やすとみだむかりゅう","ofc_cd":28,"sys_id":3,"sys_cam_id":"7177008","pause":0,"date_type":1,"cam_kind":2,"own_cd":7177}},{"type":"Feature","geometry":{"type":"Point","coordinates":[134.69008,34.78823]},"properties":{"id":307177007,"name":"市川潮止堰","name_kana":"いちかわしおどめせき","ofc_cd":28,"sys_id":3,"sys_cam_id":"7177009","pause":0,"date_type":1,"cam_kind":2,"own_cd":7177}}]}