{"type":"FeatureCollection","crs":{"type":"name","properties":{"name":"EPSG:4326"}},"features":[{"type":"Feature","geometry":{"type":"Point","coordinates":[139.2034166,35.2841666]},"properties":{"id":103585068,"name":"国府津","name_kana":"","ofc_cd":83,"sys_id":1,"sys_cam_id":"3585068","pause":0,"date_type":2,"cam_kind":4,"own_cd":3585}},{"type":"Feature","geometry":{"type":"Point","coordinates":[139.19878611,35.2877888]},"properties":{"id":103585069,"name":"田島","name_kana":"","ofc_cd":83,"sys_id":1,"sys_cam_id":"3585069","pause":0,"date_type":2,"cam_kind":4,"own_cd":3585}},{"type":"Feature","geometry":{"type":"Point","coordinates":[139.1414722,35.3113611]},"properties":{"id":103585070,"name":"曽比","name_kana":"","ofc_cd":83,"sys_id":1,"sys_cam_id":"3585070","pause":0,"date_type":2,"cam_kind":4,"own_cd":3585}},{"type":"Feature","geometry":{"type":"Point","coordinates":[139.1588888,35.2777222]},"properties":{"id":103585071,"name":"狩川管理橋","name_kana":"","ofc_cd":83,"sys_id":1,"sys_cam_id":"3585071","pause":0,"date_type":2,"cam_kind":4,"own_cd":3585}},{"type":"Feature","geometry":{"type":"Point","coordinates":[139.1605833,35.2648333]},"properties":{"id":103585072,"name":"井細田大橋","name_kana":"","ofc_cd":83,"sys_id":1,"sys_cam_id":"3585072","pause":0,"date_type":2,"cam_kind":4,"own_cd":3585}},{"type":"Feature","geometry":{"type":"Point","coordinates":[139.135497,35.292074]},"properties":{"id":103585092,"name":"狩川　小台","name_kana":"","ofc_cd":83,"sys_id":1,"sys_cam_id":"3585092","pause":0,"date_type":0,"cam_kind":4,"own_cd":3585}},{"type":"Feature","geometry":{"type":"Point","coordinates":[139.138295,35.289042]},"properties":{"id":103585093,"name":"狩川　飯田岡","name_kana":"","ofc_cd":83,"sys_id":1,"sys_cam_id":"3585093","pause":0,"date_type":0,"cam_kind":4,"own_cd":3585}},{"type":"Feature","geometry":{"type":"Point","coordinates":[139.148919,35.281477]},"properties":{"id":103585094,"name":"狩川　穴部新田","name_kana":"","ofc_cd":83,"sys_id":1,"sys_cam_id":"3585094","pause":0,"date_type":0,"cam_kind":4,"own_cd":3585}},{"type":"Feature","geometry":{"type":"Point","coordinates":[139.143453,35.287822]},"properties":{"id":103585095,"name":"仙了川　清水新田","name_kana":"","ofc_cd":83,"sys_id":1,"sys_cam_id":"3585095","pause":0,"date_type":0,"cam_kind":4,"own_cd":3585}},{"type":"Feature","geometry":{"type":"Point","coordinates":[139.141972,35.301261]},"properties":{"id":103585096,"name":"仙了川　柳新田","name_kana":"","ofc_cd":83,"sys_id":1,"sys_cam_id":"3585096","pause":0,"date_type":0,"cam_kind":4,"own_cd":3585}},{"type":"Feature","geometry":{"type":"Point","coordinates":[139.145102,35.268161]},"properties":{"id":103585097,"name":"山王川　天神橋","name_kana":"","ofc_cd":83,"sys_id":1,"sys_cam_id":"3585097","pause":0,"date_type":0,"cam_kind":4,"own_cd":3585}},{"type":"Feature","geometry":{"type":"Point","coordinates":[139.169843,35.256453]},"properties":{"id":103585098,"name":"山王川　山王橋","name_kana":"","ofc_cd":83,"sys_id":1,"sys_cam_id":"3585098","pause":0,"date_type":0,"cam_kind":4,"own_cd":3585}},{"type":"Feature","geometry":{"type":"Point","coordinates":[139.179305,35.26276]},"properties":{"id":103585099,"name":"酒匂川　酒匂橋","name_kana":"","ofc_cd":83,"sys_id":1,"sys_cam_id":"3585099","pause":0,"date_type":0,"cam_kind":4,"own_cd":3585}},{"type":"Feature","geometry":{"type":"Point","coordinates":[139.1844459,35.266142]},"properties":{"id":11401206001,"name":"下菊川","name_kana":"しもきくがわ","ofc_cd":83,"sys_id":1,"sys_cam_id":"1401206001","pause":0,"date_type":0,"cam_kind":4,"own_cd":1401206}},{"type":"Feature","geometry":{"type":"Point","coordinates":[139.2025235,35.2779137]},"properties":{"id":11401206002,"name":"小八幡川","name_kana":"こやわたがわ","ofc_cd":83,"sys_id":1,"sys_cam_id":"1401206002","pause":0,"date_type":0,"cam_kind":4,"own_cd":1401206}},{"type":"Feature","geometry":{"type":"Point","coordinates":[139.1963544,35.2873745]},"properties":{"id":11401206003,"name":"関口川","name_kana":"せきぐちがわ","ofc_cd":83,"sys_id":1,"sys_cam_id":"1401206003","pause":0,"date_type":0,"cam_kind":4,"own_cd":1401206}},{"type":"Feature","geometry":{"type":"Point","coordinates":[139.1627057,35.2802185]},"properties":{"id":11401206004,"name":"金瀬川","name_kana":"かなせがわ","ofc_cd":83,"sys_id":1,"sys_cam_id":"1401206004","pause":0,"date_type":0,"cam_kind":4,"own_cd":1401206}},{"type":"Feature","geometry":{"type":"Point","coordinates":[139.1387728,35.29008]},"properties":{"id":11401206005,"name":"池田排水路","name_kana":"いけだはいすいろ","ofc_cd":83,"sys_id":1,"sys_cam_id":"1401206005","pause":0,"date_type":0,"cam_kind":4,"own_cd":1401206}},{"type":"Feature","geometry":{"type":"Point","coordinates":[139.1385878,35.2899093]},"properties":{"id":11401206006,"name":"新屋排水路","name_kana":"あらやはいすいろ","ofc_cd":83,"sys_id":1,"sys_cam_id":"1401206006","pause":0,"date_type":0,"cam_kind":4,"own_cd":1401206}},{"type":"Feature","geometry":{"type":"Point","coordinates":[139.1357443,35.2932624]},"properties":{"id":11401206007,"name":"小台地内水路","name_kana":"こだいちないすいろ","ofc_cd":83,"sys_id":1,"sys_cam_id":"1401206007","pause":0,"date_type":0,"cam_kind":4,"own_cd":1401206}},{"type":"Feature","geometry":{"type":"Point","coordinates":[139.1541386,35.2809865]},"properties":{"id":11401206008,"name":"五ケ村排水路１","name_kana":"ごかそんはいすいろ１","ofc_cd":83,"sys_id":1,"sys_cam_id":"1401206008","pause":0,"date_type":0,"cam_kind":4,"own_cd":1401206}},{"type":"Feature","geometry":{"type":"Point","coordinates":[139.1573786,35.2792137]},"properties":{"id":11401206009,"name":"五ケ村排水路２","name_kana":"ごかそんはいすいろ２","ofc_cd":83,"sys_id":1,"sys_cam_id":"1401206009","pause":0,"date_type":0,"cam_kind":4,"own_cd":1401206}},{"type":"Feature","geometry":{"type":"Point","coordinates":[139.149392,35.2845707]},"properties":{"id":11401206010,"name":"五ケ村排水路３","name_kana":"ごかそんはいすいろ３","ofc_cd":83,"sys_id":1,"sys_cam_id":"1401206010","pause":0,"date_type":0,"cam_kind":4,"own_cd":1401206}},{"type":"Feature","geometry":{"type":"Point","coordinates":[139.1496582,35.2831557]},"properties":{"id":11401206011,"name":"蓮正寺地内水路","name_kana":"れんしょうじちないすいろ","ofc_cd":83,"sys_id":1,"sys_cam_id":"1401206011","pause":0,"date_type":0,"cam_kind":4,"own_cd":1401206}},{"type":"Feature","geometry":{"type":"Point","coordinates":[139.1779109,35.2636967]},"properties":{"id":11401206012,"name":"井細田排水路","name_kana":"いさいだはいすいろ","ofc_cd":83,"sys_id":1,"sys_cam_id":"1401206012","pause":0,"date_type":0,"cam_kind":4,"own_cd":1401206}},{"type":"Feature","geometry":{"type":"Point","coordinates":[139.1745025,35.3142633]},"properties":{"id":11401206013,"name":"岩太郎川","name_kana":"がんたろうがわ","ofc_cd":83,"sys_id":1,"sys_cam_id":"1401206013","pause":0,"date_type":0,"cam_kind":4,"own_cd":1401206}},{"type":"Feature","geometry":{"type":"Point","coordinates":[139.1422455,35.2873582]},"properties":{"id":11401206014,"name":"飯田岡地内水路","name_kana":"いいだおかちないすいろ","ofc_cd":83,"sys_id":1,"sys_cam_id":"1401206014","pause":0,"date_type":0,"cam_kind":4,"own_cd":1401206}}]}