{"type":"FeatureCollection","crs":{"type":"name","properties":{"name":"EPSG:4326"}},"features":[{"type":"Feature","geometry":{"type":"Point","coordinates":[134.121213,34.661281]},"properties":{"id":108449003,"name":"千町川／瀬戸内市邑久町本庄（明見橋）","name_kana":"","ofc_cd":87,"sys_id":1,"sys_cam_id":"8449003","pause":0,"date_type":1,"cam_kind":4,"own_cd":8449}},{"type":"Feature","geometry":{"type":"Point","coordinates":[134.124718,34.695947]},"properties":{"id":108449004,"name":"干田川／瀬戸内市長船町福里（歩道橋）","name_kana":"","ofc_cd":87,"sys_id":1,"sys_cam_id":"8449004","pause":0,"date_type":1,"cam_kind":4,"own_cd":8449}},{"type":"Feature","geometry":{"type":"Point","coordinates":[134.0569444,34.6616667]},"properties":{"id":222313004,"name":"本村","name_kana":"","ofc_cd":87,"sys_id":2,"sys_cam_id":"22313004","pause":0,"date_type":0,"cam_kind":2,"own_cd":22313}},{"type":"Feature","geometry":{"type":"Point","coordinates":[134.06,34.6669444]},"properties":{"id":222313006,"name":"福山空間監視","name_kana":"","ofc_cd":87,"sys_id":2,"sys_cam_id":"22313006","pause":0,"date_type":0,"cam_kind":2,"own_cd":22313}},{"type":"Feature","geometry":{"type":"Point","coordinates":[134.0813889,34.6861111]},"properties":{"id":222313007,"name":"豆田空間監視","name_kana":"","ofc_cd":87,"sys_id":2,"sys_cam_id":"22313007","pause":0,"date_type":0,"cam_kind":2,"own_cd":22313}},{"type":"Feature","geometry":{"type":"Point","coordinates":[134.0875,34.7038889]},"properties":{"id":222313008,"name":"福岡１空間監視","name_kana":"","ofc_cd":87,"sys_id":2,"sys_cam_id":"22313008","pause":0,"date_type":0,"cam_kind":2,"own_cd":22313}},{"type":"Feature","geometry":{"type":"Point","coordinates":[134.0886111,34.7055556]},"properties":{"id":222313009,"name":"福岡２","name_kana":"","ofc_cd":87,"sys_id":2,"sys_cam_id":"22313009","pause":0,"date_type":0,"cam_kind":2,"own_cd":22313}},{"type":"Feature","geometry":{"type":"Point","coordinates":[134.0969444,34.7152778]},"properties":{"id":222313012,"name":"八日市空間監視","name_kana":"","ofc_cd":87,"sys_id":2,"sys_cam_id":"22313012","pause":0,"date_type":0,"cam_kind":2,"own_cd":22313}},{"type":"Feature","geometry":{"type":"Point","coordinates":[134.1036111,34.7241667]},"properties":{"id":222313013,"name":"長船空間監視","name_kana":"","ofc_cd":87,"sys_id":2,"sys_cam_id":"22313013","pause":0,"date_type":0,"cam_kind":2,"own_cd":22313}},{"type":"Feature","geometry":{"type":"Point","coordinates":[134.1041667,34.7261111]},"properties":{"id":222313014,"name":"坂根空間監視","name_kana":"","ofc_cd":87,"sys_id":2,"sys_cam_id":"22313014","pause":0,"date_type":0,"cam_kind":2,"own_cd":22313}}]}