{"type":"FeatureCollection","crs":{"type":"name","properties":{"name":"EPSG:4326"}},"features":[{"type":"Feature","geometry":{"type":"Point","coordinates":[140.9481917,38.5672139]},"properties":{"id":101025042,"name":"大江川（古川栄町）","name_kana":"おおえがわ（ふるかわさかえまち）　","ofc_cd":82,"sys_id":1,"sys_cam_id":"1025042","pause":0,"date_type":2,"cam_kind":4,"own_cd":1025}},{"type":"Feature","geometry":{"type":"Point","coordinates":[140.9493778,38.6198722]},"properties":{"id":101025043,"name":"田尻川","name_kana":"たじりがわ","ofc_cd":82,"sys_id":1,"sys_cam_id":"1025043","pause":0,"date_type":2,"cam_kind":4,"own_cd":1025}},{"type":"Feature","geometry":{"type":"Point","coordinates":[140.9497611,38.5597889]},"properties":{"id":101025044,"name":"大江川（古川稲葉）","name_kana":"おおえがわ（ふるかわいなば）　","ofc_cd":82,"sys_id":1,"sys_cam_id":"1025044","pause":0,"date_type":2,"cam_kind":4,"own_cd":1025}},{"type":"Feature","geometry":{"type":"Point","coordinates":[140.9438889,38.5786111]},"properties":{"id":101025067,"name":"大江川（可動堰）","name_kana":"","ofc_cd":82,"sys_id":1,"sys_cam_id":"1025067","pause":0,"date_type":2,"cam_kind":4,"own_cd":1025}},{"type":"Feature","geometry":{"type":"Point","coordinates":[141.079116,38.563811]},"properties":{"id":121034073,"name":"江合川16.6kＬ","name_kana":"えあいがわ16.6kＬ","ofc_cd":82,"sys_id":1,"sys_cam_id":"21034073","pause":0,"date_type":2,"cam_kind":4,"own_cd":21034}},{"type":"Feature","geometry":{"type":"Point","coordinates":[140.948148,38.595481]},"properties":{"id":121034076,"name":"江合川30.0kＲ","name_kana":"えあいがわ30.0kＲ","ofc_cd":82,"sys_id":1,"sys_cam_id":"21034076","pause":0,"date_type":2,"cam_kind":4,"own_cd":21034}},{"type":"Feature","geometry":{"type":"Point","coordinates":[140.98982,38.545534]},"properties":{"id":121034077,"name":"新江合川1.6kＬ","name_kana":"しんえあいがわ1.6kＬ","ofc_cd":82,"sys_id":1,"sys_cam_id":"21034077","pause":0,"date_type":2,"cam_kind":4,"own_cd":21034}},{"type":"Feature","geometry":{"type":"Point","coordinates":[140.979722,38.568611]},"properties":{"id":121034078,"name":"新江合川4.2kＲ","name_kana":"しんえあいがわ4.2kＲ","ofc_cd":82,"sys_id":1,"sys_cam_id":"21034078","pause":0,"date_type":2,"cam_kind":4,"own_cd":21034}},{"type":"Feature","geometry":{"type":"Point","coordinates":[140.923333,38.522778]},"properties":{"id":121034079,"name":"鳴瀬川38.0kＲ","name_kana":"なるせがわ38.0kＲ","ofc_cd":82,"sys_id":1,"sys_cam_id":"21034079","pause":0,"date_type":2,"cam_kind":4,"own_cd":21034}},{"type":"Feature","geometry":{"type":"Point","coordinates":[140.908649,38.523536]},"properties":{"id":121034080,"name":"鳴瀬川39.2kＲ","name_kana":"なるせがわ39.2kＲ","ofc_cd":82,"sys_id":1,"sys_cam_id":"21034080","pause":0,"date_type":2,"cam_kind":4,"own_cd":21034}},{"type":"Feature","geometry":{"type":"Point","coordinates":[140.95299167,38.54280556]},"properties":{"id":121034081,"name":"多田川2.8kＲ","name_kana":"ただがわ2.8kＲ","ofc_cd":82,"sys_id":1,"sys_cam_id":"21034081","pause":0,"date_type":2,"cam_kind":4,"own_cd":21034}},{"type":"Feature","geometry":{"type":"Point","coordinates":[140.947357,38.545796]},"properties":{"id":121034082,"name":"多田川3.5kＬ","name_kana":"ただがわ3.5kＬ","ofc_cd":82,"sys_id":1,"sys_cam_id":"21034082","pause":0,"date_type":2,"cam_kind":4,"own_cd":21034}},{"type":"Feature","geometry":{"type":"Point","coordinates":[141.12407228,38.46757333]},"properties":{"id":121034083,"name":"鳴瀬川13.6kＲ","name_kana":"なるせがわ13.6kＲ","ofc_cd":82,"sys_id":1,"sys_cam_id":"21034083","pause":0,"date_type":2,"cam_kind":4,"own_cd":21034}},{"type":"Feature","geometry":{"type":"Point","coordinates":[141.033053,38.525834]},"properties":{"id":121034086,"name":"鳴瀬川27.1kＲ","name_kana":"なるせがわ27.1kＲ","ofc_cd":82,"sys_id":1,"sys_cam_id":"21034086","pause":0,"date_type":2,"cam_kind":4,"own_cd":21034}},{"type":"Feature","geometry":{"type":"Point","coordinates":[141.023885,38.531944]},"properties":{"id":121034087,"name":"鳴瀬川28.3kＬ","name_kana":"なるせがわ28.3kＬ","ofc_cd":82,"sys_id":1,"sys_cam_id":"21034087","pause":0,"date_type":2,"cam_kind":4,"own_cd":21034}},{"type":"Feature","geometry":{"type":"Point","coordinates":[140.981944,38.579167]},"properties":{"id":221034022,"name":"新江合川分流右岸26.0ｋｍ","name_kana":"","ofc_cd":82,"sys_id":2,"sys_cam_id":"21034034","pause":0,"date_type":0,"cam_kind":2,"own_cd":21034}},{"type":"Feature","geometry":{"type":"Point","coordinates":[141.106944,38.456667]},"properties":{"id":221034028,"name":"上地地区右岸11.6ｋｍ","name_kana":"","ofc_cd":82,"sys_id":2,"sys_cam_id":"21034003","pause":0,"date_type":0,"cam_kind":2,"own_cd":21034}},{"type":"Feature","geometry":{"type":"Point","coordinates":[141.125,38.473333]},"properties":{"id":221034029,"name":"木間塚大橋右岸14.3ｋｍ","name_kana":"","ofc_cd":82,"sys_id":2,"sys_cam_id":"21034004","pause":0,"date_type":0,"cam_kind":2,"own_cd":21034}},{"type":"Feature","geometry":{"type":"Point","coordinates":[141.096389,38.521667]},"properties":{"id":221034030,"name":"中流堰右岸21.3ｋｍ","name_kana":"","ofc_cd":82,"sys_id":2,"sys_cam_id":"21034005","pause":0,"date_type":0,"cam_kind":2,"own_cd":21034}},{"type":"Feature","geometry":{"type":"Point","coordinates":[141.059722,38.526667]},"properties":{"id":221034031,"name":"野田橋右岸24.6km","name_kana":"","ofc_cd":82,"sys_id":2,"sys_cam_id":"21034040","pause":0,"date_type":0,"cam_kind":2,"own_cd":21034}},{"type":"Feature","geometry":{"type":"Point","coordinates":[141.004722,38.530278]},"properties":{"id":221034032,"name":"志田橋右岸30.1ｋｍ","name_kana":"","ofc_cd":82,"sys_id":2,"sys_cam_id":"21034032","pause":0,"date_type":0,"cam_kind":2,"own_cd":21034}},{"type":"Feature","geometry":{"type":"Point","coordinates":[140.9375,38.523333]},"properties":{"id":221034033,"name":"百間堀排水Ｐ右岸36.7km","name_kana":"","ofc_cd":82,"sys_id":2,"sys_cam_id":"21034041","pause":0,"date_type":0,"cam_kind":2,"own_cd":21034}},{"type":"Feature","geometry":{"type":"Point","coordinates":[141.091389,38.446111]},"properties":{"id":221034036,"name":"内浦樋管左岸11.2ｋｍ","name_kana":"","ofc_cd":82,"sys_id":2,"sys_cam_id":"21034006","pause":0,"date_type":0,"cam_kind":2,"own_cd":21034}},{"type":"Feature","geometry":{"type":"Point","coordinates":[140.894722,38.529722]},"properties":{"id":221034044,"name":"桜舘排水樋管右岸40.7ｋｍ","name_kana":"","ofc_cd":82,"sys_id":2,"sys_cam_id":"21034001","pause":0,"date_type":0,"cam_kind":2,"own_cd":21034}},{"type":"Feature","geometry":{"type":"Point","coordinates":[140.973592,38.591389]},"properties":{"id":221034054,"name":"江合橋左岸27.8km","name_kana":"","ofc_cd":82,"sys_id":2,"sys_cam_id":"21034054","pause":0,"date_type":0,"cam_kind":2,"own_cd":21034}},{"type":"Feature","geometry":{"type":"Point","coordinates":[140.705722,38.753972]},"properties":{"id":221037001,"name":"ダム左岸カメラ","name_kana":"","ofc_cd":82,"sys_id":2,"sys_cam_id":"21037001","pause":0,"date_type":0,"cam_kind":2,"own_cd":21037}},{"type":"Feature","geometry":{"type":"Point","coordinates":[140.704361,38.755056]},"properties":{"id":221037002,"name":"ダム右岸カメラ","name_kana":"","ofc_cd":82,"sys_id":2,"sys_cam_id":"21037002","pause":0,"date_type":0,"cam_kind":2,"own_cd":21037}},{"type":"Feature","geometry":{"type":"Point","coordinates":[140.705001,38.754167]},"properties":{"id":221037003,"name":"ダムゲートカメラ","name_kana":"","ofc_cd":82,"sys_id":2,"sys_cam_id":"21037003","pause":0,"date_type":0,"cam_kind":2,"own_cd":21037}},{"type":"Feature","geometry":{"type":"Point","coordinates":[140.704833,38.753806]},"properties":{"id":221037004,"name":"ダム下流カメラ","name_kana":"","ofc_cd":82,"sys_id":2,"sys_cam_id":"21037004","pause":0,"date_type":0,"cam_kind":2,"own_cd":21037}},{"type":"Feature","geometry":{"type":"Point","coordinates":[140.663564,38.79655]},"properties":{"id":221037005,"name":"轟カメラ","name_kana":"","ofc_cd":82,"sys_id":2,"sys_cam_id":"21037005","pause":0,"date_type":0,"cam_kind":2,"own_cd":21037}},{"type":"Feature","geometry":{"type":"Point","coordinates":[140.712278,38.740861]},"properties":{"id":221037006,"name":"上鳴子カメラ","name_kana":"","ofc_cd":82,"sys_id":2,"sys_cam_id":"21037006","pause":0,"date_type":0,"cam_kind":2,"own_cd":21037}},{"type":"Feature","geometry":{"type":"Point","coordinates":[140.744778,38.738]},"properties":{"id":221037007,"name":"中野カメラ","name_kana":"","ofc_cd":82,"sys_id":2,"sys_cam_id":"21037007","pause":0,"date_type":0,"cam_kind":2,"own_cd":21037}},{"type":"Feature","geometry":{"type":"Point","coordinates":[140.767278,38.732639]},"properties":{"id":221037008,"name":"川渡カメラ","name_kana":"","ofc_cd":82,"sys_id":2,"sys_cam_id":"21037008","pause":0,"date_type":0,"cam_kind":2,"own_cd":21037}},{"type":"Feature","geometry":{"type":"Point","coordinates":[140.868389,38.659611]},"properties":{"id":221037009,"name":"岩出山上流カメラ","name_kana":"","ofc_cd":82,"sys_id":2,"sys_cam_id":"21037009","pause":0,"date_type":0,"cam_kind":2,"own_cd":21037}},{"type":"Feature","geometry":{"type":"Point","coordinates":[140.872861,38.654472]},"properties":{"id":221037010,"name":"岩出山下流カメラ","name_kana":"","ofc_cd":82,"sys_id":2,"sys_cam_id":"21037010","pause":0,"date_type":0,"cam_kind":2,"own_cd":21037}}]}