{"type":"FeatureCollection","crs":{"type":"name","properties":{"name":"EPSG:4326"}},"features":[{"type":"Feature","geometry":{"type":"Point","coordinates":[139.879467,37.425908]},"properties":{"id":101793150,"name":"氷玉川(新福永橋)","name_kana":"ひだまかわ（しんふくながはし）","ofc_cd":82,"sys_id":1,"sys_cam_id":"1793150","pause":0,"date_type":2,"cam_kind":4,"own_cd":1793}},{"type":"Feature","geometry":{"type":"Point","coordinates":[139.869799,37.456955]},"properties":{"id":101793151,"name":"氷玉川(鶴沼橋)","name_kana":"ひだまかわ（つるぬまはし）","ofc_cd":82,"sys_id":1,"sys_cam_id":"1793151","pause":0,"date_type":2,"cam_kind":4,"own_cd":1793}},{"type":"Feature","geometry":{"type":"Point","coordinates":[139.832229,37.507666]},"properties":{"id":101793152,"name":"佐賀瀬川(家東橋)","name_kana":"さがせがわ（いえひがしばし）","ofc_cd":82,"sys_id":1,"sys_cam_id":"1793152","pause":0,"date_type":2,"cam_kind":4,"own_cd":1793}},{"type":"Feature","geometry":{"type":"Point","coordinates":[139.848687,37.419733]},"properties":{"id":101793161,"name":"藤川(下小川橋)","name_kana":"ふじかわ（しもおがわばし）","ofc_cd":82,"sys_id":1,"sys_cam_id":"1793161","pause":0,"date_type":2,"cam_kind":4,"own_cd":1793}},{"type":"Feature","geometry":{"type":"Point","coordinates":[139.856912,37.40079]},"properties":{"id":101793162,"name":"藤川(旭市川小豆沢口甲地内　護岸敷)","name_kana":"ふじかわ（あさひしかわあづきさわぐちこう）","ofc_cd":82,"sys_id":1,"sys_cam_id":"1793162","pause":0,"date_type":2,"cam_kind":4,"own_cd":1793}},{"type":"Feature","geometry":{"type":"Point","coordinates":[139.839619,37.4539]},"properties":{"id":101793211,"name":"宮川　（高田観測所）　","name_kana":"みやがわ（たかだかんそくじょ）","ofc_cd":82,"sys_id":1,"sys_cam_id":"1793211","pause":0,"date_type":1,"cam_kind":4,"own_cd":1793}},{"type":"Feature","geometry":{"type":"Point","coordinates":[139.905575,37.44293611]},"properties":{"id":121527029,"name":"大石","name_kana":"","ofc_cd":84,"sys_id":1,"sys_cam_id":"21527029","pause":0,"date_type":2,"cam_kind":4,"own_cd":21527}},{"type":"Feature","geometry":{"type":"Point","coordinates":[139.9161167,37.4058833]},"properties":{"id":221527005,"name":"阿賀川31．0ｋ左　馬越観測所","name_kana":"","ofc_cd":84,"sys_id":2,"sys_cam_id":"07010074","pause":0,"date_type":0,"cam_kind":3,"own_cd":21527}}]}