{"type":"FeatureCollection","crs":{"type":"name","properties":{"name":"EPSG:4326"}},"features":[{"type":"Feature","geometry":{"type":"Point","coordinates":[130.245225,33.272958]},"properties":{"id":122819004,"name":"嘉瀬川9k400R塩土井排水樋門","name_kana":"","ofc_cd":89,"sys_id":1,"sys_cam_id":"22819004","pause":0,"date_type":2,"cam_kind":4,"own_cd":22819}},{"type":"Feature","geometry":{"type":"Point","coordinates":[130.337222222,33.184441666]},"properties":{"id":222816007,"name":"川副大橋","name_kana":"","ofc_cd":89,"sys_id":2,"sys_cam_id":"22816007","pause":0,"date_type":0,"cam_kind":2,"own_cd":22816}},{"type":"Feature","geometry":{"type":"Point","coordinates":[130.338277777,33.196194444]},"properties":{"id":222816072,"name":"早津江川右岸04K600中川副樋管","name_kana":"","ofc_cd":89,"sys_id":2,"sys_cam_id":"22816082","pause":0,"date_type":0,"cam_kind":2,"own_cd":22816}},{"type":"Feature","geometry":{"type":"Point","coordinates":[130.32075,33.175222222]},"properties":{"id":222816073,"name":"早津江川右岸01K100戸ヶ里","name_kana":"","ofc_cd":89,"sys_id":2,"sys_cam_id":"22816083","pause":0,"date_type":0,"cam_kind":2,"own_cd":22816}},{"type":"Feature","geometry":{"type":"Point","coordinates":[130.368888888,33.224444444]},"properties":{"id":222816074,"name":"諸富川左岸01K000大中島","name_kana":"","ofc_cd":89,"sys_id":2,"sys_cam_id":"22816084","pause":0,"date_type":0,"cam_kind":2,"own_cd":22816}},{"type":"Feature","geometry":{"type":"Point","coordinates":[130.252841666,33.275775]},"properties":{"id":222819070,"name":"池森橋","name_kana":"","ofc_cd":89,"sys_id":2,"sys_cam_id":"22819105","pause":0,"date_type":0,"cam_kind":2,"own_cd":22819}},{"type":"Feature","geometry":{"type":"Point","coordinates":[130.371666666,33.244444444]},"properties":{"id":222819075,"name":"佐賀江川左岸02K100諸富出張所＿屋上カメラ","name_kana":"","ofc_cd":89,"sys_id":2,"sys_cam_id":"22819005","pause":0,"date_type":0,"cam_kind":2,"own_cd":22819}},{"type":"Feature","geometry":{"type":"Point","coordinates":[130.372222222,33.243888888]},"properties":{"id":222819076,"name":"佐賀江川左岸02K000城原川合流点","name_kana":"","ofc_cd":89,"sys_id":2,"sys_cam_id":"22819006","pause":0,"date_type":0,"cam_kind":2,"own_cd":22819}},{"type":"Feature","geometry":{"type":"Point","coordinates":[130.370277777,33.226944444]},"properties":{"id":222819077,"name":"佐賀江川左岸00K000佐賀江川合流点","name_kana":"","ofc_cd":89,"sys_id":2,"sys_cam_id":"22819007","pause":0,"date_type":0,"cam_kind":2,"own_cd":22819}},{"type":"Feature","geometry":{"type":"Point","coordinates":[130.243886111,33.238611111]},"properties":{"id":222819078,"name":"嘉瀬川大堰屋上","name_kana":"","ofc_cd":89,"sys_id":2,"sys_cam_id":"22819101","pause":0,"date_type":0,"cam_kind":2,"own_cd":22819}},{"type":"Feature","geometry":{"type":"Point","coordinates":[130.245275,33.245552777]},"properties":{"id":222819079,"name":"荻野","name_kana":"","ofc_cd":89,"sys_id":2,"sys_cam_id":"22819102","pause":0,"date_type":0,"cam_kind":2,"own_cd":22819}},{"type":"Feature","geometry":{"type":"Point","coordinates":[130.269722222,33.315552777]},"properties":{"id":222819080,"name":"東山田","name_kana":"","ofc_cd":89,"sys_id":2,"sys_cam_id":"22819103","pause":0,"date_type":0,"cam_kind":2,"own_cd":22819}},{"type":"Feature","geometry":{"type":"Point","coordinates":[130.268055555,33.329722222]},"properties":{"id":222819081,"name":"川上","name_kana":"","ofc_cd":89,"sys_id":2,"sys_cam_id":"22819104","pause":0,"date_type":0,"cam_kind":2,"own_cd":22819}},{"type":"Feature","geometry":{"type":"Point","coordinates":[130.327238888,33.247927777]},"properties":{"id":310497001,"name":"江上","name_kana":"","ofc_cd":41,"sys_id":3,"sys_cam_id":"41010010","pause":0,"date_type":1,"cam_kind":2,"own_cd":10497}},{"type":"Feature","geometry":{"type":"Point","coordinates":[130.324158333,33.273136111]},"properties":{"id":310497002,"name":"学校橋","name_kana":"","ofc_cd":41,"sys_id":3,"sys_cam_id":"41010014","pause":0,"date_type":1,"cam_kind":2,"own_cd":10497}},{"type":"Feature","geometry":{"type":"Point","coordinates":[130.302061111,33.212183333]},"properties":{"id":310497011,"name":"船津","name_kana":"","ofc_cd":41,"sys_id":3,"sys_cam_id":"41010050","pause":0,"date_type":1,"cam_kind":2,"own_cd":10497}},{"type":"Feature","geometry":{"type":"Point","coordinates":[130.2705,33.2335]},"properties":{"id":310497012,"name":"今重橋","name_kana":"","ofc_cd":41,"sys_id":3,"sys_cam_id":"41010054","pause":0,"date_type":1,"cam_kind":2,"own_cd":10497}},{"type":"Feature","geometry":{"type":"Point","coordinates":[130.218638888,33.247]},"properties":{"id":310497014,"name":"境川橋","name_kana":"","ofc_cd":41,"sys_id":3,"sys_cam_id":"41010062","pause":0,"date_type":1,"cam_kind":2,"own_cd":10497}},{"type":"Feature","geometry":{"type":"Point","coordinates":[129.9818944,33.410125]},"properties":{"id":122865021,"name":"松浦川5k400L養母田3号排水樋管","name_kana":"","ofc_cd":89,"sys_id":1,"sys_cam_id":"22865021","pause":0,"date_type":2,"cam_kind":4,"own_cd":22865}},{"type":"Feature","geometry":{"type":"Point","coordinates":[129.983744,33.399006]},"properties":{"id":122865022,"name":"松浦川7k350R城排水樋管","name_kana":"","ofc_cd":89,"sys_id":1,"sys_cam_id":"22865022","pause":0,"date_type":2,"cam_kind":4,"own_cd":22865}},{"type":"Feature","geometry":{"type":"Point","coordinates":[129.991658,33.378342]},"properties":{"id":122865023,"name":"松浦川10k040L下牟田部排水樋管","name_kana":"","ofc_cd":89,"sys_id":1,"sys_cam_id":"22865023","pause":0,"date_type":2,"cam_kind":4,"own_cd":22865}},{"type":"Feature","geometry":{"type":"Point","coordinates":[129.999669,33.353547]},"properties":{"id":122865024,"name":"松浦川13k880L久保排水樋管","name_kana":"","ofc_cd":89,"sys_id":1,"sys_cam_id":"22865024","pause":0,"date_type":2,"cam_kind":4,"own_cd":22865}},{"type":"Feature","geometry":{"type":"Point","coordinates":[129.99275,33.346225]},"properties":{"id":122865025,"name":"松浦川15k270L和田山排水樋管","name_kana":"","ofc_cd":89,"sys_id":1,"sys_cam_id":"22865025","pause":0,"date_type":2,"cam_kind":4,"own_cd":22865}},{"type":"Feature","geometry":{"type":"Point","coordinates":[129.9710916,33.4009666]},"properties":{"id":122865026,"name":"徳須恵川0k600R山本河原2号排水樋管","name_kana":"","ofc_cd":89,"sys_id":1,"sys_cam_id":"22865026","pause":0,"date_type":2,"cam_kind":4,"own_cd":22865}},{"type":"Feature","geometry":{"type":"Point","coordinates":[129.950964,33.388842]},"properties":{"id":122865027,"name":"徳須恵川2k910R大杉北崎2号排水樋管","name_kana":"","ofc_cd":89,"sys_id":1,"sys_cam_id":"22865027","pause":0,"date_type":2,"cam_kind":4,"own_cd":22865}},{"type":"Feature","geometry":{"type":"Point","coordinates":[129.944425,33.369544]},"properties":{"id":122865028,"name":"徳須恵川5k800L北波多徳須恵","name_kana":"","ofc_cd":89,"sys_id":1,"sys_cam_id":"22865028","pause":0,"date_type":2,"cam_kind":4,"own_cd":22865}},{"type":"Feature","geometry":{"type":"Point","coordinates":[130.018094,33.348797]},"properties":{"id":122865030,"name":"厳木川1k850R中山警報所","name_kana":"","ofc_cd":89,"sys_id":1,"sys_cam_id":"22865030","pause":0,"date_type":2,"cam_kind":4,"own_cd":22865}},{"type":"Feature","geometry":{"type":"Point","coordinates":[129.989138888,33.415438888]},"properties":{"id":222819046,"name":"沖鶴（排）空間監視","name_kana":"","ofc_cd":89,"sys_id":2,"sys_cam_id":"22865055","pause":0,"date_type":0,"cam_kind":2,"own_cd":22865}},{"type":"Feature","geometry":{"type":"Point","coordinates":[129.993330555,33.425552777]},"properties":{"id":222819047,"name":"松浦大堰上流","name_kana":"","ofc_cd":89,"sys_id":2,"sys_cam_id":"22865056","pause":0,"date_type":0,"cam_kind":2,"own_cd":22865}},{"type":"Feature","geometry":{"type":"Point","coordinates":[129.994163888,33.426386111]},"properties":{"id":222819048,"name":"出張所屋上","name_kana":"","ofc_cd":89,"sys_id":2,"sys_cam_id":"22865057","pause":0,"date_type":0,"cam_kind":2,"own_cd":22865}},{"type":"Feature","geometry":{"type":"Point","coordinates":[129.994441666,33.427775]},"properties":{"id":222819049,"name":"松浦大堰下流","name_kana":"","ofc_cd":89,"sys_id":2,"sys_cam_id":"22865058","pause":0,"date_type":0,"cam_kind":2,"own_cd":22865}},{"type":"Feature","geometry":{"type":"Point","coordinates":[129.989163888,33.438052777]},"properties":{"id":222819050,"name":"和多田（排）空間監視","name_kana":"","ofc_cd":89,"sys_id":2,"sys_cam_id":"22865059","pause":0,"date_type":0,"cam_kind":2,"own_cd":22865}},{"type":"Feature","geometry":{"type":"Point","coordinates":[129.994719444,33.441386111]},"properties":{"id":222819051,"name":"鏡（排）空間監視","name_kana":"","ofc_cd":89,"sys_id":2,"sys_cam_id":"22865060","pause":0,"date_type":0,"cam_kind":2,"own_cd":22865}},{"type":"Feature","geometry":{"type":"Point","coordinates":[129.978055555,33.403052777]},"properties":{"id":222819052,"name":"徳須恵川合流点","name_kana":"","ofc_cd":89,"sys_id":2,"sys_cam_id":"22865061","pause":0,"date_type":0,"cam_kind":2,"own_cd":22865}},{"type":"Feature","geometry":{"type":"Point","coordinates":[129.974722222,33.336111111]},"properties":{"id":222819053,"name":"中松浦","name_kana":"","ofc_cd":89,"sys_id":2,"sys_cam_id":"22865062","pause":0,"date_type":0,"cam_kind":2,"own_cd":22865}},{"type":"Feature","geometry":{"type":"Point","coordinates":[129.993627777,33.339863888]},"properties":{"id":222819057,"name":"アザメの瀬","name_kana":"","ofc_cd":89,"sys_id":2,"sys_cam_id":"22865066","pause":0,"date_type":0,"cam_kind":2,"own_cd":22865}},{"type":"Feature","geometry":{"type":"Point","coordinates":[129.953330555,33.377222222]},"properties":{"id":222819064,"name":"徳須恵橋","name_kana":"","ofc_cd":89,"sys_id":2,"sys_cam_id":"22865073","pause":0,"date_type":0,"cam_kind":2,"own_cd":22865}},{"type":"Feature","geometry":{"type":"Point","coordinates":[129.995833333,33.4375]},"properties":{"id":222865001,"name":"松浦川運動公園","name_kana":"まつうらがわうんどうこうえん","ofc_cd":89,"sys_id":2,"sys_cam_id":"22865078","pause":0,"date_type":0,"cam_kind":2,"own_cd":22865}},{"type":"Feature","geometry":{"type":"Point","coordinates":[130.001611111,33.425611111]},"properties":{"id":310497021,"name":"大橋","name_kana":"","ofc_cd":41,"sys_id":3,"sys_cam_id":"41010090","pause":0,"date_type":1,"cam_kind":2,"own_cd":10497}},{"type":"Feature","geometry":{"type":"Point","coordinates":[130.010555555,33.411111111]},"properties":{"id":310497022,"name":"久里崎橋","name_kana":"","ofc_cd":41,"sys_id":3,"sys_cam_id":"41010094","pause":0,"date_type":1,"cam_kind":2,"own_cd":10497}},{"type":"Feature","geometry":{"type":"Point","coordinates":[130.056775,33.445119444]},"properties":{"id":310497024,"name":"新岡口橋","name_kana":"","ofc_cd":41,"sys_id":3,"sys_cam_id":"41010102","pause":0,"date_type":1,"cam_kind":2,"own_cd":10497}},{"type":"Feature","geometry":{"type":"Point","coordinates":[130.041944444,33.446111111]},"properties":{"id":310497025,"name":"浜崎","name_kana":"","ofc_cd":41,"sys_id":3,"sys_cam_id":"41010106","pause":0,"date_type":1,"cam_kind":2,"own_cd":10497}},{"type":"Feature","geometry":{"type":"Point","coordinates":[130.497775,33.357222222]},"properties":{"id":222816008,"name":"安良川上流","name_kana":"","ofc_cd":89,"sys_id":2,"sys_cam_id":"22816008","pause":0,"date_type":0,"cam_kind":2,"own_cd":22816}},{"type":"Feature","geometry":{"type":"Point","coordinates":[130.514433333,33.346216666]},"properties":{"id":222816032,"name":"前川排水機場＿内水位","name_kana":"","ofc_cd":89,"sys_id":2,"sys_cam_id":"22816042","pause":0,"date_type":0,"cam_kind":2,"own_cd":22816}},{"type":"Feature","geometry":{"type":"Point","coordinates":[130.509969444,33.346505555]},"properties":{"id":222816033,"name":"轟木排水機場＿内水位","name_kana":"","ofc_cd":89,"sys_id":2,"sys_cam_id":"22816043","pause":0,"date_type":0,"cam_kind":2,"own_cd":22816}},{"type":"Feature","geometry":{"type":"Point","coordinates":[130.514444444,33.344444444]},"properties":{"id":222816056,"name":"宝満川右岸01K500前川排水機場＿外水位","name_kana":"","ofc_cd":89,"sys_id":2,"sys_cam_id":"22816066","pause":0,"date_type":0,"cam_kind":2,"own_cd":22816}},{"type":"Feature","geometry":{"type":"Point","coordinates":[130.511591666,33.344977777]},"properties":{"id":222816057,"name":"宝満川右岸01K260轟木排水機場＿外水位","name_kana":"","ofc_cd":89,"sys_id":2,"sys_cam_id":"22816067","pause":0,"date_type":0,"cam_kind":2,"own_cd":22816}},{"type":"Feature","geometry":{"type":"Point","coordinates":[130.538888888,33.379166666]},"properties":{"id":310497003,"name":"飯田橋","name_kana":"","ofc_cd":41,"sys_id":3,"sys_cam_id":"41010018","pause":0,"date_type":1,"cam_kind":2,"own_cd":10497}},{"type":"Feature","geometry":{"type":"Point","coordinates":[130.532927777,33.367866666]},"properties":{"id":310497005,"name":"酒井上橋","name_kana":"","ofc_cd":41,"sys_id":3,"sys_cam_id":"41010026","pause":0,"date_type":1,"cam_kind":2,"own_cd":10497}},{"type":"Feature","geometry":{"type":"Point","coordinates":[130.49775,33.361694444]},"properties":{"id":310497006,"name":"幸津橋","name_kana":"","ofc_cd":41,"sys_id":3,"sys_cam_id":"41010030","pause":0,"date_type":1,"cam_kind":2,"own_cd":10497}},{"type":"Feature","geometry":{"type":"Point","coordinates":[130.0793083,33.2582888]},"properties":{"id":122865019,"name":"牛津川22k300L道祖元第2樋管","name_kana":"","ofc_cd":89,"sys_id":1,"sys_cam_id":"22865019","pause":0,"date_type":2,"cam_kind":4,"own_cd":22865}},{"type":"Feature","geometry":{"type":"Point","coordinates":[130.160528,33.275583]},"properties":{"id":122865035,"name":"牛津川12k900右岸","name_kana":"","ofc_cd":89,"sys_id":1,"sys_cam_id":"22865035","pause":0,"date_type":2,"cam_kind":4,"own_cd":22865}},{"type":"Feature","geometry":{"type":"Point","coordinates":[130.145586,33.273832]},"properties":{"id":122865036,"name":"牛津川14k600右岸","name_kana":"","ofc_cd":89,"sys_id":1,"sys_cam_id":"22865036","pause":0,"date_type":2,"cam_kind":4,"own_cd":22865}},{"type":"Feature","geometry":{"type":"Point","coordinates":[130.111218,33.271657]},"properties":{"id":122865037,"name":"牛津川18k500左岸","name_kana":"","ofc_cd":89,"sys_id":1,"sys_cam_id":"22865037","pause":0,"date_type":2,"cam_kind":4,"own_cd":22865}},{"type":"Feature","geometry":{"type":"Point","coordinates":[130.081729,33.259331]},"properties":{"id":122865038,"name":"牛津川22k000右岸","name_kana":"","ofc_cd":89,"sys_id":1,"sys_cam_id":"22865038","pause":0,"date_type":2,"cam_kind":4,"own_cd":22865}},{"type":"Feature","geometry":{"type":"Point","coordinates":[130.140277777,33.271386111]},"properties":{"id":222819020,"name":"牟田辺（排）屋上","name_kana":"","ofc_cd":89,"sys_id":2,"sys_cam_id":"22865029","pause":0,"date_type":0,"cam_kind":2,"own_cd":22865}},{"type":"Feature","geometry":{"type":"Point","coordinates":[130.132805555,33.271763888]},"properties":{"id":222819021,"name":"牟田辺（排）遊水地","name_kana":"","ofc_cd":89,"sys_id":2,"sys_cam_id":"22865030","pause":0,"date_type":0,"cam_kind":2,"own_cd":22865}},{"type":"Feature","geometry":{"type":"Point","coordinates":[130.141663888,33.273052777]},"properties":{"id":222819022,"name":"平瀬橋","name_kana":"","ofc_cd":89,"sys_id":2,"sys_cam_id":"22865031","pause":0,"date_type":0,"cam_kind":2,"own_cd":22865}},{"type":"Feature","geometry":{"type":"Point","coordinates":[130.146386111,33.275555555]},"properties":{"id":222819023,"name":"羽佐間","name_kana":"","ofc_cd":89,"sys_id":2,"sys_cam_id":"22865032","pause":0,"date_type":0,"cam_kind":2,"own_cd":22865}},{"type":"Feature","geometry":{"type":"Point","coordinates":[130.151666666,33.276386111]},"properties":{"id":222819024,"name":"妙見橋","name_kana":"","ofc_cd":89,"sys_id":2,"sys_cam_id":"22865033","pause":0,"date_type":0,"cam_kind":2,"own_cd":22865}},{"type":"Feature","geometry":{"type":"Point","coordinates":[130.176944444,33.260830555]},"properties":{"id":222819026,"name":"山崎","name_kana":"","ofc_cd":89,"sys_id":2,"sys_cam_id":"22865035","pause":0,"date_type":0,"cam_kind":2,"own_cd":22865}},{"type":"Feature","geometry":{"type":"Point","coordinates":[130.181386111,33.252497222]},"properties":{"id":222819027,"name":"晴気川合流点","name_kana":"","ofc_cd":89,"sys_id":2,"sys_cam_id":"22865036","pause":0,"date_type":0,"cam_kind":2,"own_cd":22865}},{"type":"Feature","geometry":{"type":"Point","coordinates":[130.141944444,33.273052777]},"properties":{"id":222819031,"name":"牟田辺（排）越流提","name_kana":"","ofc_cd":89,"sys_id":2,"sys_cam_id":"22865040","pause":0,"date_type":0,"cam_kind":2,"own_cd":22865}},{"type":"Feature","geometry":{"type":"Point","coordinates":[130.093611111,33.265275]},"properties":{"id":222819055,"name":"小井手堰","name_kana":"","ofc_cd":89,"sys_id":2,"sys_cam_id":"22865064","pause":0,"date_type":0,"cam_kind":2,"own_cd":22865}},{"type":"Feature","geometry":{"type":"Point","coordinates":[130.129997222,33.273888888]},"properties":{"id":222819056,"name":"庄川","name_kana":"","ofc_cd":89,"sys_id":2,"sys_cam_id":"22865065","pause":0,"date_type":0,"cam_kind":2,"own_cd":22865}},{"type":"Feature","geometry":{"type":"Point","coordinates":[130.12275,33.273]},"properties":{"id":222819068,"name":"鰐ノ瀬堰","name_kana":"","ofc_cd":89,"sys_id":2,"sys_cam_id":"22865076","pause":0,"date_type":0,"cam_kind":2,"own_cd":22865}},{"type":"Feature","geometry":{"type":"Point","coordinates":[130.1175,33.275388888]},"properties":{"id":222819069,"name":"長尾","name_kana":"","ofc_cd":89,"sys_id":2,"sys_cam_id":"22865077","pause":0,"date_type":0,"cam_kind":2,"own_cd":22865}},{"type":"Feature","geometry":{"type":"Point","coordinates":[130.125694444,33.287916666]},"properties":{"id":310497017,"name":"今出橋","name_kana":"","ofc_cd":41,"sys_id":3,"sys_cam_id":"41010074","pause":0,"date_type":1,"cam_kind":2,"own_cd":10497}},{"type":"Feature","geometry":{"type":"Point","coordinates":[130.093483333,33.285958333]},"properties":{"id":310497018,"name":"北田橋","name_kana":"","ofc_cd":41,"sys_id":3,"sys_cam_id":"41010078","pause":0,"date_type":1,"cam_kind":2,"own_cd":10497}},{"type":"Feature","geometry":{"type":"Point","coordinates":[129.9278388,33.3391888]},"properties":{"id":122865029,"name":"徳須恵川11k800L古里橋下流","name_kana":"","ofc_cd":89,"sys_id":1,"sys_cam_id":"22865029","pause":0,"date_type":2,"cam_kind":4,"own_cd":22865}},{"type":"Feature","geometry":{"type":"Point","coordinates":[129.970555555,33.323333333]},"properties":{"id":222819054,"name":"駒鳴","name_kana":"","ofc_cd":89,"sys_id":2,"sys_cam_id":"22865063","pause":0,"date_type":0,"cam_kind":2,"own_cd":22865}},{"type":"Feature","geometry":{"type":"Point","coordinates":[129.968505555,33.300313888]},"properties":{"id":222819058,"name":"川西橋","name_kana":"","ofc_cd":89,"sys_id":2,"sys_cam_id":"22865067","pause":0,"date_type":0,"cam_kind":2,"own_cd":22865}},{"type":"Feature","geometry":{"type":"Point","coordinates":[129.963052777,33.268330555]},"properties":{"id":222819059,"name":"桃ノ川橋","name_kana":"","ofc_cd":89,"sys_id":2,"sys_cam_id":"22865068","pause":0,"date_type":0,"cam_kind":2,"own_cd":22865}},{"type":"Feature","geometry":{"type":"Point","coordinates":[129.970388888,33.307975]},"properties":{"id":222819063,"name":"大川野（排）空間監視","name_kana":"","ofc_cd":89,"sys_id":2,"sys_cam_id":"22865072","pause":0,"date_type":0,"cam_kind":2,"own_cd":22865}},{"type":"Feature","geometry":{"type":"Point","coordinates":[129.886111111,33.2725]},"properties":{"id":310497026,"name":"岩栗","name_kana":"","ofc_cd":41,"sys_id":3,"sys_cam_id":"41010110","pause":0,"date_type":1,"cam_kind":2,"own_cd":10497}},{"type":"Feature","geometry":{"type":"Point","coordinates":[129.870416666,33.272638888]},"properties":{"id":310497027,"name":"黄金橋","name_kana":"","ofc_cd":41,"sys_id":3,"sys_cam_id":"41010114","pause":0,"date_type":1,"cam_kind":2,"own_cd":10497}},{"type":"Feature","geometry":{"type":"Point","coordinates":[129.853138888,33.243138888]},"properties":{"id":310497028,"name":"長井手","name_kana":"","ofc_cd":41,"sys_id":3,"sys_cam_id":"41010118","pause":0,"date_type":1,"cam_kind":2,"own_cd":10497}},{"type":"Feature","geometry":{"type":"Point","coordinates":[130.04717,33.171611]},"properties":{"id":122865033,"name":"六角川30k800左岸","name_kana":"","ofc_cd":89,"sys_id":1,"sys_cam_id":"22865033","pause":0,"date_type":2,"cam_kind":4,"own_cd":22865}},{"type":"Feature","geometry":{"type":"Point","coordinates":[130.047777777,33.175275]},"properties":{"id":222819001,"name":"潮見橋","name_kana":"","ofc_cd":89,"sys_id":2,"sys_cam_id":"22865009","pause":0,"date_type":0,"cam_kind":2,"own_cd":22865}},{"type":"Feature","geometry":{"type":"Point","coordinates":[130.048611111,33.185552777]},"properties":{"id":222819002,"name":"大日堰","name_kana":"","ofc_cd":89,"sys_id":2,"sys_cam_id":"22865010","pause":0,"date_type":0,"cam_kind":2,"own_cd":22865}},{"type":"Feature","geometry":{"type":"Point","coordinates":[130.053333333,33.192497222]},"properties":{"id":222819003,"name":"東川水門","name_kana":"","ofc_cd":89,"sys_id":2,"sys_cam_id":"22865011","pause":0,"date_type":0,"cam_kind":2,"own_cd":22865}},{"type":"Feature","geometry":{"type":"Point","coordinates":[130.051666666,33.205555555]},"properties":{"id":222819004,"name":"板橋（排）屋上","name_kana":"","ofc_cd":89,"sys_id":2,"sys_cam_id":"22865012","pause":0,"date_type":0,"cam_kind":2,"own_cd":22865}},{"type":"Feature","geometry":{"type":"Point","coordinates":[130.051666666,33.205555555]},"properties":{"id":222819005,"name":"板橋（排）板橋水門","name_kana":"","ofc_cd":89,"sys_id":2,"sys_cam_id":"22865013","pause":0,"date_type":0,"cam_kind":2,"own_cd":22865}},{"type":"Feature","geometry":{"type":"Point","coordinates":[130.043886111,33.207777777]},"properties":{"id":222819006,"name":"高橋（排）屋上西側","name_kana":"","ofc_cd":89,"sys_id":2,"sys_cam_id":"22865014","pause":0,"date_type":0,"cam_kind":2,"own_cd":22865}},{"type":"Feature","geometry":{"type":"Point","coordinates":[130.043886111,33.207777777]},"properties":{"id":222819007,"name":"高橋（排）屋上東側","name_kana":"","ofc_cd":89,"sys_id":2,"sys_cam_id":"22865015","pause":0,"date_type":0,"cam_kind":2,"own_cd":22865}},{"type":"Feature","geometry":{"type":"Point","coordinates":[130.043886111,33.207777777]},"properties":{"id":222819008,"name":"高橋（排）甘久水門","name_kana":"","ofc_cd":89,"sys_id":2,"sys_cam_id":"22865016","pause":0,"date_type":0,"cam_kind":2,"own_cd":22865}},{"type":"Feature","geometry":{"type":"Point","coordinates":[130.054722222,33.209722222]},"properties":{"id":222819009,"name":"武雄川合流点","name_kana":"","ofc_cd":89,"sys_id":2,"sys_cam_id":"22865017","pause":0,"date_type":0,"cam_kind":2,"own_cd":22865}},{"type":"Feature","geometry":{"type":"Point","coordinates":[130.0575,33.212222222]},"properties":{"id":222819010,"name":"川添川（排）屋上","name_kana":"","ofc_cd":89,"sys_id":2,"sys_cam_id":"22865018","pause":0,"date_type":0,"cam_kind":2,"own_cd":22865}},{"type":"Feature","geometry":{"type":"Point","coordinates":[130.0575,33.212222222]},"properties":{"id":222819011,"name":"川添川（排）川添水門","name_kana":"","ofc_cd":89,"sys_id":2,"sys_cam_id":"22865019","pause":0,"date_type":0,"cam_kind":2,"own_cd":22865}},{"type":"Feature","geometry":{"type":"Point","coordinates":[130.066388888,33.213055555]},"properties":{"id":222819012,"name":"医王寺","name_kana":"","ofc_cd":89,"sys_id":2,"sys_cam_id":"22865020","pause":0,"date_type":0,"cam_kind":2,"own_cd":22865}},{"type":"Feature","geometry":{"type":"Point","coordinates":[130.088055555,33.213333333]},"properties":{"id":222819013,"name":"蔵堂","name_kana":"","ofc_cd":89,"sys_id":2,"sys_cam_id":"22865022","pause":0,"date_type":0,"cam_kind":2,"own_cd":22865}},{"type":"Feature","geometry":{"type":"Point","coordinates":[130.088333333,33.214444444]},"properties":{"id":222819014,"name":"焼米（排）焼米水門外水","name_kana":"","ofc_cd":89,"sys_id":2,"sys_cam_id":"22865023","pause":0,"date_type":0,"cam_kind":2,"own_cd":22865}},{"type":"Feature","geometry":{"type":"Point","coordinates":[130.088333333,33.214444444]},"properties":{"id":222819015,"name":"焼米（排）焼米水門内水","name_kana":"","ofc_cd":89,"sys_id":2,"sys_cam_id":"22865024","pause":0,"date_type":0,"cam_kind":2,"own_cd":22865}},{"type":"Feature","geometry":{"type":"Point","coordinates":[130.088333333,33.214444444]},"properties":{"id":222819016,"name":"焼米（排）赤坂水門外水","name_kana":"","ofc_cd":89,"sys_id":2,"sys_cam_id":"22865025","pause":0,"date_type":0,"cam_kind":2,"own_cd":22865}},{"type":"Feature","geometry":{"type":"Point","coordinates":[130.045830555,33.208333333]},"properties":{"id":222819062,"name":"高橋水門","name_kana":"","ofc_cd":89,"sys_id":2,"sys_cam_id":"22865071","pause":0,"date_type":0,"cam_kind":2,"own_cd":22865}},{"type":"Feature","geometry":{"type":"Point","coordinates":[130.076386111,33.2125]},"properties":{"id":222819066,"name":"新橋","name_kana":"","ofc_cd":89,"sys_id":2,"sys_cam_id":"41010021","pause":0,"date_type":0,"cam_kind":2,"own_cd":22865}},{"type":"Feature","geometry":{"type":"Point","coordinates":[130.030277777,33.193333333]},"properties":{"id":310497019,"name":"杉橋","name_kana":"","ofc_cd":41,"sys_id":3,"sys_cam_id":"41010082","pause":0,"date_type":1,"cam_kind":2,"own_cd":10497}},{"type":"Feature","geometry":{"type":"Point","coordinates":[130.039166666,33.212777777]},"properties":{"id":310497020,"name":"髙橋","name_kana":"","ofc_cd":41,"sys_id":3,"sys_cam_id":"41010086","pause":0,"date_type":1,"cam_kind":2,"own_cd":10497}},{"type":"Feature","geometry":{"type":"Point","coordinates":[129.964194444,33.227555555]},"properties":{"id":310497023,"name":"武内","name_kana":"","ofc_cd":41,"sys_id":3,"sys_cam_id":"41010098","pause":0,"date_type":1,"cam_kind":2,"own_cd":10497}},{"type":"Feature","geometry":{"type":"Point","coordinates":[130.089777777,33.113727777]},"properties":{"id":310497031,"name":"組知橋","name_kana":"","ofc_cd":41,"sys_id":3,"sys_cam_id":"41010130","pause":0,"date_type":1,"cam_kind":2,"own_cd":10497}},{"type":"Feature","geometry":{"type":"Point","coordinates":[130.067397222,33.078516666]},"properties":{"id":310497032,"name":"巌橋","name_kana":"","ofc_cd":41,"sys_id":3,"sys_cam_id":"41010134","pause":0,"date_type":1,"cam_kind":2,"own_cd":10497}},{"type":"Feature","geometry":{"type":"Point","coordinates":[130.104261111,33.092702777]},"properties":{"id":310497033,"name":"石木津","name_kana":"","ofc_cd":41,"sys_id":3,"sys_cam_id":"41010138","pause":0,"date_type":1,"cam_kind":2,"own_cd":10497}},{"type":"Feature","geometry":{"type":"Point","coordinates":[130.2347416,33.2713166]},"properties":{"id":122865032,"name":"祇園川1k600R深町水位観測所","name_kana":"","ofc_cd":89,"sys_id":1,"sys_cam_id":"22865032","pause":0,"date_type":2,"cam_kind":4,"own_cd":22865}},{"type":"Feature","geometry":{"type":"Point","coordinates":[130.180791,33.257575]},"properties":{"id":122865034,"name":"牛津川9k500左岸","name_kana":"","ofc_cd":89,"sys_id":1,"sys_cam_id":"22865034","pause":0,"date_type":2,"cam_kind":4,"own_cd":22865}},{"type":"Feature","geometry":{"type":"Point","coordinates":[130.166111111,33.276663888]},"properties":{"id":222819025,"name":"船津","name_kana":"","ofc_cd":89,"sys_id":2,"sys_cam_id":"22865034","pause":0,"date_type":0,"cam_kind":2,"own_cd":22865}},{"type":"Feature","geometry":{"type":"Point","coordinates":[130.190555555,33.246111111]},"properties":{"id":222819028,"name":"牛津出張所屋上","name_kana":"","ofc_cd":89,"sys_id":2,"sys_cam_id":"22865037","pause":0,"date_type":0,"cam_kind":2,"own_cd":22865}},{"type":"Feature","geometry":{"type":"Point","coordinates":[130.194997222,33.246386111]},"properties":{"id":222819029,"name":"牛津江排水機場屋上","name_kana":"","ofc_cd":89,"sys_id":2,"sys_cam_id":"22865038","pause":0,"date_type":0,"cam_kind":2,"own_cd":22865}},{"type":"Feature","geometry":{"type":"Point","coordinates":[130.194997222,33.246386111]},"properties":{"id":222819030,"name":"牛津江（排）水門対岸","name_kana":"","ofc_cd":89,"sys_id":2,"sys_cam_id":"22865039","pause":0,"date_type":0,"cam_kind":2,"own_cd":22865}},{"type":"Feature","geometry":{"type":"Point","coordinates":[130.185833333,33.228888888]},"properties":{"id":222819032,"name":"水管橋","name_kana":"","ofc_cd":89,"sys_id":2,"sys_cam_id":"22865041","pause":0,"date_type":0,"cam_kind":2,"own_cd":22865}},{"type":"Feature","geometry":{"type":"Point","coordinates":[130.188611111,33.235277777]},"properties":{"id":222819033,"name":"満神","name_kana":"","ofc_cd":89,"sys_id":2,"sys_cam_id":"22865042","pause":0,"date_type":0,"cam_kind":2,"own_cd":22865}},{"type":"Feature","geometry":{"type":"Point","coordinates":[130.190555555,33.236111111]},"properties":{"id":222819034,"name":"虎坊","name_kana":"","ofc_cd":89,"sys_id":2,"sys_cam_id":"22865043","pause":0,"date_type":0,"cam_kind":2,"own_cd":22865}},{"type":"Feature","geometry":{"type":"Point","coordinates":[130.196388888,33.241666666]},"properties":{"id":222819035,"name":"友田","name_kana":"","ofc_cd":89,"sys_id":2,"sys_cam_id":"22865044","pause":0,"date_type":0,"cam_kind":2,"own_cd":22865}},{"type":"Feature","geometry":{"type":"Point","coordinates":[130.195555555,33.223333333]},"properties":{"id":222819040,"name":"三条川","name_kana":"","ofc_cd":89,"sys_id":2,"sys_cam_id":"22865049","pause":0,"date_type":0,"cam_kind":2,"own_cd":22865}},{"type":"Feature","geometry":{"type":"Point","coordinates":[130.195830555,33.2225]},"properties":{"id":222819042,"name":"三条（排）排水樋管","name_kana":"","ofc_cd":89,"sys_id":2,"sys_cam_id":"22865051","pause":0,"date_type":0,"cam_kind":2,"own_cd":22865}},{"type":"Feature","geometry":{"type":"Point","coordinates":[130.201663888,33.205555555]},"properties":{"id":222819043,"name":"弁財（排）空間監視","name_kana":"","ofc_cd":89,"sys_id":2,"sys_cam_id":"22865052","pause":0,"date_type":0,"cam_kind":2,"own_cd":22865}},{"type":"Feature","geometry":{"type":"Point","coordinates":[130.197222222,33.200277777]},"properties":{"id":222819061,"name":"住ノ江","name_kana":"","ofc_cd":89,"sys_id":2,"sys_cam_id":"22865070","pause":0,"date_type":0,"cam_kind":2,"own_cd":22865}},{"type":"Feature","geometry":{"type":"Point","coordinates":[130.190944444,33.231361111]},"properties":{"id":222819067,"name":"川越","name_kana":"","ofc_cd":89,"sys_id":2,"sys_cam_id":"22865075","pause":0,"date_type":0,"cam_kind":2,"own_cd":22865}},{"type":"Feature","geometry":{"type":"Point","coordinates":[130.203388888,33.303666666]},"properties":{"id":310497013,"name":"祇園","name_kana":"","ofc_cd":41,"sys_id":3,"sys_cam_id":"41010058","pause":0,"date_type":1,"cam_kind":2,"own_cd":10497}},{"type":"Feature","geometry":{"type":"Point","coordinates":[130.2,33.248333333]},"properties":{"id":310497015,"name":"牛津江","name_kana":"","ofc_cd":41,"sys_id":3,"sys_cam_id":"41010066","pause":0,"date_type":1,"cam_kind":2,"own_cd":10497}},{"type":"Feature","geometry":{"type":"Point","coordinates":[130.186944444,33.275]},"properties":{"id":310497016,"name":"船田橋","name_kana":"","ofc_cd":41,"sys_id":3,"sys_cam_id":"41010070","pause":0,"date_type":1,"cam_kind":2,"own_cd":10497}},{"type":"Feature","geometry":{"type":"Point","coordinates":[130.060083333,33.125583333]},"properties":{"id":310497030,"name":"塩田橋","name_kana":"","ofc_cd":41,"sys_id":3,"sys_cam_id":"41010126","pause":0,"date_type":1,"cam_kind":2,"own_cd":10497}},{"type":"Feature","geometry":{"type":"Point","coordinates":[130.3722528,33.27474722]},"properties":{"id":122819001,"name":"城原川３ｋ５３０直鳥橋","name_kana":"","ofc_cd":89,"sys_id":1,"sys_cam_id":"22819001","pause":0,"date_type":2,"cam_kind":4,"own_cd":22819}},{"type":"Feature","geometry":{"type":"Point","coordinates":[130.3670361,33.31831111]},"properties":{"id":122819002,"name":"城原川８ｋ５４０ふるさと大橋","name_kana":"","ofc_cd":89,"sys_id":1,"sys_cam_id":"22819002","pause":0,"date_type":2,"cam_kind":4,"own_cd":22819}},{"type":"Feature","geometry":{"type":"Point","coordinates":[130.3670361,33.31831111]},"properties":{"id":122819003,"name":"城原川８ｋ５４０ふるさと大橋上流","name_kana":"","ofc_cd":89,"sys_id":1,"sys_cam_id":"22819003","pause":0,"date_type":0,"cam_kind":4,"own_cd":22819}},{"type":"Feature","geometry":{"type":"Point","coordinates":[130.402166666,33.252383333]},"properties":{"id":222816030,"name":"浮島排水機場＿内水位","name_kana":"","ofc_cd":89,"sys_id":2,"sys_cam_id":"22816040","pause":0,"date_type":0,"cam_kind":2,"own_cd":22816}},{"type":"Feature","geometry":{"type":"Point","coordinates":[130.402222222,33.250555555]},"properties":{"id":222816062,"name":"筑後川右岸12K325浮島排水機場＿外水位","name_kana":"","ofc_cd":89,"sys_id":2,"sys_cam_id":"22816072","pause":0,"date_type":0,"cam_kind":2,"own_cd":22816}},{"type":"Feature","geometry":{"type":"Point","coordinates":[130.366666666,33.313608333]},"properties":{"id":222819071,"name":"城原川07Ｋ650右岸日出来橋水位観測所","name_kana":"","ofc_cd":89,"sys_id":2,"sys_cam_id":"22819001","pause":0,"date_type":0,"cam_kind":2,"own_cd":22819}},{"type":"Feature","geometry":{"type":"Point","coordinates":[130.366802777,33.312511111]},"properties":{"id":222819072,"name":"城原川右岸07K800屋敷橋","name_kana":"","ofc_cd":89,"sys_id":2,"sys_cam_id":"22819002","pause":0,"date_type":0,"cam_kind":2,"own_cd":22819}},{"type":"Feature","geometry":{"type":"Point","coordinates":[130.368666666,33.292905555]},"properties":{"id":222819073,"name":"城原川左岸05K600夫婦井樋橋","name_kana":"","ofc_cd":89,"sys_id":2,"sys_cam_id":"22819003","pause":0,"date_type":0,"cam_kind":2,"own_cd":22819}},{"type":"Feature","geometry":{"type":"Point","coordinates":[130.393886111,33.276944444]},"properties":{"id":222819074,"name":"城東橋下流","name_kana":"","ofc_cd":89,"sys_id":2,"sys_cam_id":"22819004","pause":0,"date_type":0,"cam_kind":2,"own_cd":22819}},{"type":"Feature","geometry":{"type":"Point","coordinates":[130.364844444,33.340783333]},"properties":{"id":310497010,"name":"朝日橋","name_kana":"","ofc_cd":41,"sys_id":3,"sys_cam_id":"41010046","pause":0,"date_type":1,"cam_kind":2,"own_cd":10497}},{"type":"Feature","geometry":{"type":"Point","coordinates":[130.387825,33.315227777]},"properties":{"id":310497009,"name":"広円橋","name_kana":"","ofc_cd":41,"sys_id":3,"sys_cam_id":"41010042","pause":0,"date_type":1,"cam_kind":2,"own_cd":10497}},{"type":"Feature","geometry":{"type":"Point","coordinates":[130.523825,33.417594444]},"properties":{"id":310497004,"name":"牛会橋","name_kana":"","ofc_cd":41,"sys_id":3,"sys_cam_id":"41010022","pause":0,"date_type":1,"cam_kind":2,"own_cd":10497}},{"type":"Feature","geometry":{"type":"Point","coordinates":[130.428494444,33.272080555]},"properties":{"id":222816097,"name":"江見排水機場＿内水位","name_kana":"","ofc_cd":89,"sys_id":2,"sys_cam_id":"22816107","pause":0,"date_type":0,"cam_kind":2,"own_cd":22816}},{"type":"Feature","geometry":{"type":"Point","coordinates":[130.458888888,33.329583333]},"properties":{"id":310497007,"name":"小原橋","name_kana":"","ofc_cd":41,"sys_id":3,"sys_cam_id":"41010034","pause":0,"date_type":1,"cam_kind":2,"own_cd":10497}},{"type":"Feature","geometry":{"type":"Point","coordinates":[130.449027777,33.321083333]},"properties":{"id":310497008,"name":"中津隈8号橋","name_kana":"","ofc_cd":41,"sys_id":3,"sys_cam_id":"41010038","pause":0,"date_type":1,"cam_kind":2,"own_cd":10497}},{"type":"Feature","geometry":{"type":"Point","coordinates":[129.893888888,33.174333333]},"properties":{"id":310497029,"name":"菅野橋","name_kana":"","ofc_cd":41,"sys_id":3,"sys_cam_id":"41010122","pause":0,"date_type":1,"cam_kind":2,"own_cd":10497}},{"type":"Feature","geometry":{"type":"Point","coordinates":[130.101225,33.207647]},"properties":{"id":122865020,"name":"六角川21k430L玉江排水樋管","name_kana":"","ofc_cd":89,"sys_id":1,"sys_cam_id":"22865020","pause":0,"date_type":2,"cam_kind":4,"own_cd":22865}},{"type":"Feature","geometry":{"type":"Point","coordinates":[130.103330555,33.202222222]},"properties":{"id":222819017,"name":"大町橋","name_kana":"","ofc_cd":89,"sys_id":2,"sys_cam_id":"22865026","pause":0,"date_type":0,"cam_kind":2,"own_cd":22865}},{"type":"Feature","geometry":{"type":"Point","coordinates":[130.110555555,33.210833333]},"properties":{"id":222819018,"name":"大町","name_kana":"","ofc_cd":89,"sys_id":2,"sys_cam_id":"22865027","pause":0,"date_type":0,"cam_kind":2,"own_cd":22865}},{"type":"Feature","geometry":{"type":"Point","coordinates":[130.127777777,33.206386111]},"properties":{"id":222819019,"name":"八ツ江","name_kana":"","ofc_cd":89,"sys_id":2,"sys_cam_id":"22865028","pause":0,"date_type":0,"cam_kind":2,"own_cd":22865}},{"type":"Feature","geometry":{"type":"Point","coordinates":[130.115736111,33.200577777]},"properties":{"id":222819065,"name":"馬田橋","name_kana":"","ofc_cd":89,"sys_id":2,"sys_cam_id":"22865074","pause":0,"date_type":0,"cam_kind":2,"own_cd":22865}},{"type":"Feature","geometry":{"type":"Point","coordinates":[130.185275,33.205833333]},"properties":{"id":222819041,"name":"鳴江（排）外水／空間監視","name_kana":"","ofc_cd":89,"sys_id":2,"sys_cam_id":"22865050","pause":0,"date_type":0,"cam_kind":2,"own_cd":22865}},{"type":"Feature","geometry":{"type":"Point","coordinates":[130.155277777,33.193886111]},"properties":{"id":222819044,"name":"東古川（排）排水樋門","name_kana":"","ofc_cd":89,"sys_id":2,"sys_cam_id":"22865053","pause":0,"date_type":0,"cam_kind":2,"own_cd":22865}},{"type":"Feature","geometry":{"type":"Point","coordinates":[130.150275,33.194441666]},"properties":{"id":222819045,"name":"西古川（排）空間監視","name_kana":"","ofc_cd":89,"sys_id":2,"sys_cam_id":"22865054","pause":0,"date_type":0,"cam_kind":2,"own_cd":22865}},{"type":"Feature","geometry":{"type":"Point","coordinates":[130.142219444,33.205555555]},"properties":{"id":222819060,"name":"大西","name_kana":"","ofc_cd":89,"sys_id":2,"sys_cam_id":"22865069","pause":0,"date_type":0,"cam_kind":2,"own_cd":22865}},{"type":"Feature","geometry":{"type":"Point","coordinates":[130.191944444,33.204166666]},"properties":{"id":222819036,"name":"河口堰下流左岸","name_kana":"","ofc_cd":89,"sys_id":2,"sys_cam_id":"22865045","pause":0,"date_type":0,"cam_kind":2,"own_cd":22865}},{"type":"Feature","geometry":{"type":"Point","coordinates":[130.190830555,33.2025]},"properties":{"id":222819037,"name":"河口堰下流右岸","name_kana":"","ofc_cd":89,"sys_id":2,"sys_cam_id":"22865046","pause":0,"date_type":0,"cam_kind":2,"own_cd":22865}},{"type":"Feature","geometry":{"type":"Point","coordinates":[130.189997222,33.205]},"properties":{"id":222819038,"name":"河口堰上流左岸","name_kana":"","ofc_cd":89,"sys_id":2,"sys_cam_id":"22865047","pause":0,"date_type":0,"cam_kind":2,"own_cd":22865}},{"type":"Feature","geometry":{"type":"Point","coordinates":[130.188055555,33.203055555]},"properties":{"id":222819039,"name":"河口堰上流右岸","name_kana":"","ofc_cd":89,"sys_id":2,"sys_cam_id":"22865048","pause":0,"date_type":0,"cam_kind":2,"own_cd":22865}}]}