{"type":"FeatureCollection","crs":{"type":"name","properties":{"name":"EPSG:4326"}},"features":[{"type":"Feature","geometry":{"type":"Point","coordinates":[133.52394,34.928326]},"properties":{"id":108449022,"name":"高梁川／新見市井倉（井倉連絡橋）","name_kana":"","ofc_cd":87,"sys_id":1,"sys_cam_id":"8449022","pause":0,"date_type":1,"cam_kind":4,"own_cd":8449}},{"type":"Feature","geometry":{"type":"Point","coordinates":[133.497188,34.952085]},"properties":{"id":108449023,"name":"高梁川／新見市唐松（小坂部川合流部）","name_kana":"","ofc_cd":87,"sys_id":1,"sys_cam_id":"8449023","pause":0,"date_type":1,"cam_kind":4,"own_cd":8449}},{"type":"Feature","geometry":{"type":"Point","coordinates":[133.458542,34.96]},"properties":{"id":108449030,"name":"西川／新見市金谷（河本ダム）","name_kana":"","ofc_cd":87,"sys_id":1,"sys_cam_id":"8449030","pause":0,"date_type":1,"cam_kind":4,"own_cd":8449}},{"type":"Feature","geometry":{"type":"Point","coordinates":[133.568143,35.084833]},"properties":{"id":108449049,"name":"小坂部川／新見市大佐小阪部（新矢矧橋）","name_kana":"","ofc_cd":87,"sys_id":1,"sys_cam_id":"8449049","pause":0,"date_type":1,"cam_kind":4,"own_cd":8449}},{"type":"Feature","geometry":{"type":"Point","coordinates":[133.45681,34.98855]},"properties":{"id":108449076,"name":"高梁川／新見市高尾（昭和橋）","name_kana":"","ofc_cd":87,"sys_id":1,"sys_cam_id":"8449076","pause":0,"date_type":1,"cam_kind":4,"own_cd":8449}},{"type":"Feature","geometry":{"type":"Point","coordinates":[133.4573075,34.9885186]},"properties":{"id":13301210001,"name":"高梁川／新見駅前（昭和橋）","name_kana":"","ofc_cd":87,"sys_id":1,"sys_cam_id":"3301210001","pause":0,"date_type":1,"cam_kind":4,"own_cd":3301210}},{"type":"Feature","geometry":{"type":"Point","coordinates":[133.4653037,34.9880224]},"properties":{"id":13301210002,"name":"高梁川・熊谷川合流付近（小川橋）","name_kana":"","ofc_cd":87,"sys_id":1,"sys_cam_id":"3301210002","pause":0,"date_type":1,"cam_kind":4,"own_cd":3301210}},{"type":"Feature","geometry":{"type":"Point","coordinates":[133.4645201,34.9851472]},"properties":{"id":13301210003,"name":"高梁川・熊谷川合流付近（江道橋）","name_kana":"","ofc_cd":87,"sys_id":1,"sys_cam_id":"3301210003","pause":0,"date_type":1,"cam_kind":4,"own_cd":3301210}},{"type":"Feature","geometry":{"type":"Point","coordinates":[133.4699305,34.977025]},"properties":{"id":13301210004,"name":"高梁川／新見市役所付近（金谷橋）","name_kana":"","ofc_cd":87,"sys_id":1,"sys_cam_id":"3301210004","pause":0,"date_type":1,"cam_kind":4,"own_cd":3301210}},{"type":"Feature","geometry":{"type":"Point","coordinates":[133.4659958,34.9621132]},"properties":{"id":13301210005,"name":"高梁川・本郷川合流付近（正田橋）","name_kana":"","ofc_cd":87,"sys_id":1,"sys_cam_id":"3301210005","pause":0,"date_type":1,"cam_kind":4,"own_cd":3301210}},{"type":"Feature","geometry":{"type":"Point","coordinates":[133.4808664,34.9550464]},"properties":{"id":13301210006,"name":"高梁川／新見南中学校付近（上広瀬橋）","name_kana":"","ofc_cd":87,"sys_id":1,"sys_cam_id":"3301210006","pause":0,"date_type":1,"cam_kind":4,"own_cd":3301210}},{"type":"Feature","geometry":{"type":"Point","coordinates":[133.4914885,34.93912526]},"properties":{"id":13301210007,"name":"高梁川／下長屋遊歩道橋付近","name_kana":"","ofc_cd":87,"sys_id":1,"sys_cam_id":"3301210007","pause":0,"date_type":1,"cam_kind":4,"own_cd":3301210}},{"type":"Feature","geometry":{"type":"Point","coordinates":[133.397645,34.9928088]},"properties":{"id":13301210008,"name":"神代川／神郷支局付近（安実橋）","name_kana":"","ofc_cd":87,"sys_id":1,"sys_cam_id":"3301210008","pause":0,"date_type":1,"cam_kind":4,"own_cd":3301210}}]}