{"type":"FeatureCollection","crs":{"type":"name","properties":{"name":"EPSG:4326"}},"features":[{"type":"Feature","geometry":{"type":"Point","coordinates":[139.4148175,35.6677175]},"properties":{"id":121320175,"name":"浅川左岸 1.6k","name_kana":"","ofc_cd":83,"sys_id":1,"sys_cam_id":"21320175","pause":0,"date_type":2,"cam_kind":4,"own_cd":21320}},{"type":"Feature","geometry":{"type":"Point","coordinates":[139.3786003,35.6468617]},"properties":{"id":121320250,"name":"浅川右岸 5.9k","name_kana":"","ofc_cd":83,"sys_id":1,"sys_cam_id":"21320250","pause":0,"date_type":2,"cam_kind":4,"own_cd":21320}},{"type":"Feature","geometry":{"type":"Point","coordinates":[139.4044583,35.6659889]},"properties":{"id":221320011,"name":"高幡橋上流","name_kana":"","ofc_cd":83,"sys_id":2,"sys_cam_id":"13010020","pause":0,"date_type":0,"cam_kind":2,"own_cd":21320}},{"type":"Feature","geometry":{"type":"Point","coordinates":[139.41017,35.66419]},"properties":{"id":221320034,"name":"高幡橋水位観測所","name_kana":"たかはたばしすいいかんそくじょ","ofc_cd":83,"sys_id":2,"sys_cam_id":"21320009","pause":0,"date_type":0,"cam_kind":2,"own_cd":21320}},{"type":"Feature","geometry":{"type":"Point","coordinates":[139.3811,35.64958]},"properties":{"id":221320035,"name":"平山橋上流","name_kana":"ひらやまばしじょうりゅう","ofc_cd":83,"sys_id":2,"sys_cam_id":"21320010","pause":0,"date_type":0,"cam_kind":2,"own_cd":21320}},{"type":"Feature","geometry":{"type":"Point","coordinates":[139.39427,35.68545]},"properties":{"id":221320042,"name":"栄町排水樋管","name_kana":"さかえちょうはいすいひかん","ofc_cd":83,"sys_id":2,"sys_cam_id":"21320017","pause":0,"date_type":0,"cam_kind":2,"own_cd":21320}}]}