{"type":"FeatureCollection","crs":{"type":"name","properties":{"name":"EPSG:4326"}},"features":[{"type":"Feature","geometry":{"type":"Point","coordinates":[141.5202778,39.3386111]},"properties":{"id":100769102,"name":"光興寺橋","name_kana":"","ofc_cd":82,"sys_id":1,"sys_cam_id":"769102","pause":0,"date_type":1,"cam_kind":4,"own_cd":769}},{"type":"Feature","geometry":{"type":"Point","coordinates":[141.402262,39.300109]},"properties":{"id":100769103,"name":"沢田橋","name_kana":"","ofc_cd":82,"sys_id":1,"sys_cam_id":"769103","pause":0,"date_type":1,"cam_kind":4,"own_cd":769}},{"type":"Feature","geometry":{"type":"Point","coordinates":[141.5283333,39.3283333]},"properties":{"id":100769104,"name":"東舘","name_kana":"","ofc_cd":82,"sys_id":1,"sys_cam_id":"769104","pause":0,"date_type":1,"cam_kind":4,"own_cd":769}},{"type":"Feature","geometry":{"type":"Point","coordinates":[141.53347194,39.33541638]},"properties":{"id":100769105,"name":"上早瀬橋下流","name_kana":"","ofc_cd":82,"sys_id":1,"sys_cam_id":"769105","pause":0,"date_type":1,"cam_kind":4,"own_cd":769}},{"type":"Feature","geometry":{"type":"Point","coordinates":[141.5669444,39.3580556]},"properties":{"id":100769106,"name":"福泉寺橋","name_kana":"","ofc_cd":82,"sys_id":1,"sys_cam_id":"769106","pause":0,"date_type":1,"cam_kind":4,"own_cd":769}}]}