{"type":"FeatureCollection","crs":{"type":"name","properties":{"name":"EPSG:4326"}},"features":[{"type":"Feature","geometry":{"type":"Point","coordinates":[140.360265,38.2485134]},"properties":{"id":101537002,"name":"馬見ヶ崎川（愛宕橋付近）","name_kana":"","ofc_cd":82,"sys_id":1,"sys_cam_id":"1537002","pause":0,"date_type":2,"cam_kind":4,"own_cd":1537}},{"type":"Feature","geometry":{"type":"Point","coordinates":[140.3209897,38.3174809]},"properties":{"id":101537003,"name":"馬見ヶ崎川（諏訪橋付近）","name_kana":"","ofc_cd":82,"sys_id":1,"sys_cam_id":"1537003","pause":0,"date_type":2,"cam_kind":4,"own_cd":1537}},{"type":"Feature","geometry":{"type":"Point","coordinates":[140.336695,38.299468]},"properties":{"id":101537004,"name":"馬見ヶ崎川（右京橋付近）","name_kana":"","ofc_cd":82,"sys_id":1,"sys_cam_id":"1537004","pause":0,"date_type":2,"cam_kind":4,"own_cd":1537}},{"type":"Feature","geometry":{"type":"Point","coordinates":[140.349956,38.299906]},"properties":{"id":101537005,"name":"村山高瀬川（北柳橋付近）","name_kana":"","ofc_cd":82,"sys_id":1,"sys_cam_id":"1537005","pause":0,"date_type":2,"cam_kind":4,"own_cd":1537}},{"type":"Feature","geometry":{"type":"Point","coordinates":[140.429564,38.311053]},"properties":{"id":101537006,"name":"立谷川（山寺芭蕉橋付近）","name_kana":"","ofc_cd":82,"sys_id":1,"sys_cam_id":"1537006","pause":0,"date_type":2,"cam_kind":4,"own_cd":1537}},{"type":"Feature","geometry":{"type":"Point","coordinates":[140.388064,38.242764]},"properties":{"id":101537016,"name":"馬見ヶ崎川（唐松橋付近）","name_kana":"","ofc_cd":82,"sys_id":1,"sys_cam_id":"1537016","pause":0,"date_type":2,"cam_kind":4,"own_cd":1537}},{"type":"Feature","geometry":{"type":"Point","coordinates":[140.311815,38.217675]},"properties":{"id":101537093,"name":"須川（常盤橋付近）","name_kana":"","ofc_cd":82,"sys_id":1,"sys_cam_id":"1537093","pause":0,"date_type":1,"cam_kind":4,"own_cd":1537}},{"type":"Feature","geometry":{"type":"Point","coordinates":[140.3074756,38.3304689]},"properties":{"id":121053187,"name":"馬見ヶ崎川合流簡易カメラ","name_kana":"まみがさきがわごうりゅうかんいかめら","ofc_cd":82,"sys_id":1,"sys_cam_id":"21053187","pause":0,"date_type":2,"cam_kind":4,"own_cd":21053}},{"type":"Feature","geometry":{"type":"Point","coordinates":[140.300079,38.312124]},"properties":{"id":121053195,"name":"貴船川簡易カメラ","name_kana":"きぶねがわかんいかめら","ofc_cd":82,"sys_id":1,"sys_cam_id":"21053195","pause":0,"date_type":2,"cam_kind":4,"own_cd":21053}},{"type":"Feature","geometry":{"type":"Point","coordinates":[140.309444,38.335]},"properties":{"id":221053048,"name":"中野目橋","name_kana":"","ofc_cd":82,"sys_id":2,"sys_cam_id":"21053045","pause":0,"date_type":0,"cam_kind":2,"own_cd":21053}},{"type":"Feature","geometry":{"type":"Point","coordinates":[140.303647,38.317481]},"properties":{"id":221053049,"name":"貴船川水門","name_kana":"","ofc_cd":82,"sys_id":2,"sys_cam_id":"21053057","pause":0,"date_type":0,"cam_kind":2,"own_cd":21053}},{"type":"Feature","geometry":{"type":"Point","coordinates":[140.291667,38.310556]},"properties":{"id":221053050,"name":"船町橋","name_kana":"","ofc_cd":82,"sys_id":2,"sys_cam_id":"21053046","pause":0,"date_type":0,"cam_kind":2,"own_cd":21053}},{"type":"Feature","geometry":{"type":"Point","coordinates":[140.279922,38.291697]},"properties":{"id":221053051,"name":"鮨洗水位観測所","name_kana":"","ofc_cd":82,"sys_id":2,"sys_cam_id":"21053018","pause":0,"date_type":0,"cam_kind":2,"own_cd":21053}},{"type":"Feature","geometry":{"type":"Point","coordinates":[140.279739,38.281676]},"properties":{"id":221053052,"name":"志戸田排水樋管","name_kana":"","ofc_cd":82,"sys_id":2,"sys_cam_id":"21053058","pause":0,"date_type":0,"cam_kind":2,"own_cd":21053}},{"type":"Feature","geometry":{"type":"Point","coordinates":[140.278619,38.268069]},"properties":{"id":221053054,"name":"王川排水樋門","name_kana":"","ofc_cd":82,"sys_id":2,"sys_cam_id":"21053059","pause":0,"date_type":0,"cam_kind":2,"own_cd":21053}},{"type":"Feature","geometry":{"type":"Point","coordinates":[140.278036,38.260047]},"properties":{"id":221053055,"name":"飯塚橋","name_kana":"","ofc_cd":82,"sys_id":2,"sys_cam_id":"21053049","pause":0,"date_type":0,"cam_kind":2,"own_cd":21053}},{"type":"Feature","geometry":{"type":"Point","coordinates":[140.2793146,38.2681883]},"properties":{"id":10601201001,"name":"山形市くぬぎさわ西","name_kana":"やまがたしくぬぎさわにし","ofc_cd":82,"sys_id":1,"sys_cam_id":"601201001","pause":0,"date_type":2,"cam_kind":4,"own_cd":601201}},{"type":"Feature","geometry":{"type":"Point","coordinates":[140.2803145,38.2817072]},"properties":{"id":10601201002,"name":"山形市志戸田","name_kana":"やまがたししとだ","ofc_cd":82,"sys_id":1,"sys_cam_id":"601201002","pause":0,"date_type":2,"cam_kind":4,"own_cd":601201}},{"type":"Feature","geometry":{"type":"Point","coordinates":[140.2808334,38.2920721]},"properties":{"id":10601201003,"name":"山形市鮨洗","name_kana":"やまがたしすしあらい","ofc_cd":82,"sys_id":1,"sys_cam_id":"601201003","pause":0,"date_type":2,"cam_kind":4,"own_cd":601201}},{"type":"Feature","geometry":{"type":"Point","coordinates":[140.32223,38.208381]},"properties":{"id":10601201004,"name":"山形市蔵王成沢","name_kana":"やまがたしざおうなりさわ","ofc_cd":82,"sys_id":1,"sys_cam_id":"601201004","pause":0,"date_type":2,"cam_kind":4,"own_cd":601201}},{"type":"Feature","geometry":{"type":"Point","coordinates":[140.413195,38.218932]},"properties":{"id":10601201005,"name":"山形市上宝沢","name_kana":"やまがたしかみほうざわ","ofc_cd":82,"sys_id":1,"sys_cam_id":"601201005","pause":0,"date_type":2,"cam_kind":4,"own_cd":601201}},{"type":"Feature","geometry":{"type":"Point","coordinates":[140.277132,38.274122]},"properties":{"id":10601201006,"name":"山形市志戸田","name_kana":"やまがたししとだ","ofc_cd":82,"sys_id":1,"sys_cam_id":"601201006","pause":0,"date_type":2,"cam_kind":4,"own_cd":601201}},{"type":"Feature","geometry":{"type":"Point","coordinates":[140.34309,38.233291]},"properties":{"id":10601201007,"name":"山形市南原三丁目","name_kana":"やまがたしみなみはらさんちょうめ","ofc_cd":82,"sys_id":1,"sys_cam_id":"601201007","pause":0,"date_type":2,"cam_kind":4,"own_cd":601201}},{"type":"Feature","geometry":{"type":"Point","coordinates":[140.27879,38.260711]},"properties":{"id":10601201008,"name":"山形市飯塚","name_kana":"やまがたしいいづか","ofc_cd":82,"sys_id":1,"sys_cam_id":"601201008","pause":0,"date_type":2,"cam_kind":4,"own_cd":601201}},{"type":"Feature","geometry":{"type":"Point","coordinates":[140.408763,38.284495]},"properties":{"id":10601201009,"name":"山形市上東山","name_kana":"やまがたしかみひがしやま","ofc_cd":82,"sys_id":1,"sys_cam_id":"601201009","pause":0,"date_type":2,"cam_kind":4,"own_cd":601201}},{"type":"Feature","geometry":{"type":"Point","coordinates":[140.323101,38.201814]},"properties":{"id":10601201010,"name":"山形市蔵王成沢","name_kana":"やまがたしざおうなりさわ","ofc_cd":82,"sys_id":1,"sys_cam_id":"601201010","pause":0,"date_type":2,"cam_kind":4,"own_cd":601201}},{"type":"Feature","geometry":{"type":"Point","coordinates":[140.395116,38.163215]},"properties":{"id":10601201011,"name":"山形市蔵王温泉","name_kana":"やまがたしざおうおんせん","ofc_cd":82,"sys_id":1,"sys_cam_id":"601201011","pause":0,"date_type":2,"cam_kind":4,"own_cd":601201}}]}