{"type":"FeatureCollection","crs":{"type":"name","properties":{"name":"EPSG:4326"}},"features":[{"type":"Feature","geometry":{"type":"Point","coordinates":[142.874036111,43.006991667]},"properties":{"id":100257519,"name":"ペケレベツ川  4.8Kp","name_kana":"","ofc_cd":81,"sys_id":1,"sys_cam_id":"257519","pause":0,"date_type":2,"cam_kind":4,"own_cd":257}},{"type":"Feature","geometry":{"type":"Point","coordinates":[142.920209444,42.915675]},"properties":{"id":100257555,"name":"芽室川  12.9Kp","name_kana":"","ofc_cd":81,"sys_id":1,"sys_cam_id":"257555","pause":0,"date_type":2,"cam_kind":4,"own_cd":257}},{"type":"Feature","geometry":{"type":"Point","coordinates":[142.912590556,42.964447222]},"properties":{"id":100257572,"name":"ホネオップ川  4.6Kp","name_kana":"","ofc_cd":81,"sys_id":1,"sys_cam_id":"257572","pause":0,"date_type":2,"cam_kind":4,"own_cd":257}},{"type":"Feature","geometry":{"type":"Point","coordinates":[142.94615,42.9808833]},"properties":{"id":120736327,"name":"十勝川KP82.6右岸カメラ","name_kana":"とかちがわKP82.6うがんかめら","ofc_cd":81,"sys_id":1,"sys_cam_id":"20736327","pause":0,"date_type":2,"cam_kind":4,"own_cd":23357}},{"type":"Feature","geometry":{"type":"Point","coordinates":[142.9350667,43.032]},"properties":{"id":120736328,"name":"十勝川KP89.2右岸カメラ","name_kana":"とかちがわKP89.2うがんかめら","ofc_cd":81,"sys_id":1,"sys_cam_id":"20736328","pause":0,"date_type":2,"cam_kind":4,"own_cd":23357}},{"type":"Feature","geometry":{"type":"Point","coordinates":[142.9237167,43.0838833]},"properties":{"id":120736357,"name":"十勝川KP95.4右岸カメラ","name_kana":"とかちがわKP95.4うがんかめら","ofc_cd":81,"sys_id":1,"sys_cam_id":"20736357","pause":0,"date_type":2,"cam_kind":4,"own_cd":23357}},{"type":"Feature","geometry":{"type":"Point","coordinates":[142.9258333,43.0675]},"properties":{"id":223357002,"name":"十勝川　93.4kp　共栄橋","name_kana":"とかちがわ　93.4kp　きょうえいばし","ofc_cd":81,"sys_id":2,"sys_cam_id":"23357002","pause":0,"date_type":0,"cam_kind":3,"own_cd":23357}},{"type":"Feature","geometry":{"type":"Point","coordinates":[142.9430278,43.0031389]},"properties":{"id":223357050,"name":"十勝川　８５．２ｋｐ　熊牛水位観測所下流","name_kana":"とかちがわ　８５．２ｋｐ　くまうしすいいかんそくしょかりゅう","ofc_cd":81,"sys_id":2,"sys_cam_id":"23357050","pause":0,"date_type":0,"cam_kind":2,"own_cd":23357}},{"type":"Feature","geometry":{"type":"Point","coordinates":[142.9313061,43.0383889]},"properties":{"id":223357051,"name":"十勝川　９０．０ｋｐ　ニトマップ第１樋門","name_kana":"とかちがわ　９０．０ｋｐ　にとまっぷだい１ひもん","ofc_cd":81,"sys_id":2,"sys_cam_id":"23357051","pause":0,"date_type":0,"cam_kind":2,"own_cd":23357}},{"type":"Feature","geometry":{"type":"Point","coordinates":[142.9279181,43.0553369]},"properties":{"id":223357052,"name":"十勝川　９２．１ｋｐ　ニトマップ第２樋門","name_kana":"とかちがわ　９２．１ｋｐ　にとまっぷだい２ひもん","ofc_cd":81,"sys_id":2,"sys_cam_id":"23357052","pause":0,"date_type":0,"cam_kind":2,"own_cd":23357}},{"type":"Feature","geometry":{"type":"Point","coordinates":[142.9241681,43.0756419]},"properties":{"id":223357053,"name":"十勝川　９４．５ｋｐ　ニトマップ第３樋門","name_kana":"とかちがわ　９４．５ｋｐ　にとまっぷだい３ひもん","ofc_cd":81,"sys_id":2,"sys_cam_id":"23357053","pause":0,"date_type":0,"cam_kind":2,"own_cd":23357}},{"type":"Feature","geometry":{"type":"Point","coordinates":[142.9167489,43.0962261]},"properties":{"id":223357054,"name":"十勝川　９７．１ｋｐ　新清橋","name_kana":"とかちがわ　９７．１ｋｐ　しんせいばし","ofc_cd":81,"sys_id":2,"sys_cam_id":"23357054","pause":0,"date_type":0,"cam_kind":2,"own_cd":23357}}]}