{"type":"FeatureCollection","crs":{"type":"name","properties":{"name":"EPSG:4326"}},"features":[{"type":"Feature","geometry":{"type":"Point","coordinates":[138.1421,34.8273]},"properties":{"id":121827024,"name":"大井川　15k800　右岸","name_kana":"","ofc_cd":85,"sys_id":1,"sys_cam_id":"21827024","pause":0,"date_type":0,"cam_kind":4,"own_cd":21827}},{"type":"Feature","geometry":{"type":"Point","coordinates":[138.144896,34.841534]},"properties":{"id":121827025,"name":"大井川　16k800　左岸","name_kana":"","ofc_cd":85,"sys_id":1,"sys_cam_id":"21827025","pause":0,"date_type":0,"cam_kind":4,"own_cd":21827}},{"type":"Feature","geometry":{"type":"Point","coordinates":[138.112477778,34.883644444]},"properties":{"id":221827025,"name":"神座水位補助","name_kana":"","ofc_cd":85,"sys_id":2,"sys_cam_id":"22010064","pause":0,"date_type":0,"cam_kind":2,"own_cd":21827}},{"type":"Feature","geometry":{"type":"Point","coordinates":[138.107980556,34.882533333]},"properties":{"id":221827026,"name":"神座水位","name_kana":"","ofc_cd":85,"sys_id":2,"sys_cam_id":"22010065","pause":0,"date_type":0,"cam_kind":2,"own_cd":21827}},{"type":"Feature","geometry":{"type":"Point","coordinates":[138.104938889,34.877611111]},"properties":{"id":221827027,"name":"神座南","name_kana":"","ofc_cd":85,"sys_id":2,"sys_cam_id":"22010066","pause":0,"date_type":0,"cam_kind":2,"own_cd":21827}},{"type":"Feature","geometry":{"type":"Point","coordinates":[138.115652778,34.863286111]},"properties":{"id":221827028,"name":"水路橋","name_kana":"","ofc_cd":85,"sys_id":2,"sys_cam_id":"22010067","pause":0,"date_type":0,"cam_kind":2,"own_cd":21827}},{"type":"Feature","geometry":{"type":"Point","coordinates":[138.129722222,34.860538889]},"properties":{"id":221827029,"name":"相賀","name_kana":"","ofc_cd":85,"sys_id":2,"sys_cam_id":"22010068","pause":0,"date_type":0,"cam_kind":2,"own_cd":21827}},{"type":"Feature","geometry":{"type":"Point","coordinates":[138.143666667,34.848411111]},"properties":{"id":221827030,"name":"赤松水位","name_kana":"","ofc_cd":85,"sys_id":2,"sys_cam_id":"22010069","pause":0,"date_type":0,"cam_kind":2,"own_cd":21827}},{"type":"Feature","geometry":{"type":"Point","coordinates":[138.148819444,34.835611111]},"properties":{"id":221827031,"name":"稲荷","name_kana":"","ofc_cd":85,"sys_id":2,"sys_cam_id":"22010070","pause":0,"date_type":0,"cam_kind":2,"own_cd":21827}},{"type":"Feature","geometry":{"type":"Point","coordinates":[138.154822222,34.829847222]},"properties":{"id":221827032,"name":"河原","name_kana":"","ofc_cd":85,"sys_id":2,"sys_cam_id":"22010071","pause":0,"date_type":0,"cam_kind":2,"own_cd":21827}},{"type":"Feature","geometry":{"type":"Point","coordinates":[138.149819444,34.82075]},"properties":{"id":221827033,"name":"金谷","name_kana":"","ofc_cd":85,"sys_id":2,"sys_cam_id":"22010072","pause":0,"date_type":0,"cam_kind":2,"own_cd":21827}},{"type":"Feature","geometry":{"type":"Point","coordinates":[138.171958333,34.824897222]},"properties":{"id":221827034,"name":"島田出張所","name_kana":"","ofc_cd":85,"sys_id":2,"sys_cam_id":"22010073","pause":0,"date_type":0,"cam_kind":2,"own_cd":21827}},{"type":"Feature","geometry":{"type":"Point","coordinates":[138.182438889,34.825127778]},"properties":{"id":221827035,"name":"横井","name_kana":"","ofc_cd":85,"sys_id":2,"sys_cam_id":"22010074","pause":0,"date_type":0,"cam_kind":2,"own_cd":21827}},{"type":"Feature","geometry":{"type":"Point","coordinates":[138.198919444,34.828619444]},"properties":{"id":221827036,"name":"島田大橋","name_kana":"","ofc_cd":85,"sys_id":2,"sys_cam_id":"22010075","pause":0,"date_type":0,"cam_kind":2,"own_cd":21827}},{"type":"Feature","geometry":{"type":"Point","coordinates":[138.211111111,34.821805556]},"properties":{"id":221827037,"name":"谷口橋","name_kana":"","ofc_cd":85,"sys_id":2,"sys_cam_id":"22010076","pause":0,"date_type":0,"cam_kind":2,"own_cd":21827}},{"type":"Feature","geometry":{"type":"Point","coordinates":[138.208844444,34.828627778]},"properties":{"id":221827038,"name":"細島水位","name_kana":"","ofc_cd":85,"sys_id":2,"sys_cam_id":"22010077","pause":0,"date_type":0,"cam_kind":2,"own_cd":21827}}]}