{"type":"FeatureCollection","crs":{"type":"name","properties":{"name":"EPSG:4326"}},"features":[{"type":"Feature","geometry":{"type":"Point","coordinates":[130.3722528,33.27474722]},"properties":{"id":122819001,"name":"城原川３ｋ５３０直鳥橋","name_kana":"","ofc_cd":89,"sys_id":1,"sys_cam_id":"22819001","pause":0,"date_type":2,"cam_kind":4,"own_cd":22819}},{"type":"Feature","geometry":{"type":"Point","coordinates":[130.3670361,33.31831111]},"properties":{"id":122819002,"name":"城原川８ｋ５４０ふるさと大橋","name_kana":"","ofc_cd":89,"sys_id":1,"sys_cam_id":"22819002","pause":0,"date_type":2,"cam_kind":4,"own_cd":22819}},{"type":"Feature","geometry":{"type":"Point","coordinates":[130.3670361,33.31831111]},"properties":{"id":122819003,"name":"城原川８ｋ５４０ふるさと大橋上流","name_kana":"","ofc_cd":89,"sys_id":1,"sys_cam_id":"22819003","pause":0,"date_type":0,"cam_kind":4,"own_cd":22819}},{"type":"Feature","geometry":{"type":"Point","coordinates":[130.4021667,33.2523833]},"properties":{"id":222816030,"name":"浮島排水機場＿内水位","name_kana":"","ofc_cd":89,"sys_id":2,"sys_cam_id":"22816040","pause":0,"date_type":0,"cam_kind":2,"own_cd":22816}},{"type":"Feature","geometry":{"type":"Point","coordinates":[130.4022222,33.2505556]},"properties":{"id":222816062,"name":"筑後川右岸12K325浮島排水機場＿外水位","name_kana":"","ofc_cd":89,"sys_id":2,"sys_cam_id":"22816072","pause":0,"date_type":0,"cam_kind":2,"own_cd":22816}},{"type":"Feature","geometry":{"type":"Point","coordinates":[130.3666667,33.3136083]},"properties":{"id":222819071,"name":"城原川07Ｋ650右岸日出来橋水位観測所","name_kana":"","ofc_cd":89,"sys_id":2,"sys_cam_id":"22819001","pause":0,"date_type":0,"cam_kind":2,"own_cd":22819}},{"type":"Feature","geometry":{"type":"Point","coordinates":[130.3668028,33.3125111]},"properties":{"id":222819072,"name":"城原川右岸07K800屋敷橋","name_kana":"","ofc_cd":89,"sys_id":2,"sys_cam_id":"22819002","pause":0,"date_type":0,"cam_kind":2,"own_cd":22819}},{"type":"Feature","geometry":{"type":"Point","coordinates":[130.3686667,33.2929056]},"properties":{"id":222819073,"name":"城原川左岸05K600夫婦井樋橋","name_kana":"","ofc_cd":89,"sys_id":2,"sys_cam_id":"22819003","pause":0,"date_type":0,"cam_kind":2,"own_cd":22819}},{"type":"Feature","geometry":{"type":"Point","coordinates":[130.3938861,33.2769444]},"properties":{"id":222819074,"name":"城東橋下流","name_kana":"","ofc_cd":89,"sys_id":2,"sys_cam_id":"22819004","pause":0,"date_type":0,"cam_kind":2,"own_cd":22819}},{"type":"Feature","geometry":{"type":"Point","coordinates":[130.364844444,33.340783333]},"properties":{"id":310497010,"name":"朝日橋","name_kana":"","ofc_cd":41,"sys_id":3,"sys_cam_id":"41010046","pause":0,"date_type":1,"cam_kind":2,"own_cd":10497}}]}