{"type":"FeatureCollection","crs":{"type":"name","properties":{"name":"EPSG:4326"}},"features":[{"type":"Feature","geometry":{"type":"Point","coordinates":[134.2175028,35.5035136]},"properties":{"id":122297125,"name":"千代川　4.8ｋｍ右岸","name_kana":"","ofc_cd":87,"sys_id":1,"sys_cam_id":"22297125","pause":0,"date_type":2,"cam_kind":4,"own_cd":22297}},{"type":"Feature","geometry":{"type":"Point","coordinates":[134.2125806,35.4852341]},"properties":{"id":122297126,"name":"千代川　6.8ｋｍ左岸","name_kana":"","ofc_cd":87,"sys_id":1,"sys_cam_id":"22297126","pause":0,"date_type":2,"cam_kind":4,"own_cd":22297}},{"type":"Feature","geometry":{"type":"Point","coordinates":[134.2154849,35.4764048]},"properties":{"id":122297127,"name":"千代川　7.8ｋｍ右岸","name_kana":"","ofc_cd":87,"sys_id":1,"sys_cam_id":"22297127","pause":0,"date_type":2,"cam_kind":4,"own_cd":22297}},{"type":"Feature","geometry":{"type":"Point","coordinates":[134.2049286,35.4186106]},"properties":{"id":122297128,"name":"千代川　14.6ｋｍ左岸","name_kana":"","ofc_cd":87,"sys_id":1,"sys_cam_id":"22297128","pause":0,"date_type":2,"cam_kind":4,"own_cd":22297}},{"type":"Feature","geometry":{"type":"Point","coordinates":[134.2043215,35.399216]},"properties":{"id":122297129,"name":"千代川　16.8ｋｍ右岸","name_kana":"","ofc_cd":87,"sys_id":1,"sys_cam_id":"22297129","pause":0,"date_type":2,"cam_kind":4,"own_cd":22297}},{"type":"Feature","geometry":{"type":"Point","coordinates":[134.1989406,35.3908785]},"properties":{"id":122297130,"name":"千代川　17.8ｋｍ左岸","name_kana":"","ofc_cd":87,"sys_id":1,"sys_cam_id":"22297130","pause":0,"date_type":2,"cam_kind":4,"own_cd":22297}},{"type":"Feature","geometry":{"type":"Point","coordinates":[134.2004837,35.3811607]},"properties":{"id":122297131,"name":"千代川　19ｋｍ左岸","name_kana":"","ofc_cd":87,"sys_id":1,"sys_cam_id":"22297131","pause":0,"date_type":2,"cam_kind":4,"own_cd":22297}},{"type":"Feature","geometry":{"type":"Point","coordinates":[134.2099489,35.3611237]},"properties":{"id":122297132,"name":"千代川　22.2ｋｍ左岸","name_kana":"","ofc_cd":87,"sys_id":1,"sys_cam_id":"22297132","pause":0,"date_type":2,"cam_kind":4,"own_cd":22297}},{"type":"Feature","geometry":{"type":"Point","coordinates":[134.2016916,35.3521961]},"properties":{"id":122297133,"name":"千代川　23.8ｋｍ左岸","name_kana":"","ofc_cd":87,"sys_id":1,"sys_cam_id":"22297133","pause":0,"date_type":2,"cam_kind":4,"own_cd":22297}},{"type":"Feature","geometry":{"type":"Point","coordinates":[134.2756083,35.475567]},"properties":{"id":122297134,"name":"新袋川・袋川　6.2ｋｍ左岸","name_kana":"","ofc_cd":87,"sys_id":1,"sys_cam_id":"22297134","pause":0,"date_type":2,"cam_kind":4,"own_cd":22297}},{"type":"Feature","geometry":{"type":"Point","coordinates":[134.2765001,35.4744985]},"properties":{"id":122297135,"name":"新袋川・袋川　6.6ｋｍ左岸","name_kana":"","ofc_cd":87,"sys_id":1,"sys_cam_id":"22297135","pause":0,"date_type":2,"cam_kind":4,"own_cd":22297}},{"type":"Feature","geometry":{"type":"Point","coordinates":[134.193088889,35.542544444]},"properties":{"id":222297001,"name":"千代川河口","name_kana":"","ofc_cd":87,"sys_id":2,"sys_cam_id":"31010002","pause":0,"date_type":0,"cam_kind":2,"own_cd":22297}},{"type":"Feature","geometry":{"type":"Point","coordinates":[134.197961111,35.533777778]},"properties":{"id":222297002,"name":"賀露水位観測所","name_kana":"","ofc_cd":87,"sys_id":2,"sys_cam_id":"31010003","pause":0,"date_type":0,"cam_kind":2,"own_cd":22297}},{"type":"Feature","geometry":{"type":"Point","coordinates":[134.205325,35.530530556]},"properties":{"id":222297003,"name":"袋川合流部","name_kana":"","ofc_cd":87,"sys_id":2,"sys_cam_id":"31010004","pause":0,"date_type":0,"cam_kind":2,"own_cd":22297}},{"type":"Feature","geometry":{"type":"Point","coordinates":[134.207144444,35.5212]},"properties":{"id":222297004,"name":"鳥取大橋","name_kana":"","ofc_cd":87,"sys_id":2,"sys_cam_id":"31010005","pause":0,"date_type":0,"cam_kind":2,"own_cd":22297}},{"type":"Feature","geometry":{"type":"Point","coordinates":[134.214016667,35.513588889]},"properties":{"id":222297005,"name":"八千代橋","name_kana":"","ofc_cd":87,"sys_id":2,"sys_cam_id":"31010006","pause":0,"date_type":0,"cam_kind":2,"own_cd":22297}},{"type":"Feature","geometry":{"type":"Point","coordinates":[134.211858333,35.508619444]},"properties":{"id":222297006,"name":"安長水防倉庫","name_kana":"","ofc_cd":87,"sys_id":2,"sys_cam_id":"31010007","pause":0,"date_type":0,"cam_kind":2,"own_cd":22297}},{"type":"Feature","geometry":{"type":"Point","coordinates":[134.214005556,35.500302778]},"properties":{"id":222297007,"name":"行徳水位観測所","name_kana":"","ofc_cd":87,"sys_id":2,"sys_cam_id":"31010008","pause":0,"date_type":0,"cam_kind":2,"own_cd":22297}},{"type":"Feature","geometry":{"type":"Point","coordinates":[134.215838889,35.496186111]},"properties":{"id":222297008,"name":"新袋川合流部","name_kana":"","ofc_cd":87,"sys_id":2,"sys_cam_id":"31010009","pause":0,"date_type":0,"cam_kind":2,"own_cd":22297}},{"type":"Feature","geometry":{"type":"Point","coordinates":[134.212663889,35.488322222]},"properties":{"id":222297009,"name":"菖蒲排水樋門(外水位)","name_kana":"","ofc_cd":87,"sys_id":2,"sys_cam_id":"31010010","pause":0,"date_type":0,"cam_kind":2,"own_cd":22297}},{"type":"Feature","geometry":{"type":"Point","coordinates":[134.211880556,35.479969444]},"properties":{"id":222297010,"name":"因幡大橋","name_kana":"","ofc_cd":87,"sys_id":2,"sys_cam_id":"31010011","pause":0,"date_type":0,"cam_kind":2,"own_cd":22297}},{"type":"Feature","geometry":{"type":"Point","coordinates":[134.215394444,35.473866667]},"properties":{"id":222297011,"name":"源太橋下流","name_kana":"","ofc_cd":87,"sys_id":2,"sys_cam_id":"31010012","pause":0,"date_type":0,"cam_kind":2,"own_cd":22297}},{"type":"Feature","geometry":{"type":"Point","coordinates":[134.210619444,35.456797222]},"properties":{"id":222297012,"name":"向国安","name_kana":"","ofc_cd":87,"sys_id":2,"sys_cam_id":"31010013","pause":0,"date_type":0,"cam_kind":2,"own_cd":22297}},{"type":"Feature","geometry":{"type":"Point","coordinates":[134.209258333,35.440591667]},"properties":{"id":222297013,"name":"新円通寺橋","name_kana":"","ofc_cd":87,"sys_id":2,"sys_cam_id":"31010014","pause":0,"date_type":0,"cam_kind":2,"own_cd":22297}},{"type":"Feature","geometry":{"type":"Point","coordinates":[134.202494444,35.415047222]},"properties":{"id":222297015,"name":"袋河原水位観測所","name_kana":"","ofc_cd":87,"sys_id":2,"sys_cam_id":"31010016","pause":0,"date_type":0,"cam_kind":2,"own_cd":22297}},{"type":"Feature","geometry":{"type":"Point","coordinates":[134.199688889,35.392913889]},"properties":{"id":222297016,"name":"河原桜づつみ公園","name_kana":"","ofc_cd":87,"sys_id":2,"sys_cam_id":"31010017","pause":0,"date_type":0,"cam_kind":2,"own_cd":22297}},{"type":"Feature","geometry":{"type":"Point","coordinates":[134.198261111,35.389822222]},"properties":{"id":222297017,"name":"佐貫第二排水樋門","name_kana":"","ofc_cd":87,"sys_id":2,"sys_cam_id":"31010018","pause":0,"date_type":0,"cam_kind":2,"own_cd":22297}},{"type":"Feature","geometry":{"type":"Point","coordinates":[134.197983333,35.382286111]},"properties":{"id":222297018,"name":"佐貫排水樋管","name_kana":"","ofc_cd":87,"sys_id":2,"sys_cam_id":"31010019","pause":0,"date_type":0,"cam_kind":2,"own_cd":22297}},{"type":"Feature","geometry":{"type":"Point","coordinates":[134.201741667,35.3421]},"properties":{"id":222297019,"name":"用瀬水位観測所","name_kana":"","ofc_cd":87,"sys_id":2,"sys_cam_id":"31010020","pause":0,"date_type":0,"cam_kind":2,"own_cd":22297}},{"type":"Feature","geometry":{"type":"Point","coordinates":[134.222347222,35.490202778]},"properties":{"id":222297020,"name":"美保橋","name_kana":"","ofc_cd":87,"sys_id":2,"sys_cam_id":"31010021","pause":0,"date_type":0,"cam_kind":2,"own_cd":22297}},{"type":"Feature","geometry":{"type":"Point","coordinates":[134.229566667,35.485730556]},"properties":{"id":222297021,"name":"興南大橋","name_kana":"","ofc_cd":87,"sys_id":2,"sys_cam_id":"31010022","pause":0,"date_type":0,"cam_kind":2,"own_cd":22297}},{"type":"Feature","geometry":{"type":"Point","coordinates":[134.244405556,35.483625]},"properties":{"id":222297022,"name":"大杙堰","name_kana":"","ofc_cd":87,"sys_id":2,"sys_cam_id":"31010023","pause":0,"date_type":0,"cam_kind":2,"own_cd":22297}},{"type":"Feature","geometry":{"type":"Point","coordinates":[134.260102778,35.479322222]},"properties":{"id":222297023,"name":"新今在家橋","name_kana":"","ofc_cd":87,"sys_id":2,"sys_cam_id":"31010024","pause":0,"date_type":0,"cam_kind":2,"own_cd":22297}},{"type":"Feature","geometry":{"type":"Point","coordinates":[134.268727778,35.478816667]},"properties":{"id":222297024,"name":"宮ノ下水位観測所","name_kana":"","ofc_cd":87,"sys_id":2,"sys_cam_id":"31010025","pause":0,"date_type":0,"cam_kind":2,"own_cd":22297}},{"type":"Feature","geometry":{"type":"Point","coordinates":[134.275405556,35.475675]},"properties":{"id":222297025,"name":"町屋広場","name_kana":"","ofc_cd":87,"sys_id":2,"sys_cam_id":"31010026","pause":0,"date_type":0,"cam_kind":2,"own_cd":22297}},{"type":"Feature","geometry":{"type":"Point","coordinates":[134.279580556,35.470572222]},"properties":{"id":222297026,"name":"麻生排水樋管","name_kana":"","ofc_cd":87,"sys_id":2,"sys_cam_id":"31010027","pause":0,"date_type":0,"cam_kind":2,"own_cd":22297}},{"type":"Feature","geometry":{"type":"Point","coordinates":[134.286763889,35.466569444]},"properties":{"id":222297027,"name":"麻生排水樋門","name_kana":"","ofc_cd":87,"sys_id":2,"sys_cam_id":"31010028","pause":0,"date_type":0,"cam_kind":2,"own_cd":22297}},{"type":"Feature","geometry":{"type":"Point","coordinates":[134.295688889,35.459338889]},"properties":{"id":222297028,"name":"谷広場","name_kana":"","ofc_cd":87,"sys_id":2,"sys_cam_id":"31010029","pause":0,"date_type":0,"cam_kind":2,"own_cd":22297}},{"type":"Feature","geometry":{"type":"Point","coordinates":[134.297163889,35.458333333]},"properties":{"id":222297029,"name":"谷水位観測所","name_kana":"","ofc_cd":87,"sys_id":2,"sys_cam_id":"31010030","pause":0,"date_type":0,"cam_kind":2,"own_cd":22297}},{"type":"Feature","geometry":{"type":"Point","coordinates":[134.216413889,35.527536111]},"properties":{"id":222297030,"name":"浜坂江津橋","name_kana":"","ofc_cd":87,"sys_id":2,"sys_cam_id":"31010031","pause":0,"date_type":0,"cam_kind":2,"own_cd":22297}},{"type":"Feature","geometry":{"type":"Point","coordinates":[134.228855556,35.513441667]},"properties":{"id":222297031,"name":"湯所川排水機場１","name_kana":"","ofc_cd":87,"sys_id":2,"sys_cam_id":"31010032","pause":0,"date_type":0,"cam_kind":2,"own_cd":22297}},{"type":"Feature","geometry":{"type":"Point","coordinates":[134.214194444,35.402944444]},"properties":{"id":222297032,"name":"片山水位観測所","name_kana":"","ofc_cd":87,"sys_id":2,"sys_cam_id":"31010033","pause":0,"date_type":0,"cam_kind":2,"own_cd":22297}},{"type":"Feature","geometry":{"type":"Point","coordinates":[133.371588,35.413478]},"properties":{"id":122293001,"name":"十日市　日野川 5k000 右岸","name_kana":"","ofc_cd":87,"sys_id":1,"sys_cam_id":"22293001","pause":0,"date_type":2,"cam_kind":4,"own_cd":22293}},{"type":"Feature","geometry":{"type":"Point","coordinates":[133.360372,35.393142]},"properties":{"id":122293006,"name":"榎原　法勝寺川 3k000 左岸","name_kana":"","ofc_cd":87,"sys_id":1,"sys_cam_id":"22293006","pause":0,"date_type":2,"cam_kind":4,"own_cd":22293}},{"type":"Feature","geometry":{"type":"Point","coordinates":[133.362833,35.401587]},"properties":{"id":122293136,"name":"茶屋　法勝寺川 2k000 左岸","name_kana":"","ofc_cd":87,"sys_id":1,"sys_cam_id":"22293136","pause":0,"date_type":2,"cam_kind":4,"own_cd":22293}},{"type":"Feature","geometry":{"type":"Point","coordinates":[133.364928,35.420278]},"properties":{"id":122293235,"name":"日野川4k065左岸　日野川堰","name_kana":"","ofc_cd":87,"sys_id":1,"sys_cam_id":"22293235","pause":0,"date_type":2,"cam_kind":4,"own_cd":22293}},{"type":"Feature","geometry":{"type":"Point","coordinates":[133.362777778,35.406944444]},"properties":{"id":222293004,"name":"福市水位観測所","name_kana":"","ofc_cd":87,"sys_id":2,"sys_cam_id":"22293004","pause":0,"date_type":0,"cam_kind":2,"own_cd":22293}},{"type":"Feature","geometry":{"type":"Point","coordinates":[133.363611111,35.396111111]},"properties":{"id":222293005,"name":"洗川排水樋門（外水）","name_kana":"","ofc_cd":87,"sys_id":2,"sys_cam_id":"22293005","pause":0,"date_type":0,"cam_kind":2,"own_cd":22293}},{"type":"Feature","geometry":{"type":"Point","coordinates":[133.356388889,35.386944444]},"properties":{"id":222293006,"name":"大袋橋下流","name_kana":"","ofc_cd":87,"sys_id":2,"sys_cam_id":"22293006","pause":0,"date_type":0,"cam_kind":2,"own_cd":22293}},{"type":"Feature","geometry":{"type":"Point","coordinates":[133.364722222,35.431111111]},"properties":{"id":222293012,"name":"車尾水位観測所","name_kana":"","ofc_cd":87,"sys_id":2,"sys_cam_id":"22293012","pause":0,"date_type":0,"cam_kind":2,"own_cd":22293}},{"type":"Feature","geometry":{"type":"Point","coordinates":[133.368055556,35.421666667]},"properties":{"id":222293013,"name":"日野川堰右岸","name_kana":"","ofc_cd":87,"sys_id":2,"sys_cam_id":"22293013","pause":0,"date_type":0,"cam_kind":2,"own_cd":22293}},{"type":"Feature","geometry":{"type":"Point","coordinates":[133.385555556,35.401944444]},"properties":{"id":222293026,"name":"八幡橋左岸","name_kana":"","ofc_cd":87,"sys_id":2,"sys_cam_id":"22293026","pause":0,"date_type":0,"cam_kind":2,"own_cd":22293}},{"type":"Feature","geometry":{"type":"Point","coordinates":[133.365,35.421388889]},"properties":{"id":222293027,"name":"日野川堰左岸","name_kana":"","ofc_cd":87,"sys_id":2,"sys_cam_id":"22293027","pause":0,"date_type":0,"cam_kind":2,"own_cd":22293}},{"type":"Feature","geometry":{"type":"Point","coordinates":[133.852063,35.421558]},"properties":{"id":122298001,"name":"天神川　9ｋ600右岸","name_kana":"","ofc_cd":87,"sys_id":1,"sys_cam_id":"22298001","pause":0,"date_type":2,"cam_kind":4,"own_cd":22298}},{"type":"Feature","geometry":{"type":"Point","coordinates":[133.8552,35.417587]},"properties":{"id":122298002,"name":"天神川　10ｋ200右岸","name_kana":"","ofc_cd":87,"sys_id":1,"sys_cam_id":"22298002","pause":0,"date_type":2,"cam_kind":4,"own_cd":22298}},{"type":"Feature","geometry":{"type":"Point","coordinates":[133.831159,35.435132]},"properties":{"id":122298007,"name":"小鴨川　1ｋ400右岸","name_kana":"","ofc_cd":87,"sys_id":1,"sys_cam_id":"22298007","pause":0,"date_type":2,"cam_kind":4,"own_cd":22298}},{"type":"Feature","geometry":{"type":"Point","coordinates":[133.81403,35.43548]},"properties":{"id":122298008,"name":"小鴨川　3ｋ200右岸","name_kana":"","ofc_cd":87,"sys_id":1,"sys_cam_id":"22298008","pause":0,"date_type":2,"cam_kind":4,"own_cd":22298}},{"type":"Feature","geometry":{"type":"Point","coordinates":[133.810879,35.424125]},"properties":{"id":122298009,"name":"小鴨川　4ｋ600右岸","name_kana":"","ofc_cd":87,"sys_id":1,"sys_cam_id":"22298009","pause":0,"date_type":2,"cam_kind":4,"own_cd":22298}},{"type":"Feature","geometry":{"type":"Point","coordinates":[133.806996,35.410031]},"properties":{"id":122298010,"name":"小鴨川　6ｋ200右岸","name_kana":"","ofc_cd":87,"sys_id":1,"sys_cam_id":"22298010","pause":0,"date_type":2,"cam_kind":4,"own_cd":22298}},{"type":"Feature","geometry":{"type":"Point","coordinates":[133.777409,35.384028]},"properties":{"id":122298011,"name":"小鴨川　10ｋ200右岸","name_kana":"","ofc_cd":87,"sys_id":1,"sys_cam_id":"22298011","pause":0,"date_type":2,"cam_kind":4,"own_cd":22298}},{"type":"Feature","geometry":{"type":"Point","coordinates":[133.744627,35.366458]},"properties":{"id":122298012,"name":"小鴨川　14ｋ000左岸","name_kana":"","ofc_cd":87,"sys_id":1,"sys_cam_id":"22298012","pause":0,"date_type":2,"cam_kind":4,"own_cd":22298}},{"type":"Feature","geometry":{"type":"Point","coordinates":[133.781514,35.416733]},"properties":{"id":122298013,"name":"国府川　4ｋ900左岸","name_kana":"","ofc_cd":87,"sys_id":1,"sys_cam_id":"22298013","pause":0,"date_type":2,"cam_kind":4,"own_cd":22298}},{"type":"Feature","geometry":{"type":"Point","coordinates":[133.763374,35.421444]},"properties":{"id":122298014,"name":"国府川　6ｋ800右岸","name_kana":"","ofc_cd":87,"sys_id":1,"sys_cam_id":"22298014","pause":0,"date_type":2,"cam_kind":4,"own_cd":22298}},{"type":"Feature","geometry":{"type":"Point","coordinates":[133.843633333,35.441769444]},"properties":{"id":222298001,"name":"天神川出張所","name_kana":"","ofc_cd":87,"sys_id":2,"sys_cam_id":"31010034","pause":0,"date_type":0,"cam_kind":2,"own_cd":22298}},{"type":"Feature","geometry":{"type":"Point","coordinates":[133.809988889,35.430377778]},"properties":{"id":222298002,"name":"河原町観測所","name_kana":"","ofc_cd":87,"sys_id":2,"sys_cam_id":"31010035","pause":0,"date_type":0,"cam_kind":2,"own_cd":22298}},{"type":"Feature","geometry":{"type":"Point","coordinates":[133.781013889,35.388983333]},"properties":{"id":222298004,"name":"若土","name_kana":"","ofc_cd":87,"sys_id":2,"sys_cam_id":"31010037","pause":0,"date_type":0,"cam_kind":2,"own_cd":22298}},{"type":"Feature","geometry":{"type":"Point","coordinates":[133.776,35.380522222]},"properties":{"id":222298005,"name":"若土観測所","name_kana":"","ofc_cd":87,"sys_id":2,"sys_cam_id":"31010038","pause":0,"date_type":0,"cam_kind":2,"own_cd":22298}},{"type":"Feature","geometry":{"type":"Point","coordinates":[133.754172222,35.369411111]},"properties":{"id":222298006,"name":"関金庁舎","name_kana":"","ofc_cd":87,"sys_id":2,"sys_cam_id":"31010039","pause":0,"date_type":0,"cam_kind":2,"own_cd":22298}},{"type":"Feature","geometry":{"type":"Point","coordinates":[133.725022222,35.364080556]},"properties":{"id":222298007,"name":"泰久寺","name_kana":"","ofc_cd":87,"sys_id":2,"sys_cam_id":"31010040","pause":0,"date_type":0,"cam_kind":2,"own_cd":22298}},{"type":"Feature","geometry":{"type":"Point","coordinates":[133.791111111,35.423330556]},"properties":{"id":222298008,"name":"国府川　福光観測所","name_kana":"","ofc_cd":87,"sys_id":2,"sys_cam_id":"31010041","pause":0,"date_type":0,"cam_kind":2,"own_cd":22298}},{"type":"Feature","geometry":{"type":"Point","coordinates":[133.745383333,35.428752778]},"properties":{"id":222298009,"name":"国府川　高城観測所","name_kana":"","ofc_cd":87,"sys_id":2,"sys_cam_id":"31010042","pause":0,"date_type":0,"cam_kind":2,"own_cd":22298}},{"type":"Feature","geometry":{"type":"Point","coordinates":[133.245,35.548055556]},"properties":{"id":222303001,"name":"境(さかい)水道大橋","name_kana":"","ofc_cd":87,"sys_id":2,"sys_cam_id":"31010001","pause":0,"date_type":0,"cam_kind":2,"own_cd":22303}},{"type":"Feature","geometry":{"type":"Point","coordinates":[133.859996,35.398742]},"properties":{"id":122298003,"name":"天神川　12ｋ300右岸","name_kana":"","ofc_cd":87,"sys_id":1,"sys_cam_id":"22298003","pause":0,"date_type":2,"cam_kind":4,"own_cd":22298}},{"type":"Feature","geometry":{"type":"Point","coordinates":[133.858026,35.390437]},"properties":{"id":122298004,"name":"天神川　13ｋ300右岸","name_kana":"","ofc_cd":87,"sys_id":1,"sys_cam_id":"22298004","pause":0,"date_type":2,"cam_kind":4,"own_cd":22298}},{"type":"Feature","geometry":{"type":"Point","coordinates":[133.861853,35.406057]},"properties":{"id":122298005,"name":"三徳川　0ｋ300右岸","name_kana":"","ofc_cd":87,"sys_id":1,"sys_cam_id":"22298005","pause":0,"date_type":2,"cam_kind":4,"own_cd":22298}},{"type":"Feature","geometry":{"type":"Point","coordinates":[133.878329,35.411586]},"properties":{"id":122298006,"name":"三徳川　2ｋ000左岸","name_kana":"","ofc_cd":87,"sys_id":1,"sys_cam_id":"22298006","pause":0,"date_type":2,"cam_kind":4,"own_cd":22298}},{"type":"Feature","geometry":{"type":"Point","coordinates":[133.854547222,35.382094444]},"properties":{"id":222298003,"name":"牧","name_kana":"","ofc_cd":87,"sys_id":2,"sys_cam_id":"31010036","pause":0,"date_type":0,"cam_kind":2,"own_cd":22298}},{"type":"Feature","geometry":{"type":"Point","coordinates":[133.862375,35.406083333]},"properties":{"id":222298010,"name":"三徳川　大瀬","name_kana":"","ofc_cd":87,"sys_id":2,"sys_cam_id":"31010043","pause":0,"date_type":0,"cam_kind":2,"own_cd":22298}},{"type":"Feature","geometry":{"type":"Point","coordinates":[133.897222222,35.409166667]},"properties":{"id":222298011,"name":"三徳川　三朝水位観測所","name_kana":"みささすいいかんそくしょ","ofc_cd":87,"sys_id":2,"sys_cam_id":"31010044","pause":0,"date_type":0,"cam_kind":2,"own_cd":22298}},{"type":"Feature","geometry":{"type":"Point","coordinates":[133.835063889,35.326005556]},"properties":{"id":222298012,"name":"天神川・加谷川合流点","name_kana":"てんじんがわ・かたにがわごうりゅうてん","ofc_cd":87,"sys_id":2,"sys_cam_id":"31010045","pause":0,"date_type":0,"cam_kind":2,"own_cd":22298}},{"type":"Feature","geometry":{"type":"Point","coordinates":[133.849596,35.490283]},"properties":{"id":122298234,"name":"天神川1k600左岸　新天神橋","name_kana":"","ofc_cd":87,"sys_id":1,"sys_cam_id":"22298234","pause":0,"date_type":2,"cam_kind":4,"own_cd":22298}},{"type":"Feature","geometry":{"type":"Point","coordinates":[133.375833333,35.455]},"properties":{"id":222293010,"name":"日吉津","name_kana":"","ofc_cd":87,"sys_id":2,"sys_cam_id":"22293010","pause":0,"date_type":0,"cam_kind":2,"own_cd":22293}},{"type":"Feature","geometry":{"type":"Point","coordinates":[133.365555556,35.437222222]},"properties":{"id":222293011,"name":"上福原警報所","name_kana":"","ofc_cd":87,"sys_id":2,"sys_cam_id":"22293011","pause":0,"date_type":0,"cam_kind":2,"own_cd":22293}},{"type":"Feature","geometry":{"type":"Point","coordinates":[133.545833333,35.352777778]},"properties":{"id":222293003,"name":"大山三の沢","name_kana":"","ofc_cd":87,"sys_id":2,"sys_cam_id":"22293003","pause":0,"date_type":0,"cam_kind":2,"own_cd":22293}},{"type":"Feature","geometry":{"type":"Point","coordinates":[133.34782,35.381112]},"properties":{"id":122293007,"name":"境　法勝寺川 4k800 左岸","name_kana":"","ofc_cd":87,"sys_id":1,"sys_cam_id":"22293007","pause":0,"date_type":2,"cam_kind":4,"own_cd":22293}},{"type":"Feature","geometry":{"type":"Point","coordinates":[133.342556,35.37254]},"properties":{"id":122293008,"name":"福成　法勝寺川 5k800 左岸","name_kana":"","ofc_cd":87,"sys_id":1,"sys_cam_id":"22293008","pause":0,"date_type":2,"cam_kind":4,"own_cd":22293}},{"type":"Feature","geometry":{"type":"Point","coordinates":[133.328063,35.357007]},"properties":{"id":122293009,"name":"阿賀　法勝寺川 8k120 右岸","name_kana":"","ofc_cd":87,"sys_id":1,"sys_cam_id":"22293009","pause":0,"date_type":2,"cam_kind":4,"own_cd":22293}},{"type":"Feature","geometry":{"type":"Point","coordinates":[133.32368,35.341407]},"properties":{"id":122293010,"name":"清水　法勝寺川 9k906 左岸","name_kana":"","ofc_cd":87,"sys_id":1,"sys_cam_id":"22293010","pause":0,"date_type":2,"cam_kind":4,"own_cd":22293}},{"type":"Feature","geometry":{"type":"Point","coordinates":[133.323552,35.341037]},"properties":{"id":122293011,"name":"橘　法勝寺川 9k955 左岸","name_kana":"","ofc_cd":87,"sys_id":1,"sys_cam_id":"22293011","pause":0,"date_type":2,"cam_kind":4,"own_cd":22293}},{"type":"Feature","geometry":{"type":"Point","coordinates":[133.322887,35.338954]},"properties":{"id":122293012,"name":"馬場　法勝寺川 10k150 左岸","name_kana":"","ofc_cd":87,"sys_id":1,"sys_cam_id":"22293012","pause":0,"date_type":2,"cam_kind":4,"own_cd":22293}},{"type":"Feature","geometry":{"type":"Point","coordinates":[133.326686,35.337168]},"properties":{"id":122293013,"name":"城山　法勝寺川 10k540 左岸","name_kana":"","ofc_cd":87,"sys_id":1,"sys_cam_id":"22293013","pause":0,"date_type":2,"cam_kind":4,"own_cd":22293}},{"type":"Feature","geometry":{"type":"Point","coordinates":[133.34,35.369722222]},"properties":{"id":222293007,"name":"天津橋下流","name_kana":"","ofc_cd":87,"sys_id":2,"sys_cam_id":"22293007","pause":0,"date_type":0,"cam_kind":2,"own_cd":22293}},{"type":"Feature","geometry":{"type":"Point","coordinates":[133.324444444,35.338611111]},"properties":{"id":222293008,"name":"法勝寺水位観測所","name_kana":"","ofc_cd":87,"sys_id":2,"sys_cam_id":"22293008","pause":0,"date_type":0,"cam_kind":2,"own_cd":22293}},{"type":"Feature","geometry":{"type":"Point","coordinates":[133.328888889,35.336666667]},"properties":{"id":222293009,"name":"新法勝寺橋","name_kana":"","ofc_cd":87,"sys_id":2,"sys_cam_id":"22293009","pause":0,"date_type":0,"cam_kind":2,"own_cd":22293}},{"type":"Feature","geometry":{"type":"Point","coordinates":[133.405293,35.384287]},"properties":{"id":122293002,"name":"大寺　日野川 9k800 左岸","name_kana":"","ofc_cd":87,"sys_id":1,"sys_cam_id":"22293002","pause":0,"date_type":2,"cam_kind":4,"own_cd":22293}},{"type":"Feature","geometry":{"type":"Point","coordinates":[133.410261,35.380762]},"properties":{"id":122293003,"name":"岸本　日野川 10k400 右岸","name_kana":"","ofc_cd":87,"sys_id":1,"sys_cam_id":"22293003","pause":0,"date_type":2,"cam_kind":4,"own_cd":22293}},{"type":"Feature","geometry":{"type":"Point","coordinates":[133.430154,35.355932]},"properties":{"id":122293004,"name":"大江　日野川 13k790 右岸","name_kana":"","ofc_cd":87,"sys_id":1,"sys_cam_id":"22293004","pause":0,"date_type":2,"cam_kind":4,"own_cd":22293}},{"type":"Feature","geometry":{"type":"Point","coordinates":[133.436245,35.338409]},"properties":{"id":122293005,"name":"溝口　日野川 15k800 右岸","name_kana":"","ofc_cd":87,"sys_id":1,"sys_cam_id":"22293005","pause":0,"date_type":2,"cam_kind":4,"own_cd":22293}},{"type":"Feature","geometry":{"type":"Point","coordinates":[133.413959,35.374493]},"properties":{"id":122293236,"name":"日野川11k200右岸　吉定排水樋門","name_kana":"","ofc_cd":87,"sys_id":1,"sys_cam_id":"22293236","pause":0,"date_type":2,"cam_kind":4,"own_cd":22293}},{"type":"Feature","geometry":{"type":"Point","coordinates":[133.415555556,35.369722222]},"properties":{"id":222293015,"name":"立岩排水樋管（外水）","name_kana":"","ofc_cd":87,"sys_id":2,"sys_cam_id":"22293015","pause":0,"date_type":0,"cam_kind":2,"own_cd":22293}},{"type":"Feature","geometry":{"type":"Point","coordinates":[133.434722222,35.343611111]},"properties":{"id":222293016,"name":"溝口水位雨量観測所","name_kana":"","ofc_cd":87,"sys_id":2,"sys_cam_id":"22293016","pause":0,"date_type":0,"cam_kind":2,"own_cd":22293}},{"type":"Feature","geometry":{"type":"Point","coordinates":[133.435833333,35.328333333]},"properties":{"id":222293017,"name":"佐野","name_kana":"","ofc_cd":87,"sys_id":2,"sys_cam_id":"22293017","pause":0,"date_type":0,"cam_kind":2,"own_cd":22293}},{"type":"Feature","geometry":{"type":"Point","coordinates":[133.401666667,35.3875]},"properties":{"id":222293028,"name":"大寺排水樋管（内水）","name_kana":"おおてらはいすいひかん（ないすい）","ofc_cd":87,"sys_id":2,"sys_cam_id":"22293028","pause":0,"date_type":0,"cam_kind":2,"own_cd":22293}},{"type":"Feature","geometry":{"type":"Point","coordinates":[133.311388889,35.199444444]},"properties":{"id":222293018,"name":"井ノ原橋上流","name_kana":"","ofc_cd":87,"sys_id":2,"sys_cam_id":"22293018","pause":0,"date_type":0,"cam_kind":2,"own_cd":22293}},{"type":"Feature","geometry":{"type":"Point","coordinates":[133.385833333,35.209166667]},"properties":{"id":222293019,"name":"黒坂中央橋下流","name_kana":"","ofc_cd":87,"sys_id":2,"sys_cam_id":"22293019","pause":0,"date_type":0,"cam_kind":2,"own_cd":22293}},{"type":"Feature","geometry":{"type":"Point","coordinates":[133.375833333,35.202222222]},"properties":{"id":222293020,"name":"新黒坂橋","name_kana":"","ofc_cd":87,"sys_id":2,"sys_cam_id":"22293020","pause":0,"date_type":0,"cam_kind":2,"own_cd":22293}},{"type":"Feature","geometry":{"type":"Point","coordinates":[133.3525,35.192777778]},"properties":{"id":222293021,"name":"新乗越橋","name_kana":"","ofc_cd":87,"sys_id":2,"sys_cam_id":"22293021","pause":0,"date_type":0,"cam_kind":2,"own_cd":22293}},{"type":"Feature","geometry":{"type":"Point","coordinates":[133.3425,35.195555556]},"properties":{"id":222293022,"name":"日野川第一発電所（鳥取県企業局）","name_kana":"","ofc_cd":87,"sys_id":2,"sys_cam_id":"22293022","pause":0,"date_type":0,"cam_kind":2,"own_cd":22293}},{"type":"Feature","geometry":{"type":"Point","coordinates":[133.331388889,35.190833333]},"properties":{"id":222293023,"name":"福長水位観測所","name_kana":"","ofc_cd":87,"sys_id":2,"sys_cam_id":"22293023","pause":0,"date_type":0,"cam_kind":2,"own_cd":22293}},{"type":"Feature","geometry":{"type":"Point","coordinates":[133.445,35.244166667]},"properties":{"id":222293024,"name":"三谷水位観測所","name_kana":"","ofc_cd":87,"sys_id":2,"sys_cam_id":"22293024","pause":0,"date_type":0,"cam_kind":2,"own_cd":22293}},{"type":"Feature","geometry":{"type":"Point","coordinates":[133.420277778,35.229722222]},"properties":{"id":222293025,"name":"リバーサイドひの","name_kana":"","ofc_cd":87,"sys_id":2,"sys_cam_id":"22293025","pause":0,"date_type":0,"cam_kind":2,"own_cd":22293}},{"type":"Feature","geometry":{"type":"Point","coordinates":[133.530833333,35.357777778]},"properties":{"id":222293001,"name":"大山一の沢","name_kana":"","ofc_cd":87,"sys_id":2,"sys_cam_id":"22293001","pause":0,"date_type":0,"cam_kind":2,"own_cd":22293}},{"type":"Feature","geometry":{"type":"Point","coordinates":[133.536944444,35.355277778]},"properties":{"id":222293002,"name":"大山二の沢","name_kana":"","ofc_cd":87,"sys_id":2,"sys_cam_id":"22293002","pause":0,"date_type":0,"cam_kind":2,"own_cd":22293}}]}