{"type":"FeatureCollection","crs":{"type":"name","properties":{"name":"EPSG:4326"}},"features":[{"type":"Feature","geometry":{"type":"Point","coordinates":[133.5128787,33.5598266]},"properties":{"id":109985011,"name":"中須賀","name_kana":"","ofc_cd":88,"sys_id":1,"sys_cam_id":"9985011","pause":0,"date_type":0,"cam_kind":4,"own_cd":9985}},{"type":"Feature","geometry":{"type":"Point","coordinates":[133.4784917,33.4707199]},"properties":{"id":122559009,"name":"西畑小田","name_kana":"","ofc_cd":88,"sys_id":1,"sys_cam_id":"22559009","pause":0,"date_type":0,"cam_kind":4,"own_cd":22559}},{"type":"Feature","geometry":{"type":"Point","coordinates":[133.46595556,33.4774345]},"properties":{"id":122559010,"name":"西畑","name_kana":"","ofc_cd":88,"sys_id":1,"sys_cam_id":"22559010","pause":0,"date_type":2,"cam_kind":4,"own_cd":22559}},{"type":"Feature","geometry":{"type":"Point","coordinates":[133.46578611,33.4849409]},"properties":{"id":122559011,"name":"田ノ裏","name_kana":"","ofc_cd":88,"sys_id":1,"sys_cam_id":"22559011","pause":0,"date_type":2,"cam_kind":4,"own_cd":22559}},{"type":"Feature","geometry":{"type":"Point","coordinates":[133.46638056,33.4885962]},"properties":{"id":122559012,"name":"森山","name_kana":"","ofc_cd":88,"sys_id":1,"sys_cam_id":"22559012","pause":0,"date_type":2,"cam_kind":4,"own_cd":22559}},{"type":"Feature","geometry":{"type":"Point","coordinates":[133.448811,33.499321]},"properties":{"id":122559027,"name":"弘岡","name_kana":"","ofc_cd":88,"sys_id":1,"sys_cam_id":"22559027","pause":0,"date_type":0,"cam_kind":4,"own_cd":22559}},{"type":"Feature","geometry":{"type":"Point","coordinates":[133.487219444,33.464441666]},"properties":{"id":222559006,"name":"仁淀川 左-0k2春野町 河口大橋左","name_kana":"","ofc_cd":88,"sys_id":2,"sys_cam_id":"22559011","pause":0,"date_type":0,"cam_kind":2,"own_cd":22559}},{"type":"Feature","geometry":{"type":"Point","coordinates":[133.532497222,33.483330555]},"properties":{"id":222559007,"name":"高知海岸出張所_鉄塔（固定）","name_kana":"","ofc_cd":88,"sys_id":2,"sys_cam_id":"22559012","pause":0,"date_type":0,"cam_kind":2,"own_cd":22559}},{"type":"Feature","geometry":{"type":"Point","coordinates":[133.463886111,33.489813888]},"properties":{"id":222559013,"name":"仁淀川 左 3ｋ4高知市 森山排水樋管外水","name_kana":"","ofc_cd":88,"sys_id":2,"sys_cam_id":"22559018","pause":0,"date_type":0,"cam_kind":2,"own_cd":22559}},{"type":"Feature","geometry":{"type":"Point","coordinates":[133.479955555,33.469805555]},"properties":{"id":222559014,"name":"仁淀川 左 0ｋ6高知市 仁西樋門外水","name_kana":"","ofc_cd":88,"sys_id":2,"sys_cam_id":"22559019","pause":0,"date_type":0,"cam_kind":2,"own_cd":22559}},{"type":"Feature","geometry":{"type":"Point","coordinates":[133.439722222,33.505833333]},"properties":{"id":222559029,"name":"仁淀川 左6k3高知市 行当樋管外水","name_kana":"","ofc_cd":88,"sys_id":2,"sys_cam_id":"22559025","pause":0,"date_type":0,"cam_kind":2,"own_cd":22559}},{"type":"Feature","geometry":{"type":"Point","coordinates":[133.451805555,33.498055555]},"properties":{"id":222559044,"name":"仁淀川 左4k7高知市 弘岡","name_kana":"","ofc_cd":88,"sys_id":2,"sys_cam_id":"22559045","pause":0,"date_type":0,"cam_kind":2,"own_cd":22559}},{"type":"Feature","geometry":{"type":"Point","coordinates":[134.2230314,33.4259813]},"properties":{"id":109985003,"name":"入木","name_kana":"","ofc_cd":88,"sys_id":1,"sys_cam_id":"9985003","pause":0,"date_type":0,"cam_kind":4,"own_cd":9985}},{"type":"Feature","geometry":{"type":"Point","coordinates":[133.9010845,33.5569551]},"properties":{"id":109985004,"name":"栃ノ木橋","name_kana":"","ofc_cd":88,"sys_id":1,"sys_cam_id":"9985004","pause":0,"date_type":0,"cam_kind":4,"own_cd":9985}},{"type":"Feature","geometry":{"type":"Point","coordinates":[133.9210557,33.4963313]},"properties":{"id":109985005,"name":"鉄道橋高架下","name_kana":"","ofc_cd":88,"sys_id":1,"sys_cam_id":"9985005","pause":0,"date_type":0,"cam_kind":4,"own_cd":9985}},{"type":"Feature","geometry":{"type":"Point","coordinates":[133.8398789,33.5167228]},"properties":{"id":109985006,"name":"中ノ橋","name_kana":"","ofc_cd":88,"sys_id":1,"sys_cam_id":"9985006","pause":0,"date_type":0,"cam_kind":4,"own_cd":9985}},{"type":"Feature","geometry":{"type":"Point","coordinates":[133.6277725,33.5778203]},"properties":{"id":109985009,"name":"小籠","name_kana":"","ofc_cd":88,"sys_id":1,"sys_cam_id":"9985009","pause":0,"date_type":0,"cam_kind":4,"own_cd":9985}},{"type":"Feature","geometry":{"type":"Point","coordinates":[133.6817915,33.5486628]},"properties":{"id":122559007,"name":"物部","name_kana":"","ofc_cd":88,"sys_id":1,"sys_cam_id":"22559007","pause":0,"date_type":2,"cam_kind":4,"own_cd":22559}},{"type":"Feature","geometry":{"type":"Point","coordinates":[133.688333333,33.541388888]},"properties":{"id":222559034,"name":"物部川 左0k4香南市 物部川大橋","name_kana":"","ofc_cd":88,"sys_id":2,"sys_cam_id":"22559034","pause":0,"date_type":0,"cam_kind":2,"own_cd":22559}},{"type":"Feature","geometry":{"type":"Point","coordinates":[133.682916666,33.535972222]},"properties":{"id":222559038,"name":"物部川 右0k0香南市 後川樋門外水","name_kana":"","ofc_cd":88,"sys_id":2,"sys_cam_id":"22559038","pause":0,"date_type":0,"cam_kind":2,"own_cd":22559}},{"type":"Feature","geometry":{"type":"Point","coordinates":[133.682777777,33.535833333]},"properties":{"id":222559039,"name":"物部川 右0k0香南市 後川樋門内水","name_kana":"","ofc_cd":88,"sys_id":2,"sys_cam_id":"22559039","pause":0,"date_type":0,"cam_kind":2,"own_cd":22559}},{"type":"Feature","geometry":{"type":"Point","coordinates":[133.680111111,33.560361111]},"properties":{"id":222559045,"name":"物部川 右2k7南国市 新物部川橋右岸","name_kana":"","ofc_cd":88,"sys_id":2,"sys_cam_id":"22559047","pause":0,"date_type":0,"cam_kind":2,"own_cd":22559}},{"type":"Feature","geometry":{"type":"Point","coordinates":[133.678305555,33.56625]},"properties":{"id":222559046,"name":"物部川 物部川出張所 鉄塔","name_kana":"","ofc_cd":88,"sys_id":2,"sys_cam_id":"22559048","pause":0,"date_type":0,"cam_kind":2,"own_cd":22559}},{"type":"Feature","geometry":{"type":"Point","coordinates":[133.4582405,33.4790499]},"properties":{"id":122559013,"name":"用石","name_kana":"","ofc_cd":88,"sys_id":1,"sys_cam_id":"22559013","pause":0,"date_type":2,"cam_kind":4,"own_cd":22559}},{"type":"Feature","geometry":{"type":"Point","coordinates":[133.4375901,33.4978699]},"properties":{"id":122559014,"name":"高岡","name_kana":"","ofc_cd":88,"sys_id":1,"sys_cam_id":"22559014","pause":0,"date_type":2,"cam_kind":4,"own_cd":22559}},{"type":"Feature","geometry":{"type":"Point","coordinates":[133.463888888,33.473052777]},"properties":{"id":222559001,"name":"仁淀川右2ｋ0土佐市城山","name_kana":"","ofc_cd":88,"sys_id":2,"sys_cam_id":"22559006","pause":0,"date_type":0,"cam_kind":2,"own_cd":22559}},{"type":"Feature","geometry":{"type":"Point","coordinates":[133.447777777,33.493052777]},"properties":{"id":222559002,"name":"仁淀川右4ｋ7土佐市中島水位観測所","name_kana":"","ofc_cd":88,"sys_id":2,"sys_cam_id":"22559007","pause":0,"date_type":0,"cam_kind":2,"own_cd":22559}},{"type":"Feature","geometry":{"type":"Point","coordinates":[133.458055555,33.448608333]},"properties":{"id":222559003,"name":"高知海岸土佐市荻岬観測所","name_kana":"","ofc_cd":88,"sys_id":2,"sys_cam_id":"22559008","pause":0,"date_type":0,"cam_kind":2,"own_cd":22559}},{"type":"Feature","geometry":{"type":"Point","coordinates":[133.477544444,33.460316666]},"properties":{"id":222559017,"name":"仁淀川 右-0k1土佐市 新居樋門外水","name_kana":"","ofc_cd":88,"sys_id":2,"sys_cam_id":"22559030","pause":0,"date_type":0,"cam_kind":2,"own_cd":22559}},{"type":"Feature","geometry":{"type":"Point","coordinates":[133.453513888,33.488858333]},"properties":{"id":222559018,"name":"仁淀川 右 4ｋ1土佐市 波介川水門外水","name_kana":"","ofc_cd":88,"sys_id":2,"sys_cam_id":"22559031","pause":0,"date_type":0,"cam_kind":2,"own_cd":22559}},{"type":"Feature","geometry":{"type":"Point","coordinates":[133.451852777,33.490663888]},"properties":{"id":222559019,"name":"仁淀川 右 4ｋ1土佐市 波介川水門内水","name_kana":"","ofc_cd":88,"sys_id":2,"sys_cam_id":"22559032","pause":0,"date_type":0,"cam_kind":2,"own_cd":22559}},{"type":"Feature","geometry":{"type":"Point","coordinates":[133.474255555,33.464019444]},"properties":{"id":222559020,"name":"波介川 右0k0土佐市 潮止堰上流","name_kana":"","ofc_cd":88,"sys_id":2,"sys_cam_id":"22559033","pause":0,"date_type":0,"cam_kind":2,"own_cd":22559}},{"type":"Feature","geometry":{"type":"Point","coordinates":[133.477777777,33.459722222]},"properties":{"id":222559026,"name":"仁淀川 右 -0k1土佐市 新居樋門内水","name_kana":"","ofc_cd":88,"sys_id":2,"sys_cam_id":"22559022","pause":0,"date_type":0,"cam_kind":2,"own_cd":22559}},{"type":"Feature","geometry":{"type":"Point","coordinates":[133.456666666,33.4775]},"properties":{"id":222559027,"name":"仁淀川 右 2k4土佐市 用石排水機場外水","name_kana":"","ofc_cd":88,"sys_id":2,"sys_cam_id":"22559023","pause":0,"date_type":0,"cam_kind":2,"own_cd":22559}},{"type":"Feature","geometry":{"type":"Point","coordinates":[133.456666666,33.4775]},"properties":{"id":222559028,"name":"仁淀川 右2k4土佐市 用石排水機場内水","name_kana":"","ofc_cd":88,"sys_id":2,"sys_cam_id":"22559024","pause":0,"date_type":0,"cam_kind":2,"own_cd":22559}},{"type":"Feature","geometry":{"type":"Point","coordinates":[133.4275,33.513333333]},"properties":{"id":222559031,"name":"仁淀川 右7k4土佐市 天崎樋門内水","name_kana":"","ofc_cd":88,"sys_id":2,"sys_cam_id":"22559027","pause":0,"date_type":0,"cam_kind":2,"own_cd":22559}},{"type":"Feature","geometry":{"type":"Point","coordinates":[133.431666666,33.506666666]},"properties":{"id":222559032,"name":"仁淀川 右6k7土佐市 高岡第３樋管外水","name_kana":"","ofc_cd":88,"sys_id":2,"sys_cam_id":"22559028","pause":0,"date_type":0,"cam_kind":2,"own_cd":22559}},{"type":"Feature","geometry":{"type":"Point","coordinates":[133.458333333,33.475277777]},"properties":{"id":222559040,"name":"波介川 右2k0土佐市 波介川樋門","name_kana":"","ofc_cd":88,"sys_id":2,"sys_cam_id":"22559040","pause":0,"date_type":0,"cam_kind":2,"own_cd":22559}},{"type":"Feature","geometry":{"type":"Point","coordinates":[133.461666666,33.471388888]},"properties":{"id":222559041,"name":"波介川 右1k0土佐市 十文字堰","name_kana":"","ofc_cd":88,"sys_id":2,"sys_cam_id":"22559041","pause":0,"date_type":0,"cam_kind":2,"own_cd":22559}},{"type":"Feature","geometry":{"type":"Point","coordinates":[133.477972222,33.459027777]},"properties":{"id":222559043,"name":"仁淀川 右-0k2土佐市 河口大橋右","name_kana":"","ofc_cd":88,"sys_id":2,"sys_cam_id":"22559044","pause":0,"date_type":0,"cam_kind":2,"own_cd":22559}},{"type":"Feature","geometry":{"type":"Point","coordinates":[133.266167,33.391662]},"properties":{"id":109985017,"name":"下分","name_kana":"","ofc_cd":88,"sys_id":1,"sys_cam_id":"9985017","pause":0,"date_type":1,"cam_kind":4,"own_cd":9985}},{"type":"Feature","geometry":{"type":"Point","coordinates":[133.347927,33.430359]},"properties":{"id":109985018,"name":"浦ノ内","name_kana":"","ofc_cd":88,"sys_id":1,"sys_cam_id":"9985018","pause":0,"date_type":1,"cam_kind":4,"own_cd":9985}},{"type":"Feature","geometry":{"type":"Point","coordinates":[132.944516667,32.874080556]},"properties":{"id":109985002,"name":"小方橋","name_kana":"","ofc_cd":88,"sys_id":1,"sys_cam_id":"9985002","pause":0,"date_type":2,"cam_kind":4,"own_cd":9985}},{"type":"Feature","geometry":{"type":"Point","coordinates":[132.819298,32.808074]},"properties":{"id":109985021,"name":"宗呂","name_kana":"","ofc_cd":88,"sys_id":1,"sys_cam_id":"9985021","pause":0,"date_type":1,"cam_kind":4,"own_cd":9985}},{"type":"Feature","geometry":{"type":"Point","coordinates":[132.898931,32.80351]},"properties":{"id":109985022,"name":"益野","name_kana":"","ofc_cd":88,"sys_id":1,"sys_cam_id":"9985022","pause":0,"date_type":1,"cam_kind":4,"own_cd":9985}},{"type":"Feature","geometry":{"type":"Point","coordinates":[132.926964,33.005591]},"properties":{"id":109985020,"name":"大用寺橋","name_kana":"","ofc_cd":88,"sys_id":1,"sys_cam_id":"9985020","pause":0,"date_type":1,"cam_kind":4,"own_cd":9985}},{"type":"Feature","geometry":{"type":"Point","coordinates":[132.955023,32.977892]},"properties":{"id":122560006,"name":"後川左岸0k4四万十市古津賀","name_kana":"","ofc_cd":88,"sys_id":1,"sys_cam_id":"22560006","pause":0,"date_type":2,"cam_kind":4,"own_cd":22560}},{"type":"Feature","geometry":{"type":"Point","coordinates":[132.96,32.970751]},"properties":{"id":122560007,"name":"四万十川右岸5k6四万十市山路","name_kana":"","ofc_cd":88,"sys_id":1,"sys_cam_id":"22560007","pause":0,"date_type":0,"cam_kind":4,"own_cd":22560}},{"type":"Feature","geometry":{"type":"Point","coordinates":[132.946862,32.975751]},"properties":{"id":122560008,"name":"四万十川左岸7k0四万十市不破","name_kana":"","ofc_cd":88,"sys_id":1,"sys_cam_id":"22560008","pause":0,"date_type":0,"cam_kind":4,"own_cd":22560}},{"type":"Feature","geometry":{"type":"Point","coordinates":[132.928863,32.981567]},"properties":{"id":122560009,"name":"四万十川右岸8k6四万十市不破","name_kana":"","ofc_cd":88,"sys_id":1,"sys_cam_id":"22560009","pause":0,"date_type":0,"cam_kind":4,"own_cd":22560}},{"type":"Feature","geometry":{"type":"Point","coordinates":[132.923932,32.989174]},"properties":{"id":122560010,"name":"四万十川右岸9k6四万十市渡川","name_kana":"","ofc_cd":88,"sys_id":1,"sys_cam_id":"22560010","pause":0,"date_type":0,"cam_kind":4,"own_cd":22560}},{"type":"Feature","geometry":{"type":"Point","coordinates":[132.95102,32.97957]},"properties":{"id":122560011,"name":"後川右岸0k8四万十市右山","name_kana":"","ofc_cd":88,"sys_id":1,"sys_cam_id":"22560011","pause":0,"date_type":0,"cam_kind":4,"own_cd":22560}},{"type":"Feature","geometry":{"type":"Point","coordinates":[132.947338,32.984147]},"properties":{"id":122560012,"name":"後川左岸1k4四万十市古津賀","name_kana":"","ofc_cd":88,"sys_id":1,"sys_cam_id":"22560012","pause":0,"date_type":0,"cam_kind":4,"own_cd":22560}},{"type":"Feature","geometry":{"type":"Point","coordinates":[132.92714,33.008364]},"properties":{"id":122560013,"name":"後川右岸5k0四万十市敷地","name_kana":"","ofc_cd":88,"sys_id":1,"sys_cam_id":"22560013","pause":0,"date_type":0,"cam_kind":4,"own_cd":22560}},{"type":"Feature","geometry":{"type":"Point","coordinates":[132.96871,32.95828]},"properties":{"id":122560014,"name":"中筋川右岸0k0四万十市実崎","name_kana":"","ofc_cd":88,"sys_id":1,"sys_cam_id":"22560014","pause":0,"date_type":0,"cam_kind":4,"own_cd":22560}},{"type":"Feature","geometry":{"type":"Point","coordinates":[132.891569,32.971509]},"properties":{"id":122560015,"name":"中筋川右岸9k0四万十市森沢","name_kana":"","ofc_cd":88,"sys_id":1,"sys_cam_id":"22560015","pause":0,"date_type":0,"cam_kind":4,"own_cd":22560}},{"type":"Feature","geometry":{"type":"Point","coordinates":[132.888812,32.9747]},"properties":{"id":122560016,"name":"中筋川左岸9k4四万十市楠島","name_kana":"","ofc_cd":88,"sys_id":1,"sys_cam_id":"22560016","pause":0,"date_type":0,"cam_kind":4,"own_cd":22560}},{"type":"Feature","geometry":{"type":"Point","coordinates":[132.85595,32.969373]},"properties":{"id":122560017,"name":"中筋川左岸13k0四万十市江ノ村","name_kana":"","ofc_cd":88,"sys_id":1,"sys_cam_id":"22560017","pause":0,"date_type":0,"cam_kind":4,"own_cd":22560}},{"type":"Feature","geometry":{"type":"Point","coordinates":[132.931124,32.988427]},"properties":{"id":122560018,"name":"四万十川左岸9k2四万十市中村岩崎町","name_kana":"","ofc_cd":88,"sys_id":1,"sys_cam_id":"22560018","pause":0,"date_type":0,"cam_kind":4,"own_cd":22560}},{"type":"Feature","geometry":{"type":"Point","coordinates":[132.895237,33.007634]},"properties":{"id":122560019,"name":"四万十川左岸13k2四万十市佐田","name_kana":"","ofc_cd":88,"sys_id":1,"sys_cam_id":"22560019","pause":0,"date_type":0,"cam_kind":4,"own_cd":22560}},{"type":"Feature","geometry":{"type":"Point","coordinates":[132.98307,32.934576]},"properties":{"id":122560020,"name":"四万十川右岸0k8四万十市初崎","name_kana":"","ofc_cd":88,"sys_id":1,"sys_cam_id":"22560020","pause":0,"date_type":0,"cam_kind":4,"own_cd":22560}},{"type":"Feature","geometry":{"type":"Point","coordinates":[132.924777777,32.988136111]},"properties":{"id":222560001,"name":"四万十川右9ｋ5四万十市具同","name_kana":"","ofc_cd":88,"sys_id":2,"sys_cam_id":"22560001","pause":0,"date_type":0,"cam_kind":2,"own_cd":22560}},{"type":"Feature","geometry":{"type":"Point","coordinates":[132.999397222,32.9308]},"properties":{"id":222560002,"name":"四万十川右-0ｋ5四万十市初崎","name_kana":"","ofc_cd":88,"sys_id":2,"sys_cam_id":"22560002","pause":0,"date_type":0,"cam_kind":2,"own_cd":22560}},{"type":"Feature","geometry":{"type":"Point","coordinates":[132.931747222,33.026738888]},"properties":{"id":222560003,"name":"後川左7ｋ4四万十市秋田","name_kana":"","ofc_cd":88,"sys_id":2,"sys_cam_id":"22560003","pause":0,"date_type":0,"cam_kind":2,"own_cd":22560}},{"type":"Feature","geometry":{"type":"Point","coordinates":[132.844066666,32.962230555]},"properties":{"id":222560004,"name":"中筋川左14ｋ3四万十市有岡","name_kana":"","ofc_cd":88,"sys_id":2,"sys_cam_id":"22560004","pause":0,"date_type":0,"cam_kind":2,"own_cd":22560}},{"type":"Feature","geometry":{"type":"Point","coordinates":[132.948844444,32.971294444]},"properties":{"id":222560005,"name":"中筋川左3ｋ0四万十市山路","name_kana":"","ofc_cd":88,"sys_id":2,"sys_cam_id":"22560005","pause":0,"date_type":0,"cam_kind":2,"own_cd":22560}},{"type":"Feature","geometry":{"type":"Point","coordinates":[132.975763888,32.940505555]},"properties":{"id":222560006,"name":"四万十川 右 1ｋ6四万十市 間崎","name_kana":"","ofc_cd":88,"sys_id":2,"sys_cam_id":"22560022","pause":0,"date_type":0,"cam_kind":2,"own_cd":22560}},{"type":"Feature","geometry":{"type":"Point","coordinates":[132.960297222,32.976716666]},"properties":{"id":222560007,"name":"四万十川 左 5ｋ7四万十市 井沢","name_kana":"","ofc_cd":88,"sys_id":2,"sys_cam_id":"22560023","pause":0,"date_type":0,"cam_kind":2,"own_cd":22560}},{"type":"Feature","geometry":{"type":"Point","coordinates":[132.932019444,32.982966666]},"properties":{"id":222560008,"name":"四万十川 左 8Ｋ7四万十市 不破上流","name_kana":"","ofc_cd":88,"sys_id":2,"sys_cam_id":"22560024","pause":0,"date_type":0,"cam_kind":2,"own_cd":22560}},{"type":"Feature","geometry":{"type":"Point","coordinates":[132.942852777,32.993905555]},"properties":{"id":222560009,"name":"後川左2ｋ8四万十市谷の前","name_kana":"","ofc_cd":88,"sys_id":2,"sys_cam_id":"22560025","pause":0,"date_type":0,"cam_kind":2,"own_cd":22560}},{"type":"Feature","geometry":{"type":"Point","coordinates":[132.929675,33.022791666]},"properties":{"id":222560010,"name":"後川右6ｋ7四万十市田野川","name_kana":"","ofc_cd":88,"sys_id":2,"sys_cam_id":"22560026","pause":0,"date_type":0,"cam_kind":2,"own_cd":22560}},{"type":"Feature","geometry":{"type":"Point","coordinates":[132.896280555,32.974316666]},"properties":{"id":222560011,"name":"中筋川 左 8ｋ4四万十市 楠島","name_kana":"","ofc_cd":88,"sys_id":2,"sys_cam_id":"22560027","pause":0,"date_type":0,"cam_kind":2,"own_cd":22560}},{"type":"Feature","geometry":{"type":"Point","coordinates":[132.883891666,32.976675]},"properties":{"id":222560012,"name":"中筋川左10ｋ0四万十市榎沢","name_kana":"","ofc_cd":88,"sys_id":2,"sys_cam_id":"22560028","pause":0,"date_type":0,"cam_kind":2,"own_cd":22560}},{"type":"Feature","geometry":{"type":"Point","coordinates":[132.867752777,32.975336111]},"properties":{"id":222560013,"name":"中筋川左11ｋ6四万十市生の川","name_kana":"","ofc_cd":88,"sys_id":2,"sys_cam_id":"22560029","pause":0,"date_type":0,"cam_kind":2,"own_cd":22560}},{"type":"Feature","geometry":{"type":"Point","coordinates":[132.933277777,32.981380555]},"properties":{"id":222560014,"name":"四万十川 左 8Ｋ5四万十市 不破下流","name_kana":"","ofc_cd":88,"sys_id":2,"sys_cam_id":"22560074","pause":0,"date_type":0,"cam_kind":2,"own_cd":22560}},{"type":"Feature","geometry":{"type":"Point","coordinates":[132.935116666,32.999905555]},"properties":{"id":222560015,"name":"後川左3ｋ8四万十市安並","name_kana":"","ofc_cd":88,"sys_id":2,"sys_cam_id":"22560076","pause":0,"date_type":0,"cam_kind":2,"own_cd":22560}},{"type":"Feature","geometry":{"type":"Point","coordinates":[133.689997222,33.536108333]},"properties":{"id":222559008,"name":"物部川左0ｋ0吉川町吉川水門外水","name_kana":"","ofc_cd":88,"sys_id":2,"sys_cam_id":"22559013","pause":0,"date_type":0,"cam_kind":2,"own_cd":22559}},{"type":"Feature","geometry":{"type":"Point","coordinates":[133.682777777,33.557219444]},"properties":{"id":222559009,"name":"物部川左2ｋ3野市町上岡山下流","name_kana":"","ofc_cd":88,"sys_id":2,"sys_cam_id":"22559014","pause":0,"date_type":0,"cam_kind":2,"own_cd":22559}},{"type":"Feature","geometry":{"type":"Point","coordinates":[133.681666666,33.568886111]},"properties":{"id":222559010,"name":"物部川右3ｋ6野市町深渕水位観測所","name_kana":"","ofc_cd":88,"sys_id":2,"sys_cam_id":"22559015","pause":0,"date_type":0,"cam_kind":2,"own_cd":22559}},{"type":"Feature","geometry":{"type":"Point","coordinates":[133.685925,33.571197222]},"properties":{"id":222559015,"name":"物部川 左 3ｋ8野市町 深渕","name_kana":"","ofc_cd":88,"sys_id":2,"sys_cam_id":"22559020","pause":0,"date_type":0,"cam_kind":2,"own_cd":22559}},{"type":"Feature","geometry":{"type":"Point","coordinates":[133.698772222,33.597466666]},"properties":{"id":222559016,"name":"物部川 右 7ｋ4野市町 高川原樋門外水","name_kana":"","ofc_cd":88,"sys_id":2,"sys_cam_id":"22559021","pause":0,"date_type":0,"cam_kind":2,"own_cd":22559}},{"type":"Feature","geometry":{"type":"Point","coordinates":[133.712219444,33.572777777]},"properties":{"id":222559025,"name":"物部川 左 4ｋ0香南市 三宝山","name_kana":"","ofc_cd":88,"sys_id":2,"sys_cam_id":"22559064","pause":0,"date_type":0,"cam_kind":2,"own_cd":22559}},{"type":"Feature","geometry":{"type":"Point","coordinates":[133.71560278,33.6030073]},"properties":{"id":122559008,"name":"加茂","name_kana":"","ofc_cd":88,"sys_id":1,"sys_cam_id":"22559008","pause":0,"date_type":2,"cam_kind":4,"own_cd":22559}},{"type":"Feature","geometry":{"type":"Point","coordinates":[133.712660291,33.609513953]},"properties":{"id":122559026,"name":"下ノ村","name_kana":"","ofc_cd":88,"sys_id":1,"sys_cam_id":"22559026","pause":0,"date_type":0,"cam_kind":4,"own_cd":22559}},{"type":"Feature","geometry":{"type":"Point","coordinates":[133.707777777,33.599719444]},"properties":{"id":222559011,"name":"物部川8ｋ2土佐山田町町田橋","name_kana":"","ofc_cd":88,"sys_id":2,"sys_cam_id":"22559016","pause":0,"date_type":0,"cam_kind":2,"own_cd":22559}},{"type":"Feature","geometry":{"type":"Point","coordinates":[133.686111111,33.581111111]},"properties":{"id":222559035,"name":"物部川 右5k2香美市 京田樋門","name_kana":"","ofc_cd":88,"sys_id":2,"sys_cam_id":"22559035","pause":0,"date_type":0,"cam_kind":2,"own_cd":22559}},{"type":"Feature","geometry":{"type":"Point","coordinates":[133.694722222,33.594444444]},"properties":{"id":222559036,"name":"物部川 右6k8土佐山田町 岩積樋管","name_kana":"","ofc_cd":88,"sys_id":2,"sys_cam_id":"22559036","pause":0,"date_type":0,"cam_kind":2,"own_cd":22559}},{"type":"Feature","geometry":{"type":"Point","coordinates":[133.713611111,33.615]},"properties":{"id":222559037,"name":"物部川 右10k0香美市 楠目","name_kana":"","ofc_cd":88,"sys_id":2,"sys_cam_id":"22559037","pause":0,"date_type":0,"cam_kind":2,"own_cd":22559}},{"type":"Feature","geometry":{"type":"Point","coordinates":[133.710644444,33.60355]},"properties":{"id":222559042,"name":"物部川 右8k6香美市 下ノ村","name_kana":"","ofc_cd":88,"sys_id":2,"sys_cam_id":"22559043","pause":0,"date_type":0,"cam_kind":2,"own_cd":22559}},{"type":"Feature","geometry":{"type":"Point","coordinates":[134.027906,33.422158]},"properties":{"id":109985025,"name":"小谷橋下流","name_kana":"","ofc_cd":88,"sys_id":1,"sys_cam_id":"9985025","pause":0,"date_type":1,"cam_kind":4,"own_cd":9985}},{"type":"Feature","geometry":{"type":"Point","coordinates":[134.0134219,33.4273677]},"properties":{"id":109985007,"name":"巽枦地橋","name_kana":"","ofc_cd":88,"sys_id":1,"sys_cam_id":"9985007","pause":0,"date_type":0,"cam_kind":4,"own_cd":9985}},{"type":"Feature","geometry":{"type":"Point","coordinates":[133.9926902,33.4695825]},"properties":{"id":109985008,"name":"間下","name_kana":"","ofc_cd":88,"sys_id":1,"sys_cam_id":"9985008","pause":0,"date_type":0,"cam_kind":4,"own_cd":9985}},{"type":"Feature","geometry":{"type":"Point","coordinates":[133.79993,33.51882]},"properties":{"id":109985026,"name":"堀切橋下流","name_kana":"","ofc_cd":88,"sys_id":1,"sys_cam_id":"9985026","pause":0,"date_type":1,"cam_kind":4,"own_cd":9985}},{"type":"Feature","geometry":{"type":"Point","coordinates":[133.5576355,33.7538233]},"properties":{"id":109985010,"name":"吉野きらきら橋","name_kana":"","ofc_cd":88,"sys_id":1,"sys_cam_id":"9985010","pause":0,"date_type":0,"cam_kind":4,"own_cd":9985}},{"type":"Feature","geometry":{"type":"Point","coordinates":[133.554444444,33.75]},"properties":{"id":222552001,"name":"吉野川水系地蔵寺川　土佐郡土佐町　３河川合流点前","name_kana":"","ofc_cd":88,"sys_id":2,"sys_cam_id":"22552001","pause":0,"date_type":0,"cam_kind":2,"own_cd":22552}},{"type":"Feature","geometry":{"type":"Point","coordinates":[133.584722222,33.760833333]},"properties":{"id":222552002,"name":"吉野川水系吉野川　長岡郡本山町本山　嶺北中央病院","name_kana":"","ofc_cd":88,"sys_id":2,"sys_cam_id":"22552002","pause":0,"date_type":0,"cam_kind":2,"own_cd":22552}},{"type":"Feature","geometry":{"type":"Point","coordinates":[133.4609234,33.5514442]},"properties":{"id":109985012,"name":"宇治団地東橋","name_kana":"","ofc_cd":88,"sys_id":1,"sys_cam_id":"9985012","pause":0,"date_type":0,"cam_kind":4,"own_cd":9985}},{"type":"Feature","geometry":{"type":"Point","coordinates":[133.4253828,33.5277728]},"properties":{"id":109985013,"name":"南の谷橋","name_kana":"","ofc_cd":88,"sys_id":1,"sys_cam_id":"9985013","pause":0,"date_type":0,"cam_kind":4,"own_cd":9985}},{"type":"Feature","geometry":{"type":"Point","coordinates":[133.431491,33.5269012]},"properties":{"id":122559015,"name":"八田","name_kana":"","ofc_cd":88,"sys_id":1,"sys_cam_id":"22559015","pause":0,"date_type":2,"cam_kind":4,"own_cd":22559}},{"type":"Feature","geometry":{"type":"Point","coordinates":[133.42295278,33.541192]},"properties":{"id":122559016,"name":"鎌田","name_kana":"","ofc_cd":88,"sys_id":1,"sys_cam_id":"22559016","pause":0,"date_type":2,"cam_kind":4,"own_cd":22559}},{"type":"Feature","geometry":{"type":"Point","coordinates":[133.42116111,33.5494294]},"properties":{"id":122559017,"name":"大国町","name_kana":"","ofc_cd":88,"sys_id":1,"sys_cam_id":"22559017","pause":0,"date_type":2,"cam_kind":4,"own_cd":22559}},{"type":"Feature","geometry":{"type":"Point","coordinates":[133.41560556,33.5517904]},"properties":{"id":122559018,"name":"谷","name_kana":"","ofc_cd":88,"sys_id":1,"sys_cam_id":"22559018","pause":0,"date_type":2,"cam_kind":4,"own_cd":22559}},{"type":"Feature","geometry":{"type":"Point","coordinates":[133.4073761,33.5506251]},"properties":{"id":122559019,"name":"波川北","name_kana":"","ofc_cd":88,"sys_id":1,"sys_cam_id":"22559019","pause":0,"date_type":2,"cam_kind":4,"own_cd":22559}},{"type":"Feature","geometry":{"type":"Point","coordinates":[133.4039149,33.5463413]},"properties":{"id":122559020,"name":"茂地","name_kana":"","ofc_cd":88,"sys_id":1,"sys_cam_id":"22559020","pause":0,"date_type":2,"cam_kind":4,"own_cd":22559}},{"type":"Feature","geometry":{"type":"Point","coordinates":[133.3961907,33.5476088]},"properties":{"id":122559022,"name":"加田上流","name_kana":"","ofc_cd":88,"sys_id":1,"sys_cam_id":"22559022","pause":0,"date_type":2,"cam_kind":4,"own_cd":22559}},{"type":"Feature","geometry":{"type":"Point","coordinates":[133.43056111,33.5424159]},"properties":{"id":122559024,"name":"天神インター","name_kana":"","ofc_cd":88,"sys_id":1,"sys_cam_id":"22559024","pause":0,"date_type":0,"cam_kind":4,"own_cd":22559}},{"type":"Feature","geometry":{"type":"Point","coordinates":[133.4462216,33.5502431]},"properties":{"id":122559025,"name":"是友","name_kana":"","ofc_cd":88,"sys_id":1,"sys_cam_id":"22559025","pause":0,"date_type":2,"cam_kind":4,"own_cd":22559}},{"type":"Feature","geometry":{"type":"Point","coordinates":[133.4472778,33.5511111]},"properties":{"id":122559028,"name":"藤ヶ瀬","name_kana":"","ofc_cd":88,"sys_id":1,"sys_cam_id":"22559028","pause":0,"date_type":0,"cam_kind":4,"own_cd":22559}},{"type":"Feature","geometry":{"type":"Point","coordinates":[133.426666666,33.526108333]},"properties":{"id":222559004,"name":"仁淀川右8ｋ8いの町南の谷排水機場内水","name_kana":"","ofc_cd":88,"sys_id":2,"sys_cam_id":"22559009","pause":0,"date_type":0,"cam_kind":2,"own_cd":22559}},{"type":"Feature","geometry":{"type":"Point","coordinates":[133.413330555,33.553052777]},"properties":{"id":222559005,"name":"仁淀川左12ｋ3いの町伊野水位観測所","name_kana":"","ofc_cd":88,"sys_id":2,"sys_cam_id":"22559010","pause":0,"date_type":0,"cam_kind":2,"own_cd":22559}},{"type":"Feature","geometry":{"type":"Point","coordinates":[133.427977777,33.527730555]},"properties":{"id":222559012,"name":"仁淀川 右 9ｋ0いの町 日下川放水路吐口","name_kana":"","ofc_cd":88,"sys_id":2,"sys_cam_id":"22559017","pause":0,"date_type":0,"cam_kind":2,"own_cd":22559}},{"type":"Feature","geometry":{"type":"Point","coordinates":[133.4375,33.513330555]},"properties":{"id":222559021,"name":"仁淀川 左 7ｋ2いの町 奥田川排水機場内水","name_kana":"","ofc_cd":88,"sys_id":2,"sys_cam_id":"22559042","pause":0,"date_type":0,"cam_kind":2,"own_cd":22559}},{"type":"Feature","geometry":{"type":"Point","coordinates":[133.431941666,33.538888888]},"properties":{"id":222559022,"name":"仁淀川 左 9ｋ8いの町 宇治川排水機場内水","name_kana":"","ofc_cd":88,"sys_id":2,"sys_cam_id":"22559046","pause":0,"date_type":0,"cam_kind":2,"own_cd":22559}},{"type":"Feature","geometry":{"type":"Point","coordinates":[133.440830555,33.545830555]},"properties":{"id":222559024,"name":"宇治川 2ｋ2 新宇治川放水路（呑口）","name_kana":"","ofc_cd":88,"sys_id":2,"sys_cam_id":"22559054","pause":0,"date_type":0,"cam_kind":2,"own_cd":22559}},{"type":"Feature","geometry":{"type":"Point","coordinates":[133.436944444,33.512777777]},"properties":{"id":222559030,"name":"仁淀川 左7k2いの町 奥田川排水外水","name_kana":"","ofc_cd":88,"sys_id":2,"sys_cam_id":"22559026","pause":0,"date_type":0,"cam_kind":2,"own_cd":22559}},{"type":"Feature","geometry":{"type":"Point","coordinates":[133.401361111,33.550638888]},"properties":{"id":222559047,"name":"仁淀川 左13k4いの町 加田","name_kana":"","ofc_cd":88,"sys_id":2,"sys_cam_id":"22559049","pause":0,"date_type":0,"cam_kind":2,"own_cd":22559}},{"type":"Feature","geometry":{"type":"Point","coordinates":[133.41336388,33.55308055]},"properties":{"id":222559048,"name":"仁淀川左12ｋ3いの町伊野水位観測所固定","name_kana":"","ofc_cd":88,"sys_id":2,"sys_cam_id":"22559051","pause":0,"date_type":0,"cam_kind":2,"own_cd":22559}},{"type":"Feature","geometry":{"type":"Point","coordinates":[133.270051,33.544935]},"properties":{"id":109985014,"name":"大田川橋","name_kana":"","ofc_cd":88,"sys_id":1,"sys_cam_id":"9985014","pause":0,"date_type":1,"cam_kind":4,"own_cd":9985}},{"type":"Feature","geometry":{"type":"Point","coordinates":[133.323106,33.522408]},"properties":{"id":109985015,"name":"駅前橋","name_kana":"","ofc_cd":88,"sys_id":1,"sys_cam_id":"9985015","pause":0,"date_type":1,"cam_kind":4,"own_cd":9985}},{"type":"Feature","geometry":{"type":"Point","coordinates":[133.255724,33.54113]},"properties":{"id":109985016,"name":"柴尾","name_kana":"","ofc_cd":88,"sys_id":1,"sys_cam_id":"9985016","pause":0,"date_type":1,"cam_kind":4,"own_cd":9985}},{"type":"Feature","geometry":{"type":"Point","coordinates":[132.944953,33.432263]},"properties":{"id":109985027,"name":"田野々","name_kana":"","ofc_cd":88,"sys_id":1,"sys_cam_id":"9985027","pause":0,"date_type":1,"cam_kind":4,"own_cd":9985}},{"type":"Feature","geometry":{"type":"Point","coordinates":[133.375384,33.533553]},"properties":{"id":122559021,"name":"新日下川放水路","name_kana":"しんくさかがわほうすいろ","ofc_cd":88,"sys_id":1,"sys_cam_id":"22559021","pause":0,"date_type":2,"cam_kind":4,"own_cd":22559}},{"type":"Feature","geometry":{"type":"Point","coordinates":[133.3889614,33.5492144]},"properties":{"id":122559023,"name":"江尻","name_kana":"","ofc_cd":88,"sys_id":1,"sys_cam_id":"22559023","pause":0,"date_type":2,"cam_kind":4,"own_cd":22559}},{"type":"Feature","geometry":{"type":"Point","coordinates":[133.376666667,33.534166667]},"properties":{"id":222559023,"name":"日高村 日下川放水路（呑口）","name_kana":"","ofc_cd":88,"sys_id":2,"sys_cam_id":"22559050","pause":0,"date_type":0,"cam_kind":2,"own_cd":22559}},{"type":"Feature","geometry":{"type":"Point","coordinates":[133.392222222,33.544166666]},"properties":{"id":222559033,"name":"仁淀川 右14k3日高村 神母樋門内水","name_kana":"","ofc_cd":88,"sys_id":2,"sys_cam_id":"22559029","pause":0,"date_type":0,"cam_kind":2,"own_cd":22559}},{"type":"Feature","geometry":{"type":"Point","coordinates":[133.232182,33.432013]},"properties":{"id":109985019,"name":"馬関橋","name_kana":"","ofc_cd":88,"sys_id":1,"sys_cam_id":"9985019","pause":0,"date_type":1,"cam_kind":4,"own_cd":9985}},{"type":"Feature","geometry":{"type":"Point","coordinates":[133.136555556,33.210541667]},"properties":{"id":109985001,"name":"窪川東橋","name_kana":"","ofc_cd":88,"sys_id":1,"sys_cam_id":"9985001","pause":0,"date_type":2,"cam_kind":4,"own_cd":9985}},{"type":"Feature","geometry":{"type":"Point","coordinates":[132.783893,32.761922]},"properties":{"id":109985023,"name":"小才角","name_kana":"","ofc_cd":88,"sys_id":1,"sys_cam_id":"9985023","pause":0,"date_type":1,"cam_kind":4,"own_cd":9985}},{"type":"Feature","geometry":{"type":"Point","coordinates":[132.719901,32.803243]},"properties":{"id":109985024,"name":"周防形","name_kana":"","ofc_cd":88,"sys_id":1,"sys_cam_id":"9985024","pause":0,"date_type":1,"cam_kind":4,"own_cd":9985}},{"type":"Feature","geometry":{"type":"Point","coordinates":[132.848104,32.904352]},"properties":{"id":109985029,"name":"来栖野","name_kana":"","ofc_cd":88,"sys_id":1,"sys_cam_id":"9985029","pause":0,"date_type":1,"cam_kind":4,"own_cd":9985}},{"type":"Feature","geometry":{"type":"Point","coordinates":[133.097863,33.106364]},"properties":{"id":109985028,"name":"伊与喜","name_kana":"","ofc_cd":88,"sys_id":1,"sys_cam_id":"9985028","pause":0,"date_type":1,"cam_kind":4,"own_cd":9985}}]}