{"type":"FeatureCollection","crs":{"type":"name","properties":{"name":"EPSG:4326"}},"features":[{"type":"Feature","geometry":{"type":"Point","coordinates":[137.2358845,35.3258984]},"properties":{"id":105377030,"name":"肥田川駄知町","name_kana":"","ofc_cd":85,"sys_id":1,"sys_cam_id":"5377030","pause":0,"date_type":1,"cam_kind":4,"own_cd":5377}},{"type":"Feature","geometry":{"type":"Point","coordinates":[137.1928472,35.3613194]},"properties":{"id":221782004,"name":"浅野緑地","name_kana":"","ofc_cd":85,"sys_id":2,"sys_cam_id":"21010036","pause":0,"date_type":0,"cam_kind":2,"own_cd":21782}},{"type":"Feature","geometry":{"type":"Point","coordinates":[137.1899056,35.3574611]},"properties":{"id":221782005,"name":"土岐観測所","name_kana":"","ofc_cd":85,"sys_id":2,"sys_cam_id":"21010037","pause":0,"date_type":0,"cam_kind":2,"own_cd":21782}},{"type":"Feature","geometry":{"type":"Point","coordinates":[137.1740778,35.3541306]},"properties":{"id":221782006,"name":"土岐防災拠点","name_kana":"","ofc_cd":85,"sys_id":2,"sys_cam_id":"21010038","pause":0,"date_type":0,"cam_kind":2,"own_cd":21782}},{"type":"Feature","geometry":{"type":"Point","coordinates":[137.1865252,35.3234444]},"properties":{"id":221792004,"name":"妻木川下石川合流点","name_kana":"つまぎがわおろしがわごうりゅうてん","ofc_cd":85,"sys_id":2,"sys_cam_id":"21792004","pause":0,"date_type":0,"cam_kind":3,"own_cd":21792}}]}