{"type":"FeatureCollection","crs":{"type":"name","properties":{"name":"EPSG:4326"}},"features":[{"type":"Feature","geometry":{"type":"Point","coordinates":[140.9394987,38.4013696]},"properties":{"id":101025082,"name":"小西川","name_kana":"こにしがわ","ofc_cd":82,"sys_id":1,"sys_cam_id":"1025082","pause":0,"date_type":2,"cam_kind":4,"own_cd":1025}},{"type":"Feature","geometry":{"type":"Point","coordinates":[140.95335,38.433827]},"properties":{"id":101025105,"name":"身洗川","name_kana":"みあらいがわ","ofc_cd":82,"sys_id":1,"sys_cam_id":"1025105","pause":0,"date_type":2,"cam_kind":4,"own_cd":1025}},{"type":"Feature","geometry":{"type":"Point","coordinates":[140.904444,38.436944]},"properties":{"id":121034113,"name":"吉田川30.3kＬ","name_kana":"よしだがわ30.3kＬ","ofc_cd":82,"sys_id":1,"sys_cam_id":"21034113","pause":0,"date_type":2,"cam_kind":4,"own_cd":21034}},{"type":"Feature","geometry":{"type":"Point","coordinates":[140.906336,38.444517]},"properties":{"id":121034114,"name":"善川2.2ｋR","name_kana":"ぜんかわ2.2ｋR","ofc_cd":82,"sys_id":1,"sys_cam_id":"21034114","pause":0,"date_type":2,"cam_kind":4,"own_cd":21034}},{"type":"Feature","geometry":{"type":"Point","coordinates":[140.894077,38.432149]},"properties":{"id":121034115,"name":"吉田川31.3kＬ","name_kana":"よしだがわ31.3kＬ","ofc_cd":82,"sys_id":1,"sys_cam_id":"21034115","pause":0,"date_type":2,"cam_kind":4,"own_cd":21034}},{"type":"Feature","geometry":{"type":"Point","coordinates":[140.911111,38.426111]},"properties":{"id":121034116,"name":"竹林川0.6k R","name_kana":"たけばやしがわ0.6k R","ofc_cd":82,"sys_id":1,"sys_cam_id":"21034116","pause":0,"date_type":2,"cam_kind":4,"own_cd":21034}},{"type":"Feature","geometry":{"type":"Point","coordinates":[140.893867,38.431511]},"properties":{"id":121034121,"name":"吉田川31.5kＲ","name_kana":"よしだがわ31.5kＲ","ofc_cd":82,"sys_id":1,"sys_cam_id":"21034121","pause":0,"date_type":2,"cam_kind":4,"own_cd":21034}},{"type":"Feature","geometry":{"type":"Point","coordinates":[140.898845,38.420434]},"properties":{"id":121034122,"name":"竹林川2.2kＲ","name_kana":"たけばやしがわ2.2kＲ","ofc_cd":82,"sys_id":1,"sys_cam_id":"21034122","pause":0,"date_type":2,"cam_kind":4,"own_cd":21034}},{"type":"Feature","geometry":{"type":"Point","coordinates":[140.899744,38.444073]},"properties":{"id":121034124,"name":"善川2.8ｋ R","name_kana":"ぜんかわ2.8ｋR","ofc_cd":82,"sys_id":1,"sys_cam_id":"21034124","pause":0,"date_type":2,"cam_kind":4,"own_cd":21034}},{"type":"Feature","geometry":{"type":"Point","coordinates":[140.919831,38.43482]},"properties":{"id":121034126,"name":"善川0.4kＲ","name_kana":"ぜんかわ0.4kＲ","ofc_cd":82,"sys_id":1,"sys_cam_id":"21034126","pause":0,"date_type":2,"cam_kind":4,"own_cd":21034}},{"type":"Feature","geometry":{"type":"Point","coordinates":[140.912351,38.442461]},"properties":{"id":121034127,"name":"善川1.6kＲ","name_kana":"ぜんかわ1.6kＲ","ofc_cd":82,"sys_id":1,"sys_cam_id":"21034127","pause":0,"date_type":2,"cam_kind":4,"own_cd":21034}},{"type":"Feature","geometry":{"type":"Point","coordinates":[140.9895314,38.43979689]},"properties":{"id":121034128,"name":"吉田川　L21.0k","name_kana":"よしだがわ　L21.0k","ofc_cd":82,"sys_id":1,"sys_cam_id":"21034128","pause":0,"date_type":2,"cam_kind":4,"own_cd":21034}},{"type":"Feature","geometry":{"type":"Point","coordinates":[140.97,38.434444]},"properties":{"id":221034041,"name":"身洗川水門左岸23.3ｋｍ","name_kana":"","ofc_cd":82,"sys_id":2,"sys_cam_id":"21034027","pause":0,"date_type":0,"cam_kind":2,"own_cd":21034}},{"type":"Feature","geometry":{"type":"Point","coordinates":[140.961111,38.426667]},"properties":{"id":221034042,"name":"桧和田地区左岸25.0km","name_kana":"","ofc_cd":82,"sys_id":2,"sys_cam_id":"21034042","pause":0,"date_type":0,"cam_kind":2,"own_cd":21034}},{"type":"Feature","geometry":{"type":"Point","coordinates":[140.922778,38.430833]},"properties":{"id":221034043,"name":"三川合流点左岸28.6km","name_kana":"","ofc_cd":82,"sys_id":2,"sys_cam_id":"21034043","pause":0,"date_type":0,"cam_kind":2,"own_cd":21034}},{"type":"Feature","geometry":{"type":"Point","coordinates":[140.916508,38.429572]},"properties":{"id":221034055,"name":"竹林川遊水地内左岸0.3km","name_kana":"","ofc_cd":82,"sys_id":2,"sys_cam_id":"21034055","pause":0,"date_type":0,"cam_kind":2,"own_cd":21034}},{"type":"Feature","geometry":{"type":"Point","coordinates":[140.905003,38.426975]},"properties":{"id":221034056,"name":"竹林川遊水地越流堤左岸1.4km","name_kana":"","ofc_cd":82,"sys_id":2,"sys_cam_id":"21034056","pause":0,"date_type":0,"cam_kind":2,"own_cd":21034}}]}