{"type":"FeatureCollection","crs":{"type":"name","properties":{"name":"EPSG:4326"}},"features":[{"type":"Feature","geometry":{"type":"Point","coordinates":[143.029752778,42.919402778]},"properties":{"id":100257520,"name":"芽室川  2.2Kp","name_kana":"","ofc_cd":81,"sys_id":1,"sys_cam_id":"257520","pause":0,"date_type":2,"cam_kind":4,"own_cd":257}},{"type":"Feature","geometry":{"type":"Point","coordinates":[143.062286111,42.9118]},"properties":{"id":100257521,"name":"美生川  2.1Kp","name_kana":"","ofc_cd":81,"sys_id":1,"sys_cam_id":"257521","pause":0,"date_type":2,"cam_kind":4,"own_cd":257}},{"type":"Feature","geometry":{"type":"Point","coordinates":[143.039512778,42.910097222]},"properties":{"id":100257522,"name":"ピウカ川  2.6Kp","name_kana":"","ofc_cd":81,"sys_id":1,"sys_cam_id":"257522","pause":0,"date_type":2,"cam_kind":4,"own_cd":257}},{"type":"Feature","geometry":{"type":"Point","coordinates":[142.9848294,42.883077778]},"properties":{"id":100257539,"name":"渋山川  3.9Kp","name_kana":"","ofc_cd":81,"sys_id":1,"sys_cam_id":"257539","pause":0,"date_type":2,"cam_kind":4,"own_cd":257}},{"type":"Feature","geometry":{"type":"Point","coordinates":[142.956715556,42.801675]},"properties":{"id":100257552,"name":"美生川  19.1Kp","name_kana":"","ofc_cd":81,"sys_id":1,"sys_cam_id":"257552","pause":0,"date_type":2,"cam_kind":4,"own_cd":257}},{"type":"Feature","geometry":{"type":"Point","coordinates":[143.0635333,42.92775]},"properties":{"id":120736325,"name":"十勝川KP69.6右岸カメラ","name_kana":"とかちがわKP69.6うがんかめら","ofc_cd":81,"sys_id":1,"sys_cam_id":"20736325","pause":0,"date_type":2,"cam_kind":4,"own_cd":23357}},{"type":"Feature","geometry":{"type":"Point","coordinates":[143.0455167,42.9266333]},"properties":{"id":120736326,"name":"十勝川KP71.2右岸カメラ","name_kana":"とかちがわKP71.2うがんかめら","ofc_cd":81,"sys_id":1,"sys_cam_id":"20736326","pause":0,"date_type":2,"cam_kind":4,"own_cd":23357}},{"type":"Feature","geometry":{"type":"Point","coordinates":[143.072584489,42.932441363]},"properties":{"id":123357005,"name":"十勝川KP68.8左岸カメラ","name_kana":"とかちがわKP68.8さがんかめら","ofc_cd":81,"sys_id":1,"sys_cam_id":"23357005","pause":0,"date_type":2,"cam_kind":4,"own_cd":23357}},{"type":"Feature","geometry":{"type":"Point","coordinates":[143.0473889,42.9306667]},"properties":{"id":223357042,"name":"十勝川　７１．１ｋｐ　祥栄橋","name_kana":"とかちがわ　７１．１ｋｐ　しょうえいばし","ofc_cd":81,"sys_id":2,"sys_cam_id":"23357042","pause":0,"date_type":0,"cam_kind":2,"own_cd":23357}},{"type":"Feature","geometry":{"type":"Point","coordinates":[143.0465833,42.9306111]},"properties":{"id":223357043,"name":"十勝川　７１．２ｋｐ　芽室太第１樋門","name_kana":"とかちがわ　７１．２ｋｐ　めむろぶとだい１ひもん","ofc_cd":81,"sys_id":2,"sys_cam_id":"23357043","pause":0,"date_type":0,"cam_kind":2,"own_cd":23357}},{"type":"Feature","geometry":{"type":"Point","coordinates":[143.0291944,42.93475]},"properties":{"id":223357044,"name":"十勝川　７３．１ｋｐ　芽室太第２樋門","name_kana":"とかちがわ　７３．１ｋｐ　めむろぶとだい２ひもん","ofc_cd":81,"sys_id":2,"sys_cam_id":"23357044","pause":0,"date_type":0,"cam_kind":2,"own_cd":23357}},{"type":"Feature","geometry":{"type":"Point","coordinates":[143.0116944,42.9406111]},"properties":{"id":223357045,"name":"十勝川　７４．７ｋｐ　関山樋門","name_kana":"とかちがわ　７４．７ｋｐ　せきやまひもん","ofc_cd":81,"sys_id":2,"sys_cam_id":"23357045","pause":0,"date_type":0,"cam_kind":2,"own_cd":23357}},{"type":"Feature","geometry":{"type":"Point","coordinates":[143.0020833,42.9435556]},"properties":{"id":223357046,"name":"十勝川　７５．５ｋｐ　芽室太築堤","name_kana":"とかちがわ　７５．５ｋｐ　めむろぶとちくてい","ofc_cd":81,"sys_id":2,"sys_cam_id":"23357046","pause":0,"date_type":0,"cam_kind":2,"own_cd":23357}},{"type":"Feature","geometry":{"type":"Point","coordinates":[142.9948611,42.9441667]},"properties":{"id":223357047,"name":"十勝川　７６．１ｋｐ　芽室太樋門　樋門","name_kana":"とかちがわ　７６．１ｋｐ　めむろぶとひもん　ひもん","ofc_cd":81,"sys_id":2,"sys_cam_id":"23357047","pause":0,"date_type":0,"cam_kind":2,"own_cd":23357}},{"type":"Feature","geometry":{"type":"Point","coordinates":[142.97775,42.9505833]},"properties":{"id":223357048,"name":"十勝川　７７．９ｋｐ　毛根樋門","name_kana":"とかちがわ　７７．９ｋｐ　けねひもん","ofc_cd":81,"sys_id":2,"sys_cam_id":"23357048","pause":0,"date_type":0,"cam_kind":2,"own_cd":23357}},{"type":"Feature","geometry":{"type":"Point","coordinates":[142.9631944,42.9596111]},"properties":{"id":223357049,"name":"十勝川　７９．６ｋｐ　十勝橋","name_kana":"とかちがわ　７９．６ｋｐ　とかちばし","ofc_cd":81,"sys_id":2,"sys_cam_id":"23357049","pause":0,"date_type":0,"cam_kind":2,"own_cd":23357}}]}