{"type":"FeatureCollection","crs":{"type":"name","properties":{"name":"EPSG:4326"}},"features":[{"type":"Feature","geometry":{"type":"Point","coordinates":[139.50524,37.446057]},"properties":{"id":101793013,"name":"只見川（西谷橋）","name_kana":"ただみがわ（にしやばし）","ofc_cd":82,"sys_id":1,"sys_cam_id":"1793013","pause":0,"date_type":2,"cam_kind":4,"own_cd":1793}},{"type":"Feature","geometry":{"type":"Point","coordinates":[139.561411,37.482681]},"properties":{"id":101793156,"name":"只見川(水沼橋)","name_kana":"ただみかわ（みずぬまばし）","ofc_cd":82,"sys_id":1,"sys_cam_id":"1793156","pause":0,"date_type":2,"cam_kind":4,"own_cd":1793}},{"type":"Feature","geometry":{"type":"Point","coordinates":[139.521262,37.452955]},"properties":{"id":101793157,"name":"野尻川(川口橋)","name_kana":"のじりかわ（かわぐちはし）","ofc_cd":82,"sys_id":1,"sys_cam_id":"1793157","pause":0,"date_type":2,"cam_kind":4,"own_cd":1793}},{"type":"Feature","geometry":{"type":"Point","coordinates":[139.445266,37.365791]},"properties":{"id":101793163,"name":"山入川(鮭立橋)","name_kana":"やまいりかわ（さけだちばし）","ofc_cd":82,"sys_id":1,"sys_cam_id":"1793163","pause":0,"date_type":2,"cam_kind":4,"own_cd":1793}},{"type":"Feature","geometry":{"type":"Point","coordinates":[139.531228,37.457466]},"properties":{"id":101793199,"name":"只見川　（金山ふれあい広場）　","name_kana":"ただみかわ（かねやまふれあいひろば）","ofc_cd":82,"sys_id":1,"sys_cam_id":"1793199","pause":0,"date_type":1,"cam_kind":4,"own_cd":1793}},{"type":"Feature","geometry":{"type":"Point","coordinates":[139.482414,37.431823]},"properties":{"id":101793200,"name":"只見川　（湯倉橋）　","name_kana":"ただみかわ（ゆぐらばし）","ofc_cd":82,"sys_id":1,"sys_cam_id":"1793200","pause":0,"date_type":1,"cam_kind":4,"own_cd":1793}},{"type":"Feature","geometry":{"type":"Point","coordinates":[139.459768,37.398456]},"properties":{"id":101793201,"name":"只見川　（越川側道橋）　","name_kana":"ただみかわ（こすがわそくどうきょう）","ofc_cd":82,"sys_id":1,"sys_cam_id":"1793201","pause":0,"date_type":1,"cam_kind":4,"own_cd":1793}},{"type":"Feature","geometry":{"type":"Point","coordinates":[139.447278,37.394118]},"properties":{"id":101793202,"name":"山入川　（丹過橋）　","name_kana":"やまいりかわ（たんかばし）","ofc_cd":82,"sys_id":1,"sys_cam_id":"1793202","pause":0,"date_type":1,"cam_kind":4,"own_cd":1793}},{"type":"Feature","geometry":{"type":"Point","coordinates":[139.433465,37.39535]},"properties":{"id":101793203,"name":"只見川　（二本木橋）　","name_kana":"ただみかわ（にほんぎばし）","ofc_cd":82,"sys_id":1,"sys_cam_id":"1793203","pause":0,"date_type":1,"cam_kind":4,"own_cd":1793}},{"type":"Feature","geometry":{"type":"Point","coordinates":[139.403824,37.392479]},"properties":{"id":101793204,"name":"只見川　（田沢橋）　","name_kana":"ただみかわ（たざわばし）","ofc_cd":82,"sys_id":1,"sys_cam_id":"1793204","pause":0,"date_type":2,"cam_kind":4,"own_cd":1793}},{"type":"Feature","geometry":{"type":"Point","coordinates":[139.544472,37.422334]},"properties":{"id":101793205,"name":"野尻川　（弁天橋）　","name_kana":"のじりかわ（べんてんばし）","ofc_cd":82,"sys_id":1,"sys_cam_id":"1793205","pause":0,"date_type":1,"cam_kind":4,"own_cd":1793}}]}