{"type":"FeatureCollection","crs":{"type":"name","properties":{"name":"EPSG:4326"}},"features":[{"type":"Feature","geometry":{"type":"Point","coordinates":[135.402978,35.359766]},"properties":{"id":106657036,"name":"上林川_八津合","name_kana":"","ofc_cd":86,"sys_id":1,"sys_cam_id":"6657036","pause":0,"date_type":0,"cam_kind":4,"own_cd":6657}},{"type":"Feature","geometry":{"type":"Point","coordinates":[135.289273,35.323959]},"properties":{"id":106657037,"name":"八田川_渕垣","name_kana":"","ofc_cd":86,"sys_id":1,"sys_cam_id":"6657037","pause":0,"date_type":0,"cam_kind":4,"own_cd":6657}},{"type":"Feature","geometry":{"type":"Point","coordinates":[135.2166,35.343391]},"properties":{"id":106657041,"name":"犀川_新庄","name_kana":"","ofc_cd":86,"sys_id":1,"sys_cam_id":"6657041","pause":0,"date_type":0,"cam_kind":4,"own_cd":6657}},{"type":"Feature","geometry":{"type":"Point","coordinates":[135.252391667,35.309277778]},"properties":{"id":122051033,"name":"由良川 綾部市位田町（左岸）","name_kana":"","ofc_cd":86,"sys_id":1,"sys_cam_id":"22051033","pause":0,"date_type":1,"cam_kind":4,"own_cd":22051}},{"type":"Feature","geometry":{"type":"Point","coordinates":[135.208611111,35.310277778]},"properties":{"id":222051020,"name":"小貝","name_kana":"","ofc_cd":86,"sys_id":2,"sys_cam_id":"26010025","pause":0,"date_type":0,"cam_kind":2,"own_cd":22051}},{"type":"Feature","geometry":{"type":"Point","coordinates":[135.23,35.309166667]},"properties":{"id":222051021,"name":"以久田橋","name_kana":"","ofc_cd":86,"sys_id":2,"sys_cam_id":"26010026","pause":0,"date_type":0,"cam_kind":2,"own_cd":22051}},{"type":"Feature","geometry":{"type":"Point","coordinates":[135.2627778,35.2988889]},"properties":{"id":222051022,"name":"丹波大橋－２","name_kana":"","ofc_cd":86,"sys_id":2,"sys_cam_id":"26010027","pause":0,"date_type":0,"cam_kind":2,"own_cd":22051}},{"type":"Feature","geometry":{"type":"Point","coordinates":[135.2666667,35.3013889]},"properties":{"id":222051023,"name":"綾部水位観測所","name_kana":"","ofc_cd":86,"sys_id":2,"sys_cam_id":"26010028","pause":0,"date_type":0,"cam_kind":2,"own_cd":22051}},{"type":"Feature","geometry":{"type":"Point","coordinates":[135.2627778,35.2988889]},"properties":{"id":222051024,"name":"丹波大橋－１","name_kana":"","ofc_cd":86,"sys_id":2,"sys_cam_id":"26010029","pause":0,"date_type":0,"cam_kind":2,"own_cd":22051}}]}