{"type":"FeatureCollection","crs":{"type":"name","properties":{"name":"EPSG:4326"}},"features":[{"type":"Feature","geometry":{"type":"Point","coordinates":[131.427222222,31.905]},"properties":{"id":122845090,"name":"大淀川３ｋ２００（宮崎市松山）","name_kana":"","ofc_cd":89,"sys_id":1,"sys_cam_id":"22845090","pause":0,"date_type":2,"cam_kind":4,"own_cd":22845}},{"type":"Feature","geometry":{"type":"Point","coordinates":[131.428055556,31.904722222]},"properties":{"id":122845091,"name":"大淀川３ｋ２００（宮崎市松山）","name_kana":"","ofc_cd":89,"sys_id":1,"sys_cam_id":"22845091","pause":0,"date_type":2,"cam_kind":4,"own_cd":22845}},{"type":"Feature","geometry":{"type":"Point","coordinates":[131.310277778,31.952222222]},"properties":{"id":122845092,"name":"大淀川２０ｋ６００（宮崎市高岡町高浜）","name_kana":"","ofc_cd":89,"sys_id":1,"sys_cam_id":"22845092","pause":0,"date_type":2,"cam_kind":4,"own_cd":22845}},{"type":"Feature","geometry":{"type":"Point","coordinates":[131.28795,31.9477378]},"properties":{"id":122845093,"name":"大淀川２３ｋ０００（宮崎市高岡町浦之名）","name_kana":"","ofc_cd":89,"sys_id":1,"sys_cam_id":"22845093","pause":0,"date_type":2,"cam_kind":4,"own_cd":22845}},{"type":"Feature","geometry":{"type":"Point","coordinates":[131.2875,31.945277778]},"properties":{"id":122845094,"name":"大淀川２３ｋ２００（宮崎市高岡町高浜）","name_kana":"","ofc_cd":89,"sys_id":1,"sys_cam_id":"22845094","pause":0,"date_type":2,"cam_kind":4,"own_cd":22845}},{"type":"Feature","geometry":{"type":"Point","coordinates":[131.271666667,31.947777778]},"properties":{"id":122845095,"name":"大淀川２５ｋ４００（宮崎市高岡町浦之名）","name_kana":"","ofc_cd":89,"sys_id":1,"sys_cam_id":"22845095","pause":0,"date_type":2,"cam_kind":4,"own_cd":22845}},{"type":"Feature","geometry":{"type":"Point","coordinates":[131.356388889,31.976666667]},"properties":{"id":122845102,"name":"本庄川２ｋ８００（宮崎市金崎）","name_kana":"","ofc_cd":89,"sys_id":1,"sys_cam_id":"22845102","pause":0,"date_type":2,"cam_kind":4,"own_cd":22845}},{"type":"Feature","geometry":{"type":"Point","coordinates":[131.398886111,31.954441666]},"properties":{"id":222845001,"name":"柏田観測所","name_kana":"","ofc_cd":89,"sys_id":2,"sys_cam_id":"45010003","pause":0,"date_type":0,"cam_kind":2,"own_cd":22845}},{"type":"Feature","geometry":{"type":"Point","coordinates":[131.300555555,31.954722222]},"properties":{"id":222845002,"name":"大ノ丸橋","name_kana":"","ofc_cd":89,"sys_id":2,"sys_cam_id":"45010005","pause":0,"date_type":0,"cam_kind":2,"own_cd":22845}},{"type":"Feature","geometry":{"type":"Point","coordinates":[131.372511111,31.959466666]},"properties":{"id":222845007,"name":"柳瀬橋","name_kana":"","ofc_cd":89,"sys_id":2,"sys_cam_id":"45010151","pause":0,"date_type":0,"cam_kind":2,"own_cd":22845}},{"type":"Feature","geometry":{"type":"Point","coordinates":[131.4330556,32.0549972]},"properties":{"id":311522001,"name":"追手川排水機場","name_kana":"","ofc_cd":45,"sys_id":3,"sys_cam_id":"45010053","pause":0,"date_type":1,"cam_kind":2,"own_cd":11522}},{"type":"Feature","geometry":{"type":"Point","coordinates":[131.4097222,31.9283333]},"properties":{"id":311522002,"name":"小松川放水路","name_kana":"","ofc_cd":45,"sys_id":3,"sys_cam_id":"45010054","pause":0,"date_type":1,"cam_kind":2,"own_cd":11522}},{"type":"Feature","geometry":{"type":"Point","coordinates":[131.4341667,31.8827778]},"properties":{"id":311522003,"name":"山内川調整池","name_kana":"","ofc_cd":45,"sys_id":3,"sys_cam_id":"45010055","pause":0,"date_type":1,"cam_kind":2,"own_cd":11522}},{"type":"Feature","geometry":{"type":"Point","coordinates":[131.4308333,31.8361111]},"properties":{"id":311522004,"name":"熊野川排水機場","name_kana":"","ofc_cd":45,"sys_id":3,"sys_cam_id":"45010056","pause":0,"date_type":1,"cam_kind":2,"own_cd":11522}},{"type":"Feature","geometry":{"type":"Point","coordinates":[131.4566667,31.9158306]},"properties":{"id":311522005,"name":"新別府川防潮堰","name_kana":"","ofc_cd":45,"sys_id":3,"sys_cam_id":"45010057","pause":0,"date_type":1,"cam_kind":2,"own_cd":11522}},{"type":"Feature","geometry":{"type":"Point","coordinates":[131.3930528,31.8519444]},"properties":{"id":311522006,"name":"清武川岡川合流点","name_kana":"","ofc_cd":45,"sys_id":3,"sys_cam_id":"45010079","pause":0,"date_type":1,"cam_kind":2,"own_cd":11522}},{"type":"Feature","geometry":{"type":"Point","coordinates":[131.3630528,31.9488861]},"properties":{"id":311522007,"name":"六田川排水ポンプ場・内水位","name_kana":"","ofc_cd":45,"sys_id":3,"sys_cam_id":"45010081","pause":0,"date_type":1,"cam_kind":2,"own_cd":11522}},{"type":"Feature","geometry":{"type":"Point","coordinates":[131.3633333,31.9491667]},"properties":{"id":311522008,"name":"六田川排水ポンプ場・外水位","name_kana":"","ofc_cd":45,"sys_id":3,"sys_cam_id":"45010082","pause":0,"date_type":1,"cam_kind":2,"own_cd":11522}},{"type":"Feature","geometry":{"type":"Point","coordinates":[131.3047194,31.9555556]},"properties":{"id":311527001,"name":"飯田川排水機場","name_kana":"","ofc_cd":45,"sys_id":3,"sys_cam_id":"45010058","pause":0,"date_type":1,"cam_kind":2,"own_cd":11527}},{"type":"Feature","geometry":{"type":"Point","coordinates":[131.2505556,31.9302778]},"properties":{"id":311527002,"name":"仁反尾橋","name_kana":"","ofc_cd":45,"sys_id":3,"sys_cam_id":"45010078","pause":0,"date_type":1,"cam_kind":2,"own_cd":11527}},{"type":"Feature","geometry":{"type":"Point","coordinates":[131.32634166,31.93503888]},"properties":{"id":311527003,"name":"番所橋","name_kana":"ばんどころばし","ofc_cd":45,"sys_id":3,"sys_cam_id":"45010088","pause":0,"date_type":1,"cam_kind":2,"own_cd":11527}},{"type":"Feature","geometry":{"type":"Point","coordinates":[131.1145833,31.8692017]},"properties":{"id":122845096,"name":"大淀川５４ｋ０００（都城市高崎町縄瀬）","name_kana":"","ofc_cd":89,"sys_id":1,"sys_cam_id":"22845096","pause":0,"date_type":2,"cam_kind":4,"own_cd":22845}},{"type":"Feature","geometry":{"type":"Point","coordinates":[131.115833333,31.8675]},"properties":{"id":122845097,"name":"大淀川５４ｋ２００（都城市高城町有水）","name_kana":"","ofc_cd":89,"sys_id":1,"sys_cam_id":"22845097","pause":0,"date_type":2,"cam_kind":4,"own_cd":22845}},{"type":"Feature","geometry":{"type":"Point","coordinates":[131.081111111,31.790277778]},"properties":{"id":122845098,"name":"大淀川６７ｋ４００（都城市野々美谷町）","name_kana":"","ofc_cd":89,"sys_id":1,"sys_cam_id":"22845098","pause":0,"date_type":2,"cam_kind":4,"own_cd":22845}},{"type":"Feature","geometry":{"type":"Point","coordinates":[131.0533806,31.7144739]},"properties":{"id":122845099,"name":"大淀川７８ｋ２００（都城市下長飯町）","name_kana":"","ofc_cd":89,"sys_id":1,"sys_cam_id":"22845099","pause":0,"date_type":2,"cam_kind":4,"own_cd":22845}},{"type":"Feature","geometry":{"type":"Point","coordinates":[131.051666667,31.711388889]},"properties":{"id":122845100,"name":"大淀川７８ｋ８００（都城市都島町）","name_kana":"","ofc_cd":89,"sys_id":1,"sys_cam_id":"22845100","pause":0,"date_type":2,"cam_kind":4,"own_cd":22845}},{"type":"Feature","geometry":{"type":"Point","coordinates":[131.061804,31.751625]},"properties":{"id":122845110,"name":"大淀川７２ｋ６００（都城市乙房町）","name_kana":"","ofc_cd":89,"sys_id":1,"sys_cam_id":"22845110","pause":0,"date_type":2,"cam_kind":4,"own_cd":22845}},{"type":"Feature","geometry":{"type":"Point","coordinates":[131.052775,31.719719444]},"properties":{"id":222845003,"name":"岳下橋","name_kana":"","ofc_cd":89,"sys_id":2,"sys_cam_id":"45010007","pause":0,"date_type":0,"cam_kind":2,"own_cd":22845}},{"type":"Feature","geometry":{"type":"Point","coordinates":[131.112497222,31.859444444]},"properties":{"id":222845004,"name":"樋渡橋","name_kana":"","ofc_cd":89,"sys_id":2,"sys_cam_id":"45010009","pause":0,"date_type":0,"cam_kind":2,"own_cd":22845}},{"type":"Feature","geometry":{"type":"Point","coordinates":[131.0675,31.766111111]},"properties":{"id":222845008,"name":"乙房橋","name_kana":"","ofc_cd":89,"sys_id":2,"sys_cam_id":"45010152","pause":0,"date_type":0,"cam_kind":2,"own_cd":22845}},{"type":"Feature","geometry":{"type":"Point","coordinates":[131.054166666,31.731111111]},"properties":{"id":222845009,"name":"平田橋","name_kana":"","ofc_cd":89,"sys_id":2,"sys_cam_id":"45010153","pause":0,"date_type":0,"cam_kind":2,"own_cd":22845}},{"type":"Feature","geometry":{"type":"Point","coordinates":[131.0683306,31.7038889]},"properties":{"id":311525001,"name":"姫城川放水路萩原川合流点","name_kana":"","ofc_cd":45,"sys_id":3,"sys_cam_id":"45010062","pause":0,"date_type":1,"cam_kind":2,"own_cd":11525}},{"type":"Feature","geometry":{"type":"Point","coordinates":[131.0786111,31.7180528]},"properties":{"id":311525002,"name":"姫城川放水路","name_kana":"","ofc_cd":45,"sys_id":3,"sys_cam_id":"45010063","pause":0,"date_type":1,"cam_kind":2,"own_cd":11525}},{"type":"Feature","geometry":{"type":"Point","coordinates":[131.0883333,31.7241639]},"properties":{"id":311525003,"name":"柳河原川放水路","name_kana":"","ofc_cd":45,"sys_id":3,"sys_cam_id":"45010064","pause":0,"date_type":1,"cam_kind":2,"own_cd":11525}},{"type":"Feature","geometry":{"type":"Point","coordinates":[131.628445,32.581466]},"properties":{"id":122846086,"name":"五ヶ瀬川左岸７ｋ０００","name_kana":"","ofc_cd":89,"sys_id":1,"sys_cam_id":"22846086","pause":0,"date_type":2,"cam_kind":4,"own_cd":22846}},{"type":"Feature","geometry":{"type":"Point","coordinates":[131.5997222,32.5644444]},"properties":{"id":122846087,"name":"五ヶ瀬川左岸１１ｋ４７８貝の畑第２樋管","name_kana":"","ofc_cd":89,"sys_id":1,"sys_cam_id":"22846087","pause":0,"date_type":2,"cam_kind":4,"own_cd":22846}},{"type":"Feature","geometry":{"type":"Point","coordinates":[131.6283333,32.5672222]},"properties":{"id":122846088,"name":"五ヶ瀬川右岸８ｋ７５０","name_kana":"","ofc_cd":89,"sys_id":1,"sys_cam_id":"22846088","pause":0,"date_type":2,"cam_kind":4,"own_cd":22846}},{"type":"Feature","geometry":{"type":"Point","coordinates":[131.6058333,32.5625]},"properties":{"id":122846089,"name":"五ヶ瀬川右岸１０ｋ９００","name_kana":"","ofc_cd":89,"sys_id":1,"sys_cam_id":"22846089","pause":0,"date_type":2,"cam_kind":4,"own_cd":22846}},{"type":"Feature","geometry":{"type":"Point","coordinates":[131.665555555,32.578888888]},"properties":{"id":222846001,"name":"三ツ瀬水位観測所","name_kana":"","ofc_cd":89,"sys_id":2,"sys_cam_id":"45010016","pause":0,"date_type":0,"cam_kind":2,"own_cd":22846}},{"type":"Feature","geometry":{"type":"Point","coordinates":[131.656388888,32.582222222]},"properties":{"id":222846002,"name":"野田口樋門","name_kana":"","ofc_cd":89,"sys_id":2,"sys_cam_id":"45010017","pause":0,"date_type":0,"cam_kind":2,"own_cd":22846}},{"type":"Feature","geometry":{"type":"Point","coordinates":[131.640833333,32.582222222]},"properties":{"id":222846003,"name":"野田樋門","name_kana":"","ofc_cd":89,"sys_id":2,"sys_cam_id":"45010018","pause":0,"date_type":0,"cam_kind":2,"own_cd":22846}},{"type":"Feature","geometry":{"type":"Point","coordinates":[131.619166666,32.563333333]},"properties":{"id":222846004,"name":"三輪水位観測所","name_kana":"","ofc_cd":89,"sys_id":2,"sys_cam_id":"45010019","pause":0,"date_type":0,"cam_kind":2,"own_cd":22846}},{"type":"Feature","geometry":{"type":"Point","coordinates":[131.678611111,32.585555555]},"properties":{"id":222846005,"name":"昭和町第一樋管","name_kana":"","ofc_cd":89,"sys_id":2,"sys_cam_id":"45010020","pause":0,"date_type":0,"cam_kind":2,"own_cd":22846}},{"type":"Feature","geometry":{"type":"Point","coordinates":[131.701388888,32.582777777]},"properties":{"id":222846006,"name":"方財水門","name_kana":"","ofc_cd":89,"sys_id":2,"sys_cam_id":"45010021","pause":0,"date_type":0,"cam_kind":2,"own_cd":22846}},{"type":"Feature","geometry":{"type":"Point","coordinates":[131.648022222,32.562097222]},"properties":{"id":222846007,"name":"三須","name_kana":"","ofc_cd":89,"sys_id":2,"sys_cam_id":"45010022","pause":0,"date_type":0,"cam_kind":2,"own_cd":22846}},{"type":"Feature","geometry":{"type":"Point","coordinates":[131.709444444,32.595277777]},"properties":{"id":222846008,"name":"東海水位観測所","name_kana":"","ofc_cd":89,"sys_id":2,"sys_cam_id":"45010023","pause":0,"date_type":0,"cam_kind":2,"own_cd":22846}},{"type":"Feature","geometry":{"type":"Point","coordinates":[131.680277777,32.598611111]},"properties":{"id":222846009,"name":"祝子水位観測所","name_kana":"","ofc_cd":89,"sys_id":2,"sys_cam_id":"45010024","pause":0,"date_type":0,"cam_kind":2,"own_cd":22846}},{"type":"Feature","geometry":{"type":"Point","coordinates":[131.655525,32.572191666]},"properties":{"id":222846010,"name":"大貫第一緑地公園","name_kana":"","ofc_cd":89,"sys_id":2,"sys_cam_id":"45010025","pause":0,"date_type":0,"cam_kind":2,"own_cd":22846}},{"type":"Feature","geometry":{"type":"Point","coordinates":[131.639922222,32.565594444]},"properties":{"id":222846011,"name":"大貫第三緑地公園","name_kana":"","ofc_cd":89,"sys_id":2,"sys_cam_id":"45010026","pause":0,"date_type":0,"cam_kind":2,"own_cd":22846}},{"type":"Feature","geometry":{"type":"Point","coordinates":[131.62945,32.577494444]},"properties":{"id":222846012,"name":"天下橋下流","name_kana":"","ofc_cd":89,"sys_id":2,"sys_cam_id":"45010027","pause":0,"date_type":0,"cam_kind":2,"own_cd":22846}},{"type":"Feature","geometry":{"type":"Point","coordinates":[131.664822222,32.58455]},"properties":{"id":222846013,"name":"北町樋管","name_kana":"","ofc_cd":89,"sys_id":2,"sys_cam_id":"45010028","pause":0,"date_type":0,"cam_kind":2,"own_cd":22846}},{"type":"Feature","geometry":{"type":"Point","coordinates":[131.689875,32.592155555]},"properties":{"id":222846014,"name":"大武排水樋管","name_kana":"","ofc_cd":89,"sys_id":2,"sys_cam_id":"45010029","pause":0,"date_type":0,"cam_kind":2,"own_cd":22846}},{"type":"Feature","geometry":{"type":"Point","coordinates":[131.703488888,32.603533333]},"properties":{"id":222846015,"name":"寺島水門","name_kana":"","ofc_cd":89,"sys_id":2,"sys_cam_id":"45010030","pause":0,"date_type":0,"cam_kind":2,"own_cd":22846}},{"type":"Feature","geometry":{"type":"Point","coordinates":[131.680277777,32.581944444]},"properties":{"id":222846016,"name":"延岡大橋","name_kana":"","ofc_cd":89,"sys_id":2,"sys_cam_id":"45010031","pause":0,"date_type":0,"cam_kind":2,"own_cd":22846}},{"type":"Feature","geometry":{"type":"Point","coordinates":[131.695555555,32.613611111]},"properties":{"id":222846017,"name":"川島排水機場川表カメラ","name_kana":"","ofc_cd":89,"sys_id":2,"sys_cam_id":"45010032","pause":0,"date_type":0,"cam_kind":2,"own_cd":22846}},{"type":"Feature","geometry":{"type":"Point","coordinates":[131.660833333,32.573888888]},"properties":{"id":222846018,"name":"古城","name_kana":"","ofc_cd":89,"sys_id":2,"sys_cam_id":"45010033","pause":0,"date_type":0,"cam_kind":2,"own_cd":22846}},{"type":"Feature","geometry":{"type":"Point","coordinates":[131.681827777,32.585183333]},"properties":{"id":222846019,"name":"隔流水門大瀬川側水路","name_kana":"","ofc_cd":89,"sys_id":2,"sys_cam_id":"45010034","pause":0,"date_type":0,"cam_kind":2,"own_cd":22846}},{"type":"Feature","geometry":{"type":"Point","coordinates":[131.711388888,32.590555555]},"properties":{"id":222846020,"name":"五ヶ瀬川河口","name_kana":"","ofc_cd":89,"sys_id":2,"sys_cam_id":"45010035","pause":0,"date_type":0,"cam_kind":2,"own_cd":22846}},{"type":"Feature","geometry":{"type":"Point","coordinates":[131.633611111,32.569166666]},"properties":{"id":222846021,"name":"西階排水樋管","name_kana":"","ofc_cd":89,"sys_id":2,"sys_cam_id":"45010036","pause":0,"date_type":0,"cam_kind":2,"own_cd":22846}},{"type":"Feature","geometry":{"type":"Point","coordinates":[131.646944444,32.566613888]},"properties":{"id":222846022,"name":"大貫6丁目","name_kana":"","ofc_cd":89,"sys_id":2,"sys_cam_id":"45010037","pause":0,"date_type":0,"cam_kind":2,"own_cd":22846}},{"type":"Feature","geometry":{"type":"Point","coordinates":[131.670922222,32.584055555]},"properties":{"id":222846023,"name":"エンシティホテル延岡","name_kana":"","ofc_cd":89,"sys_id":2,"sys_cam_id":"45010038","pause":0,"date_type":0,"cam_kind":2,"own_cd":22846}},{"type":"Feature","geometry":{"type":"Point","coordinates":[131.6966639,32.6847194]},"properties":{"id":311531001,"name":"熊田","name_kana":"","ofc_cd":45,"sys_id":3,"sys_cam_id":"45010041","pause":0,"date_type":1,"cam_kind":2,"own_cd":11531}},{"type":"Feature","geometry":{"type":"Point","coordinates":[131.7119417,32.6674972]},"properties":{"id":311531002,"name":"家田","name_kana":"","ofc_cd":45,"sys_id":3,"sys_cam_id":"45010042","pause":0,"date_type":1,"cam_kind":2,"own_cd":11531}},{"type":"Feature","geometry":{"type":"Point","coordinates":[131.690275,32.6144444]},"properties":{"id":311531003,"name":"川島橋","name_kana":"","ofc_cd":45,"sys_id":3,"sys_cam_id":"45010043","pause":0,"date_type":1,"cam_kind":2,"own_cd":11531}},{"type":"Feature","geometry":{"type":"Point","coordinates":[131.522775,32.5558306]},"properties":{"id":311531004,"name":"川水流","name_kana":"","ofc_cd":45,"sys_id":3,"sys_cam_id":"45010044","pause":0,"date_type":1,"cam_kind":2,"own_cd":11531}},{"type":"Feature","geometry":{"type":"Point","coordinates":[131.5691639,32.5652778]},"properties":{"id":311531005,"name":"岡元","name_kana":"","ofc_cd":45,"sys_id":3,"sys_cam_id":"45010045","pause":0,"date_type":1,"cam_kind":2,"own_cd":11531}},{"type":"Feature","geometry":{"type":"Point","coordinates":[131.5813861,32.5666667]},"properties":{"id":311531006,"name":"細見","name_kana":"","ofc_cd":45,"sys_id":3,"sys_cam_id":"45010046","pause":0,"date_type":1,"cam_kind":2,"own_cd":11531}},{"type":"Feature","geometry":{"type":"Point","coordinates":[131.6738861,32.6041639]},"properties":{"id":311531007,"name":"蛇谷川樋門","name_kana":"","ofc_cd":45,"sys_id":3,"sys_cam_id":"45010047","pause":0,"date_type":1,"cam_kind":2,"own_cd":11531}},{"type":"Feature","geometry":{"type":"Point","coordinates":[131.6793333,32.5449444]},"properties":{"id":311531008,"name":"浜川防潮堰","name_kana":"","ofc_cd":45,"sys_id":3,"sys_cam_id":"45010048","pause":0,"date_type":1,"cam_kind":2,"own_cd":11531}},{"type":"Feature","geometry":{"type":"Point","coordinates":[131.5458306,32.5625]},"properties":{"id":311531010,"name":"南久保山","name_kana":"","ofc_cd":45,"sys_id":3,"sys_cam_id":"45010083","pause":0,"date_type":1,"cam_kind":2,"own_cd":11531}},{"type":"Feature","geometry":{"type":"Point","coordinates":[131.6730473,32.60708936]},"properties":{"id":311531011,"name":"蛇谷川排水ポンプ場桜ヶ丘","name_kana":"","ofc_cd":45,"sys_id":3,"sys_cam_id":"45010084","pause":0,"date_type":1,"cam_kind":2,"own_cd":11531}},{"type":"Feature","geometry":{"type":"Point","coordinates":[131.3797222,31.6752778]},"properties":{"id":311523001,"name":"大藤井堰上流","name_kana":"","ofc_cd":45,"sys_id":3,"sys_cam_id":"45010059","pause":0,"date_type":1,"cam_kind":2,"own_cd":11523}},{"type":"Feature","geometry":{"type":"Point","coordinates":[131.3849972,31.6088861]},"properties":{"id":311523002,"name":"東光寺橋","name_kana":"","ofc_cd":45,"sys_id":3,"sys_cam_id":"45010060","pause":0,"date_type":1,"cam_kind":2,"own_cd":11523}},{"type":"Feature","geometry":{"type":"Point","coordinates":[131.3899972,31.6041667]},"properties":{"id":311523003,"name":"戸高川排水機場","name_kana":"","ofc_cd":45,"sys_id":3,"sys_cam_id":"45010061","pause":0,"date_type":1,"cam_kind":2,"own_cd":11523}},{"type":"Feature","geometry":{"type":"Point","coordinates":[131.3838889,31.6838861]},"properties":{"id":311523004,"name":"谷之城橋","name_kana":"","ofc_cd":45,"sys_id":3,"sys_cam_id":"45010089","pause":0,"date_type":1,"cam_kind":2,"own_cd":11523}},{"type":"Feature","geometry":{"type":"Point","coordinates":[131.3855528,31.630275]},"properties":{"id":311523005,"name":"東郷橋（日南市）","name_kana":"","ofc_cd":45,"sys_id":3,"sys_cam_id":"45010090","pause":0,"date_type":1,"cam_kind":2,"own_cd":11523}},{"type":"Feature","geometry":{"type":"Point","coordinates":[131.3499972,31.6238861]},"properties":{"id":311523006,"name":"本町橋","name_kana":"","ofc_cd":45,"sys_id":3,"sys_cam_id":"45010091","pause":0,"date_type":1,"cam_kind":2,"own_cd":11523}},{"type":"Feature","geometry":{"type":"Point","coordinates":[131.4581389,31.7064139]},"properties":{"id":311523007,"name":"伊比井海岸","name_kana":"","ofc_cd":45,"sys_id":3,"sys_cam_id":"45010092","pause":0,"date_type":1,"cam_kind":2,"own_cd":11523}},{"type":"Feature","geometry":{"type":"Point","coordinates":[131.3906139,31.6027667]},"properties":{"id":311523008,"name":"戸高川合流点","name_kana":"","ofc_cd":45,"sys_id":3,"sys_cam_id":"45010093","pause":0,"date_type":1,"cam_kind":2,"own_cd":11523}},{"type":"Feature","geometry":{"type":"Point","coordinates":[131.4077194,31.5898333]},"properties":{"id":311523009,"name":"広渡川河口","name_kana":"","ofc_cd":45,"sys_id":3,"sys_cam_id":"45010094","pause":0,"date_type":1,"cam_kind":2,"own_cd":11523}},{"type":"Feature","geometry":{"type":"Point","coordinates":[130.9092472,31.9783028]},"properties":{"id":311526002,"name":"巣の浦","name_kana":"","ofc_cd":45,"sys_id":3,"sys_cam_id":"45010087","pause":0,"date_type":1,"cam_kind":2,"own_cd":11526}},{"type":"Feature","geometry":{"type":"Point","coordinates":[131.53,32.3877778]},"properties":{"id":311530002,"name":"東郷","name_kana":"","ofc_cd":45,"sys_id":3,"sys_cam_id":"45010051","pause":0,"date_type":1,"cam_kind":2,"own_cd":11530}},{"type":"Feature","geometry":{"type":"Point","coordinates":[131.6402222,32.4466944]},"properties":{"id":311530003,"name":"庄手川防潮堰","name_kana":"","ofc_cd":45,"sys_id":3,"sys_cam_id":"45010052","pause":0,"date_type":1,"cam_kind":2,"own_cd":11530}},{"type":"Feature","geometry":{"type":"Point","coordinates":[131.6144444,32.3380556]},"properties":{"id":311530006,"name":"耳川河口","name_kana":"","ofc_cd":45,"sys_id":3,"sys_cam_id":"45010070","pause":0,"date_type":1,"cam_kind":2,"own_cd":11530}},{"type":"Feature","geometry":{"type":"Point","coordinates":[131.6394444,32.4055556]},"properties":{"id":311530007,"name":"塩見川河口","name_kana":"","ofc_cd":45,"sys_id":3,"sys_cam_id":"45010071","pause":0,"date_type":1,"cam_kind":2,"own_cd":11530}},{"type":"Feature","geometry":{"type":"Point","coordinates":[131.2438861,31.48]},"properties":{"id":311524001,"name":"上町橋","name_kana":"","ofc_cd":45,"sys_id":3,"sys_cam_id":"45010080","pause":0,"date_type":1,"cam_kind":2,"own_cd":11524}},{"type":"Feature","geometry":{"type":"Point","coordinates":[131.3747222,32.1488889]},"properties":{"id":311528001,"name":"杉安橋","name_kana":"","ofc_cd":45,"sys_id":3,"sys_cam_id":"45010072","pause":0,"date_type":1,"cam_kind":2,"own_cd":11528}},{"type":"Feature","geometry":{"type":"Point","coordinates":[131.3913861,32.0916667]},"properties":{"id":311528002,"name":"清水橋","name_kana":"","ofc_cd":45,"sys_id":3,"sys_cam_id":"45010073","pause":0,"date_type":1,"cam_kind":2,"own_cd":11528}},{"type":"Feature","geometry":{"type":"Point","coordinates":[131.3969417,32.0897194]},"properties":{"id":311528005,"name":"鳥子橋","name_kana":"","ofc_cd":45,"sys_id":3,"sys_cam_id":"45010076","pause":0,"date_type":1,"cam_kind":2,"own_cd":11528}},{"type":"Feature","geometry":{"type":"Point","coordinates":[131.4124972,32.0833333]},"properties":{"id":311528006,"name":"瀬口橋","name_kana":"","ofc_cd":45,"sys_id":3,"sys_cam_id":"45010077","pause":0,"date_type":1,"cam_kind":2,"own_cd":11528}},{"type":"Feature","geometry":{"type":"Point","coordinates":[130.806042,32.054199]},"properties":{"id":122856127,"name":"川内川107k400 加久藤樋門","name_kana":"","ofc_cd":89,"sys_id":1,"sys_cam_id":"22856127","pause":0,"date_type":0,"cam_kind":4,"own_cd":22856}},{"type":"Feature","geometry":{"type":"Point","coordinates":[130.809466,32.055292]},"properties":{"id":122856128,"name":"川内川107k800 榎田橋","name_kana":"","ofc_cd":89,"sys_id":1,"sys_cam_id":"22856128","pause":0,"date_type":0,"cam_kind":4,"own_cd":22856}},{"type":"Feature","geometry":{"type":"Point","coordinates":[130.824855,32.048428]},"properties":{"id":122856129,"name":"川内川110k000 池島大橋","name_kana":"","ofc_cd":89,"sys_id":1,"sys_cam_id":"22856129","pause":0,"date_type":0,"cam_kind":4,"own_cd":22856}},{"type":"Feature","geometry":{"type":"Point","coordinates":[130.871239,32.049696]},"properties":{"id":122856141,"name":"川内川116k100  市営住宅前","name_kana":"","ofc_cd":89,"sys_id":1,"sys_cam_id":"22856141","pause":0,"date_type":0,"cam_kind":4,"own_cd":22856}},{"type":"Feature","geometry":{"type":"Point","coordinates":[130.873204,32.048863]},"properties":{"id":122856142,"name":"川内川116k400  飯野上流","name_kana":"","ofc_cd":89,"sys_id":1,"sys_cam_id":"22856142","pause":0,"date_type":0,"cam_kind":4,"own_cd":22856}},{"type":"Feature","geometry":{"type":"Point","coordinates":[130.809074,32.04981]},"properties":{"id":122856143,"name":"長江川0k800 有島橋","name_kana":"","ofc_cd":89,"sys_id":1,"sys_cam_id":"22856143","pause":0,"date_type":0,"cam_kind":4,"own_cd":22856}},{"type":"Feature","geometry":{"type":"Point","coordinates":[130.810478,32.04539]},"properties":{"id":122856145,"name":"長江川1k400付近（えびの市役所庁舎）","name_kana":"","ofc_cd":89,"sys_id":1,"sys_cam_id":"22856145","pause":0,"date_type":0,"cam_kind":4,"own_cd":22856}},{"type":"Feature","geometry":{"type":"Point","coordinates":[130.766480555,32.052175]},"properties":{"id":222856001,"name":"真幸橋","name_kana":"","ofc_cd":89,"sys_id":2,"sys_cam_id":"45010039","pause":0,"date_type":0,"cam_kind":2,"own_cd":22856}},{"type":"Feature","geometry":{"type":"Point","coordinates":[130.870833333,32.049997222]},"properties":{"id":222856002,"name":"麓橋","name_kana":"","ofc_cd":89,"sys_id":2,"sys_cam_id":"45010040","pause":0,"date_type":0,"cam_kind":2,"own_cd":22856}},{"type":"Feature","geometry":{"type":"Point","coordinates":[130.8118111,32.0321889]},"properties":{"id":311526001,"name":"柳ケ本橋","name_kana":"","ofc_cd":45,"sys_id":3,"sys_cam_id":"45010086","pause":0,"date_type":1,"cam_kind":2,"own_cd":11526}},{"type":"Feature","geometry":{"type":"Point","coordinates":[131.1041639,31.7311111]},"properties":{"id":311525004,"name":"年見川放水路","name_kana":"","ofc_cd":45,"sys_id":3,"sys_cam_id":"45010065","pause":0,"date_type":1,"cam_kind":2,"own_cd":11525}},{"type":"Feature","geometry":{"type":"Point","coordinates":[131.1033306,31.745]},"properties":{"id":311525005,"name":"年見川放水路沖水川合流点","name_kana":"","ofc_cd":45,"sys_id":3,"sys_cam_id":"45010066","pause":0,"date_type":1,"cam_kind":2,"own_cd":11525}},{"type":"Feature","geometry":{"type":"Point","coordinates":[131.3621278,31.9756267]},"properties":{"id":122845101,"name":"本庄川２ｋ４００（東諸県郡国富町塚原）","name_kana":"","ofc_cd":89,"sys_id":1,"sys_cam_id":"22845101","pause":0,"date_type":2,"cam_kind":4,"own_cd":22845}},{"type":"Feature","geometry":{"type":"Point","coordinates":[131.356388889,31.978888889]},"properties":{"id":122845103,"name":"本庄川３ｋ２００（東諸県郡国富町宮王丸）","name_kana":"","ofc_cd":89,"sys_id":1,"sys_cam_id":"22845103","pause":0,"date_type":2,"cam_kind":4,"own_cd":22845}},{"type":"Feature","geometry":{"type":"Point","coordinates":[131.306617,31.992207]},"properties":{"id":122845105,"name":"本庄川８ｋ４００（東諸県郡国富町竹田）","name_kana":"","ofc_cd":89,"sys_id":1,"sys_cam_id":"22845105","pause":0,"date_type":2,"cam_kind":4,"own_cd":22845}},{"type":"Feature","geometry":{"type":"Point","coordinates":[131.351417,31.999467]},"properties":{"id":122845107,"name":"深年川２ｋ８００（東諸県軍国富町三名）","name_kana":"","ofc_cd":89,"sys_id":1,"sys_cam_id":"22845107","pause":0,"date_type":2,"cam_kind":4,"own_cd":22845}},{"type":"Feature","geometry":{"type":"Point","coordinates":[131.3186089,31.9850044]},"properties":{"id":222845006,"name":"嵐田水位観測所","name_kana":"","ofc_cd":89,"sys_id":2,"sys_cam_id":"45010014","pause":0,"date_type":0,"cam_kind":2,"own_cd":22845}},{"type":"Feature","geometry":{"type":"Point","coordinates":[131.3525,31.988888888]},"properties":{"id":222845010,"name":"大田原橋","name_kana":"","ofc_cd":89,"sys_id":2,"sys_cam_id":"45010154","pause":0,"date_type":0,"cam_kind":2,"own_cd":22845}},{"type":"Feature","geometry":{"type":"Point","coordinates":[131.233055556,31.992222222]},"properties":{"id":122845104,"name":"本庄川１５ｋ６００（東諸県郡綾町南俣）","name_kana":"","ofc_cd":89,"sys_id":1,"sys_cam_id":"22845104","pause":0,"date_type":2,"cam_kind":4,"own_cd":22845}},{"type":"Feature","geometry":{"type":"Point","coordinates":[131.263055556,31.993888889]},"properties":{"id":122845106,"name":"本庄川１２ｋ４００（東諸県郡綾町南俣）","name_kana":"","ofc_cd":89,"sys_id":1,"sys_cam_id":"22845106","pause":0,"date_type":2,"cam_kind":4,"own_cd":22845}},{"type":"Feature","geometry":{"type":"Point","coordinates":[131.239722222,32.017222222]},"properties":{"id":122845108,"name":"綾北川１５ｋ４００（東諸県郡綾町北俣）","name_kana":"","ofc_cd":89,"sys_id":1,"sys_cam_id":"22845108","pause":0,"date_type":2,"cam_kind":4,"own_cd":22845}},{"type":"Feature","geometry":{"type":"Point","coordinates":[131.266183333,32.003033333]},"properties":{"id":222845011,"name":"入野橋","name_kana":"","ofc_cd":89,"sys_id":2,"sys_cam_id":"45010155","pause":0,"date_type":0,"cam_kind":2,"own_cd":22845}},{"type":"Feature","geometry":{"type":"Point","coordinates":[131.485555556,32.152222222]},"properties":{"id":122845109,"name":"小丸川５ｋ９００（児湯郡高鍋町上江青木）","name_kana":"","ofc_cd":89,"sys_id":1,"sys_cam_id":"22845109","pause":0,"date_type":2,"cam_kind":4,"own_cd":22845}},{"type":"Feature","geometry":{"type":"Point","coordinates":[131.513330555,32.138608333]},"properties":{"id":222845005,"name":"小丸大橋","name_kana":"","ofc_cd":89,"sys_id":2,"sys_cam_id":"45010010","pause":0,"date_type":0,"cam_kind":2,"own_cd":22845}},{"type":"Feature","geometry":{"type":"Point","coordinates":[131.500555555,32.154722222]},"properties":{"id":222845012,"name":"小丸川4k700","name_kana":"","ofc_cd":89,"sys_id":2,"sys_cam_id":"45010156","pause":0,"date_type":0,"cam_kind":2,"own_cd":22845}},{"type":"Feature","geometry":{"type":"Point","coordinates":[131.4458306,32.0591667]},"properties":{"id":311528003,"name":"一ツ瀬橋","name_kana":"","ofc_cd":45,"sys_id":3,"sys_cam_id":"45010074","pause":0,"date_type":1,"cam_kind":2,"own_cd":11528}},{"type":"Feature","geometry":{"type":"Point","coordinates":[131.4910556,32.0499972]},"properties":{"id":311528004,"name":"一ツ瀬川河口","name_kana":"","ofc_cd":45,"sys_id":3,"sys_cam_id":"45010075","pause":0,"date_type":1,"cam_kind":2,"own_cd":11528}},{"type":"Feature","geometry":{"type":"Point","coordinates":[131.1536083,32.225275]},"properties":{"id":311528007,"name":"村所橋","name_kana":"","ofc_cd":45,"sys_id":3,"sys_cam_id":"45010085","pause":0,"date_type":1,"cam_kind":2,"own_cd":11528}},{"type":"Feature","geometry":{"type":"Point","coordinates":[131.5755528,32.490275]},"properties":{"id":311530001,"name":"更生橋","name_kana":"","ofc_cd":45,"sys_id":3,"sys_cam_id":"45010050","pause":0,"date_type":1,"cam_kind":2,"own_cd":11530}},{"type":"Feature","geometry":{"type":"Point","coordinates":[131.6261083,32.4713861]},"properties":{"id":311530005,"name":"小園井堰","name_kana":"","ofc_cd":45,"sys_id":3,"sys_cam_id":"45010069","pause":0,"date_type":1,"cam_kind":2,"own_cd":11530}},{"type":"Feature","geometry":{"type":"Point","coordinates":[131.3319444,32.5094444]},"properties":{"id":311530004,"name":"諸塚","name_kana":"","ofc_cd":45,"sys_id":3,"sys_cam_id":"45010068","pause":0,"date_type":1,"cam_kind":2,"own_cd":11530}},{"type":"Feature","geometry":{"type":"Point","coordinates":[131.3877778,32.6536111]},"properties":{"id":311532001,"name":"日之影町役場","name_kana":"","ofc_cd":45,"sys_id":3,"sys_cam_id":"45010067","pause":0,"date_type":1,"cam_kind":2,"own_cd":11532}},{"type":"Feature","geometry":{"type":"Point","coordinates":[131.1961389,32.6830278]},"properties":{"id":311531009,"name":"貫原橋","name_kana":"","ofc_cd":45,"sys_id":3,"sys_cam_id":"45010049","pause":0,"date_type":1,"cam_kind":2,"own_cd":11531}}]}