{"type":"FeatureCollection","crs":{"type":"name","properties":{"name":"EPSG:4326"}},"features":[{"type":"Feature","geometry":{"type":"Point","coordinates":[135.47556388,34.73510277]},"properties":{"id":106913066,"name":"三国","name_kana":"","ofc_cd":86,"sys_id":1,"sys_cam_id":"6913066","pause":0,"date_type":2,"cam_kind":4,"own_cd":6913}},{"type":"Feature","geometry":{"type":"Point","coordinates":[135.52266388,34.69130555]},"properties":{"id":106913067,"name":"京橋","name_kana":"きょうばし","ofc_cd":86,"sys_id":1,"sys_cam_id":"6913067","pause":0,"date_type":2,"cam_kind":4,"own_cd":6913}},{"type":"Feature","geometry":{"type":"Point","coordinates":[135.537325,34.64192222]},"properties":{"id":106913068,"name":"三川合流","name_kana":"さんせんごうりゅう","ofc_cd":86,"sys_id":1,"sys_cam_id":"6913068","pause":0,"date_type":2,"cam_kind":4,"own_cd":6913}},{"type":"Feature","geometry":{"type":"Point","coordinates":[135.50911388,34.74418888]},"properties":{"id":106913069,"name":"大吹橋","name_kana":"おおふきはし","ofc_cd":86,"sys_id":1,"sys_cam_id":"6913069","pause":0,"date_type":2,"cam_kind":4,"own_cd":6913}},{"type":"Feature","geometry":{"type":"Point","coordinates":[135.53906388,34.66761666]},"properties":{"id":106913070,"name":"剣橋","name_kana":"つるぎばし","ofc_cd":86,"sys_id":1,"sys_cam_id":"6913070","pause":0,"date_type":2,"cam_kind":4,"own_cd":6913}},{"type":"Feature","geometry":{"type":"Point","coordinates":[135.56422222,34.62155]},"properties":{"id":106913071,"name":"中竹渕橋","name_kana":"","ofc_cd":86,"sys_id":1,"sys_cam_id":"6913071","pause":0,"date_type":2,"cam_kind":4,"own_cd":6913}},{"type":"Feature","geometry":{"type":"Point","coordinates":[135.55133888,34.66818333]},"properties":{"id":106913072,"name":"今里大橋","name_kana":"いまざとおおはし","ofc_cd":86,"sys_id":1,"sys_cam_id":"6913072","pause":0,"date_type":2,"cam_kind":4,"own_cd":6913}},{"type":"Feature","geometry":{"type":"Point","coordinates":[135.54664722,34.69694999]},"properties":{"id":106913073,"name":"新喜多大橋","name_kana":"しぎたおおはし","ofc_cd":86,"sys_id":1,"sys_cam_id":"6913073","pause":0,"date_type":2,"cam_kind":4,"own_cd":6913}},{"type":"Feature","geometry":{"type":"Point","coordinates":[135.54840833,34.65325]},"properties":{"id":106913102,"name":"巽橋","name_kana":"たつみばし","ofc_cd":86,"sys_id":1,"sys_cam_id":"6913102","pause":0,"date_type":2,"cam_kind":4,"own_cd":6913}},{"type":"Feature","geometry":{"type":"Point","coordinates":[135.54978333,34.63466944]},"properties":{"id":106913103,"name":"鳥居先（平野川上流）","name_kana":"とりいさき（ひらのがわじょうりゅう）","ofc_cd":86,"sys_id":1,"sys_cam_id":"6913103","pause":0,"date_type":2,"cam_kind":4,"own_cd":6913}},{"type":"Feature","geometry":{"type":"Point","coordinates":[135.5305148,34.75468962]},"properties":{"id":106913119,"name":"高浜橋","name_kana":"たかはまばし","ofc_cd":86,"sys_id":1,"sys_cam_id":"6913119","pause":0,"date_type":2,"cam_kind":4,"own_cd":6913}},{"type":"Feature","geometry":{"type":"Point","coordinates":[135.5533384,34.6962431]},"properties":{"id":106913120,"name":"古堤橋","name_kana":"ふるつつみばし","ofc_cd":86,"sys_id":1,"sys_cam_id":"6913120","pause":0,"date_type":2,"cam_kind":4,"own_cd":6913}},{"type":"Feature","geometry":{"type":"Point","coordinates":[135.5813331,34.696796]},"properties":{"id":106913121,"name":"徳庵橋","name_kana":"とくあんばし","ofc_cd":86,"sys_id":1,"sys_cam_id":"6913121","pause":0,"date_type":2,"cam_kind":4,"own_cd":6913}},{"type":"Feature","geometry":{"type":"Point","coordinates":[135.5406443,34.68904617]},"properties":{"id":106913123,"name":"城見橋","name_kana":"しろみばし","ofc_cd":86,"sys_id":1,"sys_cam_id":"6913123","pause":0,"date_type":2,"cam_kind":4,"own_cd":6913}},{"type":"Feature","geometry":{"type":"Point","coordinates":[135.471186111,34.709088889]},"properties":{"id":122068008,"name":"淀川 大阪市西淀川区柏里","name_kana":"","ofc_cd":86,"sys_id":1,"sys_cam_id":"22068008","pause":0,"date_type":0,"cam_kind":4,"own_cd":22068}},{"type":"Feature","geometry":{"type":"Point","coordinates":[135.484916667,34.717122222]},"properties":{"id":122068009,"name":"淀川 大阪市淀川区十三東","name_kana":"","ofc_cd":86,"sys_id":1,"sys_cam_id":"22068009","pause":0,"date_type":0,"cam_kind":4,"own_cd":22068}},{"type":"Feature","geometry":{"type":"Point","coordinates":[135.506961111,34.717605556]},"properties":{"id":122068010,"name":"淀川 大阪市北区本庄","name_kana":"","ofc_cd":86,"sys_id":1,"sys_cam_id":"22068010","pause":0,"date_type":0,"cam_kind":4,"own_cd":22068}},{"type":"Feature","geometry":{"type":"Point","coordinates":[135.519444444,34.724236111]},"properties":{"id":122068011,"name":"淀川 大阪市都島区毛馬町","name_kana":"","ofc_cd":86,"sys_id":1,"sys_cam_id":"22068011","pause":0,"date_type":0,"cam_kind":4,"own_cd":22068}},{"type":"Feature","geometry":{"type":"Point","coordinates":[135.463891667,34.604775]},"properties":{"id":122069004,"name":"大和川 大阪市住之江区新北島","name_kana":"","ofc_cd":86,"sys_id":1,"sys_cam_id":"22069004","pause":0,"date_type":2,"cam_kind":4,"own_cd":22069}},{"type":"Feature","geometry":{"type":"Point","coordinates":[135.471002778,34.602447222]},"properties":{"id":122069005,"name":"大和川 阪堺大橋","name_kana":"","ofc_cd":86,"sys_id":1,"sys_cam_id":"22069005","pause":0,"date_type":2,"cam_kind":4,"own_cd":22069}},{"type":"Feature","geometry":{"type":"Point","coordinates":[135.543872222,34.597172222]},"properties":{"id":122069007,"name":"大和川 天美北","name_kana":"","ofc_cd":86,"sys_id":1,"sys_cam_id":"22069007","pause":0,"date_type":2,"cam_kind":4,"own_cd":22069}},{"type":"Feature","geometry":{"type":"Point","coordinates":[135.554163889,34.597458333]},"properties":{"id":122069008,"name":"大和川 高野大橋","name_kana":"","ofc_cd":86,"sys_id":1,"sys_cam_id":"22069008","pause":0,"date_type":2,"cam_kind":4,"own_cd":22069}},{"type":"Feature","geometry":{"type":"Point","coordinates":[135.4116667,34.6763889]},"properties":{"id":222068001,"name":"淀川風向風速観測所","name_kana":"","ofc_cd":86,"sys_id":2,"sys_cam_id":"22068001","pause":0,"date_type":0,"cam_kind":2,"own_cd":22068}},{"type":"Feature","geometry":{"type":"Point","coordinates":[135.4325,34.6908333]},"properties":{"id":222068002,"name":"西島","name_kana":"","ofc_cd":86,"sys_id":2,"sys_cam_id":"22068002","pause":0,"date_type":0,"cam_kind":2,"own_cd":22068}},{"type":"Feature","geometry":{"type":"Point","coordinates":[135.4433333,34.6869444]},"properties":{"id":222068003,"name":"伝法","name_kana":"","ofc_cd":86,"sys_id":2,"sys_cam_id":"22068003","pause":0,"date_type":0,"cam_kind":2,"own_cd":22068}},{"type":"Feature","geometry":{"type":"Point","coordinates":[135.46375,34.7047222]},"properties":{"id":222068004,"name":"淀川大橋右岸","name_kana":"","ofc_cd":86,"sys_id":2,"sys_cam_id":"22068004","pause":0,"date_type":0,"cam_kind":2,"own_cd":22068}},{"type":"Feature","geometry":{"type":"Point","coordinates":[135.468333333,34.699166667]},"properties":{"id":222068005,"name":"福島出張所","name_kana":"","ofc_cd":86,"sys_id":2,"sys_cam_id":"22068005","pause":0,"date_type":0,"cam_kind":2,"own_cd":22068}},{"type":"Feature","geometry":{"type":"Point","coordinates":[135.4769444,34.7044444]},"properties":{"id":222068006,"name":"大淀（ＪＲ東海道本線付近）","name_kana":"","ofc_cd":86,"sys_id":2,"sys_cam_id":"22068006","pause":0,"date_type":0,"cam_kind":2,"own_cd":22068}},{"type":"Feature","geometry":{"type":"Point","coordinates":[135.4936111,34.7147222]},"properties":{"id":222068007,"name":"中津","name_kana":"","ofc_cd":86,"sys_id":2,"sys_cam_id":"22068007","pause":0,"date_type":0,"cam_kind":2,"own_cd":22068}},{"type":"Feature","geometry":{"type":"Point","coordinates":[135.4983333,34.7227778]},"properties":{"id":222068008,"name":"西中島","name_kana":"","ofc_cd":86,"sys_id":2,"sys_cam_id":"22068008","pause":0,"date_type":0,"cam_kind":2,"own_cd":22068}},{"type":"Feature","geometry":{"type":"Point","coordinates":[135.5133333,34.7191667]},"properties":{"id":222068009,"name":"長柄中","name_kana":"","ofc_cd":86,"sys_id":2,"sys_cam_id":"22068009","pause":0,"date_type":0,"cam_kind":2,"own_cd":22068}},{"type":"Feature","geometry":{"type":"Point","coordinates":[135.5158333,34.7186111]},"properties":{"id":222068010,"name":"毛馬排水機場　水路淀川側","name_kana":"","ofc_cd":86,"sys_id":2,"sys_cam_id":"22068010","pause":0,"date_type":0,"cam_kind":2,"own_cd":22068}},{"type":"Feature","geometry":{"type":"Point","coordinates":[135.5277778,34.7297222]},"properties":{"id":222068012,"name":"赤川","name_kana":"","ofc_cd":86,"sys_id":2,"sys_cam_id":"22068012","pause":0,"date_type":0,"cam_kind":2,"own_cd":22068}},{"type":"Feature","geometry":{"type":"Point","coordinates":[135.5380556,34.7305556]},"properties":{"id":222068013,"name":"城北警報局","name_kana":"","ofc_cd":86,"sys_id":2,"sys_cam_id":"22068013","pause":0,"date_type":0,"cam_kind":2,"own_cd":22068}},{"type":"Feature","geometry":{"type":"Point","coordinates":[135.5441667,34.7311111]},"properties":{"id":222068014,"name":"大工大上流","name_kana":"","ofc_cd":86,"sys_id":2,"sys_cam_id":"22068014","pause":0,"date_type":0,"cam_kind":2,"own_cd":22068}},{"type":"Feature","geometry":{"type":"Point","coordinates":[135.5525,34.7344444]},"properties":{"id":222068015,"name":"太子橋","name_kana":"","ofc_cd":86,"sys_id":2,"sys_cam_id":"22068015","pause":0,"date_type":0,"cam_kind":2,"own_cd":22068}},{"type":"Feature","geometry":{"type":"Point","coordinates":[135.5572222,34.7380556]},"properties":{"id":222068016,"name":"太子橋警報局","name_kana":"","ofc_cd":86,"sys_id":2,"sys_cam_id":"22068016","pause":0,"date_type":0,"cam_kind":2,"own_cd":22068}},{"type":"Feature","geometry":{"type":"Point","coordinates":[135.5536111,34.7508333]},"properties":{"id":222068017,"name":"大桐","name_kana":"","ofc_cd":86,"sys_id":2,"sys_cam_id":"22068017","pause":0,"date_type":0,"cam_kind":2,"own_cd":22068}},{"type":"Feature","geometry":{"type":"Point","coordinates":[135.4466667,34.6105556]},"properties":{"id":222069001,"name":"南港","name_kana":"","ofc_cd":86,"sys_id":2,"sys_cam_id":"22069001","pause":0,"date_type":0,"cam_kind":2,"own_cd":22069}},{"type":"Feature","geometry":{"type":"Point","coordinates":[135.4844444,34.5975]},"properties":{"id":222069002,"name":"住之江","name_kana":"","ofc_cd":86,"sys_id":2,"sys_cam_id":"22069002","pause":0,"date_type":0,"cam_kind":2,"own_cd":22069}},{"type":"Feature","geometry":{"type":"Point","coordinates":[135.53,34.5963889]},"properties":{"id":222069006,"name":"下高野橋","name_kana":"","ofc_cd":86,"sys_id":2,"sys_cam_id":"22069006","pause":0,"date_type":0,"cam_kind":2,"own_cd":22069}},{"type":"Feature","geometry":{"type":"Point","coordinates":[135.474166667,34.601166667]},"properties":{"id":222069023,"name":"大和川右岸２．７ｋｐ","name_kana":"やまとがわうがん2.7kp","ofc_cd":86,"sys_id":2,"sys_cam_id":"22069023","pause":0,"date_type":0,"cam_kind":2,"own_cd":22069}},{"type":"Feature","geometry":{"type":"Point","coordinates":[135.557083333,34.598722222]},"properties":{"id":222069025,"name":"東除川合流","name_kana":"ひがしよけがわごうりゅう","ofc_cd":86,"sys_id":2,"sys_cam_id":"22069025","pause":0,"date_type":0,"cam_kind":2,"own_cd":22069}},{"type":"Feature","geometry":{"type":"Point","coordinates":[135.56606944,34.53159166]},"properties":{"id":106913049,"name":"堂之下橋","name_kana":"どうのしたはし","ofc_cd":86,"sys_id":1,"sys_cam_id":"6913049","pause":0,"date_type":2,"cam_kind":4,"own_cd":6913}},{"type":"Feature","geometry":{"type":"Point","coordinates":[135.544056,34.527603]},"properties":{"id":106913050,"name":"野田","name_kana":"のだ","ofc_cd":86,"sys_id":1,"sys_cam_id":"6913050","pause":0,"date_type":2,"cam_kind":4,"own_cd":6913}},{"type":"Feature","geometry":{"type":"Point","coordinates":[135.47606667,34.52050833]},"properties":{"id":106913051,"name":"万崎橋","name_kana":"","ofc_cd":86,"sys_id":1,"sys_cam_id":"6913051","pause":0,"date_type":2,"cam_kind":4,"own_cd":6913}},{"type":"Feature","geometry":{"type":"Point","coordinates":[135.46253889,34.552369]},"properties":{"id":106913052,"name":"戎橋","name_kana":"","ofc_cd":86,"sys_id":1,"sys_cam_id":"6913052","pause":0,"date_type":2,"cam_kind":4,"own_cd":6913}},{"type":"Feature","geometry":{"type":"Point","coordinates":[135.46689,34.540083]},"properties":{"id":106913057,"name":"津久野","name_kana":"","ofc_cd":86,"sys_id":1,"sys_cam_id":"6913057","pause":0,"date_type":2,"cam_kind":4,"own_cd":6913}},{"type":"Feature","geometry":{"type":"Point","coordinates":[135.476355,34.498604]},"properties":{"id":106913058,"name":"鳩塚橋","name_kana":"はとづかばし","ofc_cd":86,"sys_id":1,"sys_cam_id":"6913058","pause":0,"date_type":2,"cam_kind":4,"own_cd":6913}},{"type":"Feature","geometry":{"type":"Point","coordinates":[135.5075054,34.58568439]},"properties":{"id":106913108,"name":"上浅香橋","name_kana":"かみあさかばし","ofc_cd":86,"sys_id":1,"sys_cam_id":"6913108","pause":0,"date_type":2,"cam_kind":4,"own_cd":6913}},{"type":"Feature","geometry":{"type":"Point","coordinates":[135.513994,34.589134]},"properties":{"id":106913109,"name":"常盤橋","name_kana":"ときわばし","ofc_cd":86,"sys_id":1,"sys_cam_id":"6913109","pause":0,"date_type":2,"cam_kind":4,"own_cd":6913}},{"type":"Feature","geometry":{"type":"Point","coordinates":[135.5686755,34.53679782]},"properties":{"id":106913116,"name":"古川橋","name_kana":"ふるかわばし","ofc_cd":86,"sys_id":1,"sys_cam_id":"6913116","pause":0,"date_type":2,"cam_kind":4,"own_cd":6913}},{"type":"Feature","geometry":{"type":"Point","coordinates":[135.451808333,34.605455556]},"properties":{"id":122069001,"name":"大和川 築港八幡町（下）","name_kana":"","ofc_cd":86,"sys_id":1,"sys_cam_id":"22069001","pause":0,"date_type":2,"cam_kind":4,"own_cd":22069}},{"type":"Feature","geometry":{"type":"Point","coordinates":[135.455455556,34.604658333]},"properties":{"id":122069002,"name":"大和川 築港八幡町（上）","name_kana":"","ofc_cd":86,"sys_id":1,"sys_cam_id":"22069002","pause":0,"date_type":2,"cam_kind":4,"own_cd":22069}},{"type":"Feature","geometry":{"type":"Point","coordinates":[135.460375,34.603225]},"properties":{"id":122069003,"name":"大和川 阪神高速湾岸線大和川橋梁","name_kana":"","ofc_cd":86,"sys_id":1,"sys_cam_id":"22069003","pause":0,"date_type":2,"cam_kind":4,"own_cd":22069}},{"type":"Feature","geometry":{"type":"Point","coordinates":[135.501125,34.585966667]},"properties":{"id":122069006,"name":"大和川 阪和線大和川橋梁","name_kana":"","ofc_cd":86,"sys_id":1,"sys_cam_id":"22069006","pause":0,"date_type":2,"cam_kind":4,"own_cd":22069}},{"type":"Feature","geometry":{"type":"Point","coordinates":[135.483783,34.59583]},"properties":{"id":122069028,"name":"大和川 大和橋","name_kana":"","ofc_cd":86,"sys_id":1,"sys_cam_id":"22069028","pause":0,"date_type":2,"cam_kind":4,"own_cd":22069}},{"type":"Feature","geometry":{"type":"Point","coordinates":[135.4880556,34.5947222]},"properties":{"id":222069003,"name":"遠里小野","name_kana":"","ofc_cd":86,"sys_id":2,"sys_cam_id":"22069003","pause":0,"date_type":0,"cam_kind":2,"own_cd":22069}},{"type":"Feature","geometry":{"type":"Point","coordinates":[135.4955556,34.5919444]},"properties":{"id":222069004,"name":"香ヶ丘","name_kana":"","ofc_cd":86,"sys_id":2,"sys_cam_id":"22069004","pause":0,"date_type":0,"cam_kind":2,"own_cd":22069}},{"type":"Feature","geometry":{"type":"Point","coordinates":[135.511972222,34.58875]},"properties":{"id":222069024,"name":"西除川合流","name_kana":"にしよけがわごうりゅう","ofc_cd":86,"sys_id":2,"sys_cam_id":"22069024","pause":0,"date_type":0,"cam_kind":2,"own_cd":22069}},{"type":"Feature","geometry":{"type":"Point","coordinates":[135.394172,34.46434167]},"properties":{"id":106913039,"name":"森池橋","name_kana":"","ofc_cd":86,"sys_id":1,"sys_cam_id":"6913039","pause":0,"date_type":2,"cam_kind":4,"own_cd":6913}},{"type":"Feature","geometry":{"type":"Point","coordinates":[135.427692,34.45504167]},"properties":{"id":106913047,"name":"山直橋","name_kana":"","ofc_cd":86,"sys_id":1,"sys_cam_id":"6913047","pause":0,"date_type":2,"cam_kind":4,"own_cd":6913}},{"type":"Feature","geometry":{"type":"Point","coordinates":[135.463987,34.7951]},"properties":{"id":106913007,"name":"春日橋","name_kana":"","ofc_cd":86,"sys_id":1,"sys_cam_id":"6913007","pause":0,"date_type":2,"cam_kind":4,"own_cd":6913}},{"type":"Feature","geometry":{"type":"Point","coordinates":[135.479469,34.76383889]},"properties":{"id":106913009,"name":"天竺川橋","name_kana":"","ofc_cd":86,"sys_id":1,"sys_cam_id":"6913009","pause":0,"date_type":2,"cam_kind":4,"own_cd":6913}},{"type":"Feature","geometry":{"type":"Point","coordinates":[135.47737222,34.78584722]},"properties":{"id":106913023,"name":"のぞみ橋","name_kana":"のぞみばし","ofc_cd":86,"sys_id":1,"sys_cam_id":"6913023","pause":0,"date_type":2,"cam_kind":4,"own_cd":6913}},{"type":"Feature","geometry":{"type":"Point","coordinates":[135.451358333,34.766433333]},"properties":{"id":122070002,"name":"猪名川 千里川合流上","name_kana":"","ofc_cd":86,"sys_id":1,"sys_cam_id":"22070002","pause":0,"date_type":0,"cam_kind":4,"own_cd":22070}},{"type":"Feature","geometry":{"type":"Point","coordinates":[135.45396389,34.76395833]},"properties":{"id":222070012,"name":"利倉","name_kana":"","ofc_cd":86,"sys_id":2,"sys_cam_id":"22070010","pause":0,"date_type":0,"cam_kind":2,"own_cd":22070}},{"type":"Feature","geometry":{"type":"Point","coordinates":[135.45737222,34.7587]},"properties":{"id":222070013,"name":"新南園橋（上流）","name_kana":"","ofc_cd":86,"sys_id":2,"sys_cam_id":"22070011","pause":0,"date_type":0,"cam_kind":2,"own_cd":22070}},{"type":"Feature","geometry":{"type":"Point","coordinates":[135.45666667,34.75472222]},"properties":{"id":222070014,"name":"新南園橋（下流）","name_kana":"","ofc_cd":86,"sys_id":2,"sys_cam_id":"22070012","pause":0,"date_type":0,"cam_kind":2,"own_cd":22070}},{"type":"Feature","geometry":{"type":"Point","coordinates":[135.43600278,34.85032]},"properties":{"id":106913005,"name":"高橋","name_kana":"","ofc_cd":86,"sys_id":1,"sys_cam_id":"6913005","pause":0,"date_type":2,"cam_kind":4,"own_cd":6913}},{"type":"Feature","geometry":{"type":"Point","coordinates":[135.44525833,34.809851]},"properties":{"id":106913006,"name":"箕面川橋","name_kana":"","ofc_cd":86,"sys_id":1,"sys_cam_id":"6913006","pause":0,"date_type":2,"cam_kind":4,"own_cd":6913}},{"type":"Feature","geometry":{"type":"Point","coordinates":[135.42553888,34.84215]},"properties":{"id":106913026,"name":"古江橋","name_kana":"ふるえばし","ofc_cd":86,"sys_id":1,"sys_cam_id":"6913026","pause":0,"date_type":2,"cam_kind":4,"own_cd":6913}},{"type":"Feature","geometry":{"type":"Point","coordinates":[135.422222222,34.825858333]},"properties":{"id":222070001,"name":"小戸","name_kana":"","ofc_cd":86,"sys_id":2,"sys_cam_id":"22070007","pause":0,"date_type":0,"cam_kind":2,"own_cd":22070}},{"type":"Feature","geometry":{"type":"Point","coordinates":[135.418419444,34.814738889]},"properties":{"id":222070002,"name":"猪名川運動公園","name_kana":"","ofc_cd":86,"sys_id":2,"sys_cam_id":"22070008","pause":0,"date_type":0,"cam_kind":2,"own_cd":22070}},{"type":"Feature","geometry":{"type":"Point","coordinates":[135.42556666,34.83555555]},"properties":{"id":222070009,"name":"加茂井堰","name_kana":"","ofc_cd":86,"sys_id":2,"sys_cam_id":"22070005","pause":0,"date_type":0,"cam_kind":2,"own_cd":22070}},{"type":"Feature","geometry":{"type":"Point","coordinates":[135.42433333,34.83325556]},"properties":{"id":222070010,"name":"絹延橋","name_kana":"","ofc_cd":86,"sys_id":2,"sys_cam_id":"22070006","pause":0,"date_type":0,"cam_kind":2,"own_cd":22070}},{"type":"Feature","geometry":{"type":"Point","coordinates":[135.506122,34.775674]},"properties":{"id":106913003,"name":"千里山東公園前","name_kana":"せんりやまひがしこうえんまえ","ofc_cd":86,"sys_id":1,"sys_cam_id":"6913003","pause":0,"date_type":2,"cam_kind":4,"own_cd":6913}},{"type":"Feature","geometry":{"type":"Point","coordinates":[135.488337,34.76530278]},"properties":{"id":106913008,"name":"水路橋","name_kana":"","ofc_cd":86,"sys_id":1,"sys_cam_id":"6913008","pause":0,"date_type":2,"cam_kind":4,"own_cd":6913}},{"type":"Feature","geometry":{"type":"Point","coordinates":[135.5487634,34.772098737]},"properties":{"id":106913106,"name":"正雀川新橋","name_kana":"しょうじゃくかわしんばし","ofc_cd":86,"sys_id":1,"sys_cam_id":"6913106","pause":0,"date_type":2,"cam_kind":4,"own_cd":6913}},{"type":"Feature","geometry":{"type":"Point","coordinates":[135.5086056,34.76152122]},"properties":{"id":106913107,"name":"糸田橋","name_kana":"いとだばし","ofc_cd":86,"sys_id":1,"sys_cam_id":"6913107","pause":0,"date_type":2,"cam_kind":4,"own_cd":6913}},{"type":"Feature","geometry":{"type":"Point","coordinates":[135.39719167,34.495496]},"properties":{"id":106913053,"name":"楯並橋","name_kana":"","ofc_cd":86,"sys_id":1,"sys_cam_id":"6913053","pause":0,"date_type":2,"cam_kind":4,"own_cd":6913}},{"type":"Feature","geometry":{"type":"Point","coordinates":[135.62131388,34.87584166]},"properties":{"id":106913004,"name":"弥生橋","name_kana":"やよいばし","ofc_cd":86,"sys_id":1,"sys_cam_id":"6913004","pause":0,"date_type":2,"cam_kind":4,"own_cd":6913}},{"type":"Feature","geometry":{"type":"Point","coordinates":[135.60533611,34.838056]},"properties":{"id":106913012,"name":"天堂橋","name_kana":"","ofc_cd":86,"sys_id":1,"sys_cam_id":"6913012","pause":0,"date_type":2,"cam_kind":4,"own_cd":6913}},{"type":"Feature","geometry":{"type":"Point","coordinates":[135.642778,34.85333889]},"properties":{"id":106913013,"name":"檜尾川橋","name_kana":"","ofc_cd":86,"sys_id":1,"sys_cam_id":"6913013","pause":0,"date_type":2,"cam_kind":4,"own_cd":6913}},{"type":"Feature","geometry":{"type":"Point","coordinates":[135.607208,34.85235833]},"properties":{"id":106913014,"name":"芥川橋","name_kana":"","ofc_cd":86,"sys_id":1,"sys_cam_id":"6913014","pause":0,"date_type":2,"cam_kind":4,"own_cd":6913}},{"type":"Feature","geometry":{"type":"Point","coordinates":[135.601727,34.893543]},"properties":{"id":106913016,"name":"大森橋","name_kana":"おおもりばし","ofc_cd":86,"sys_id":1,"sys_cam_id":"6913016","pause":0,"date_type":2,"cam_kind":4,"own_cd":6913}},{"type":"Feature","geometry":{"type":"Point","coordinates":[135.625475,34.87726388]},"properties":{"id":106913017,"name":"檜尾川上流","name_kana":"ひおがわじょうりゅう","ofc_cd":86,"sys_id":1,"sys_cam_id":"6913017","pause":0,"date_type":2,"cam_kind":4,"own_cd":6913}},{"type":"Feature","geometry":{"type":"Point","coordinates":[135.59094722,34.86678333]},"properties":{"id":106913092,"name":"西之川原橋","name_kana":"にしのかわらはし","ofc_cd":86,"sys_id":1,"sys_cam_id":"6913092","pause":0,"date_type":2,"cam_kind":4,"own_cd":6913}},{"type":"Feature","geometry":{"type":"Point","coordinates":[135.6175,34.8138889]},"properties":{"id":222068023,"name":"芥川合流部","name_kana":"","ofc_cd":86,"sys_id":2,"sys_cam_id":"22068023","pause":0,"date_type":0,"cam_kind":2,"own_cd":22068}},{"type":"Feature","geometry":{"type":"Point","coordinates":[135.625833333,34.8175]},"properties":{"id":222068024,"name":"高槻出張所","name_kana":"","ofc_cd":86,"sys_id":2,"sys_cam_id":"22068024","pause":0,"date_type":0,"cam_kind":2,"own_cd":22068}},{"type":"Feature","geometry":{"type":"Point","coordinates":[135.6525,34.8538889]},"properties":{"id":222068029,"name":"鵜殿","name_kana":"","ofc_cd":86,"sys_id":2,"sys_cam_id":"22068029","pause":0,"date_type":0,"cam_kind":2,"own_cd":22068}},{"type":"Feature","geometry":{"type":"Point","coordinates":[135.6644444,34.8633333]},"properties":{"id":222068030,"name":"山崎出張所","name_kana":"","ofc_cd":86,"sys_id":2,"sys_cam_id":"22068030","pause":0,"date_type":0,"cam_kind":2,"own_cd":22068}},{"type":"Feature","geometry":{"type":"Point","coordinates":[135.6161111,34.8238889]},"properties":{"id":222068035,"name":"芝生大橋","name_kana":"","ofc_cd":86,"sys_id":2,"sys_cam_id":"22068035","pause":0,"date_type":0,"cam_kind":2,"own_cd":22068}},{"type":"Feature","geometry":{"type":"Point","coordinates":[135.37403056,34.44575556]},"properties":{"id":106913040,"name":"青木橋","name_kana":"","ofc_cd":86,"sys_id":1,"sys_cam_id":"6913040","pause":0,"date_type":2,"cam_kind":4,"own_cd":6913}},{"type":"Feature","geometry":{"type":"Point","coordinates":[135.34899722,34.435363]},"properties":{"id":106913041,"name":"昭永橋","name_kana":"","ofc_cd":86,"sys_id":1,"sys_cam_id":"6913041","pause":0,"date_type":2,"cam_kind":4,"own_cd":6913}},{"type":"Feature","geometry":{"type":"Point","coordinates":[135.363635,34.452734]},"properties":{"id":106913059,"name":"南海本線","name_kana":"なんかいほんせん","ofc_cd":86,"sys_id":1,"sys_cam_id":"6913059","pause":0,"date_type":2,"cam_kind":4,"own_cd":6913}},{"type":"Feature","geometry":{"type":"Point","coordinates":[135.5638889,34.7527778]},"properties":{"id":222068018,"name":"八雲","name_kana":"","ofc_cd":86,"sys_id":2,"sys_cam_id":"22068018","pause":0,"date_type":0,"cam_kind":2,"own_cd":22068}},{"type":"Feature","geometry":{"type":"Point","coordinates":[135.5702778,34.7541667]},"properties":{"id":222068020,"name":"庭窪レストセンター","name_kana":"","ofc_cd":86,"sys_id":2,"sys_cam_id":"22068020","pause":0,"date_type":0,"cam_kind":2,"own_cd":22068}},{"type":"Feature","geometry":{"type":"Point","coordinates":[135.5822222,34.7602778]},"properties":{"id":222068021,"name":"大庭浄水場取水樋門","name_kana":"","ofc_cd":86,"sys_id":2,"sys_cam_id":"22068021","pause":0,"date_type":0,"cam_kind":2,"own_cd":22068}},{"type":"Feature","geometry":{"type":"Point","coordinates":[135.68597,34.820858]},"properties":{"id":106913074,"name":"出屋敷歩道橋","name_kana":"でやしきほどうきょう","ofc_cd":86,"sys_id":1,"sys_cam_id":"6913074","pause":0,"date_type":2,"cam_kind":4,"own_cd":6913}},{"type":"Feature","geometry":{"type":"Point","coordinates":[135.701776,34.813673]},"properties":{"id":106913075,"name":"満穂橋","name_kana":"みづほばし","ofc_cd":86,"sys_id":1,"sys_cam_id":"6913075","pause":0,"date_type":2,"cam_kind":4,"own_cd":6913}},{"type":"Feature","geometry":{"type":"Point","coordinates":[135.67759722,34.850837]},"properties":{"id":106913076,"name":"西河原橋","name_kana":"","ofc_cd":86,"sys_id":1,"sys_cam_id":"6913076","pause":0,"date_type":2,"cam_kind":4,"own_cd":6913}},{"type":"Feature","geometry":{"type":"Point","coordinates":[135.65409444,34.81438333]},"properties":{"id":106913078,"name":"禁野橋","name_kana":"","ofc_cd":86,"sys_id":1,"sys_cam_id":"6913078","pause":0,"date_type":2,"cam_kind":4,"own_cd":6913}},{"type":"Feature","geometry":{"type":"Point","coordinates":[135.665158,34.84023333]},"properties":{"id":106913079,"name":"山垣内橋","name_kana":"","ofc_cd":86,"sys_id":1,"sys_cam_id":"6913079","pause":0,"date_type":2,"cam_kind":4,"own_cd":6913}},{"type":"Feature","geometry":{"type":"Point","coordinates":[135.641388889,34.816111111]},"properties":{"id":222068025,"name":"淀川河川事務所","name_kana":"","ofc_cd":86,"sys_id":2,"sys_cam_id":"22068025","pause":0,"date_type":0,"cam_kind":2,"own_cd":22068}},{"type":"Feature","geometry":{"type":"Point","coordinates":[135.6415278,34.8161111]},"properties":{"id":222068026,"name":"淀川河川事務所２","name_kana":"","ofc_cd":86,"sys_id":2,"sys_cam_id":"22068026","pause":0,"date_type":0,"cam_kind":2,"own_cd":22068}},{"type":"Feature","geometry":{"type":"Point","coordinates":[135.6483333,34.8305556]},"properties":{"id":222068027,"name":"磯島取水場取水樋門","name_kana":"","ofc_cd":86,"sys_id":2,"sys_cam_id":"22068027","pause":0,"date_type":0,"cam_kind":2,"own_cd":22068}},{"type":"Feature","geometry":{"type":"Point","coordinates":[135.6566667,34.8427778]},"properties":{"id":222068028,"name":"渚内野","name_kana":"","ofc_cd":86,"sys_id":2,"sys_cam_id":"22068028","pause":0,"date_type":0,"cam_kind":2,"own_cd":22068}},{"type":"Feature","geometry":{"type":"Point","coordinates":[135.571157,34.840249]},"properties":{"id":106913002,"name":"太田橋","name_kana":"おおだばし","ofc_cd":86,"sys_id":1,"sys_cam_id":"6913002","pause":0,"date_type":2,"cam_kind":4,"own_cd":6913}},{"type":"Feature","geometry":{"type":"Point","coordinates":[135.558965,34.83818889]},"properties":{"id":106913011,"name":"幣久良橋","name_kana":"","ofc_cd":86,"sys_id":1,"sys_cam_id":"6913011","pause":0,"date_type":2,"cam_kind":4,"own_cd":6913}},{"type":"Feature","geometry":{"type":"Point","coordinates":[135.57994444,34.82238888]},"properties":{"id":106913018,"name":"千歳橋","name_kana":"せんさいばし","ofc_cd":86,"sys_id":1,"sys_cam_id":"6913018","pause":0,"date_type":2,"cam_kind":4,"own_cd":6913}},{"type":"Feature","geometry":{"type":"Point","coordinates":[135.58156388,34.78776666]},"properties":{"id":106913027,"name":"宮鳥橋","name_kana":"みやとりばし","ofc_cd":86,"sys_id":1,"sys_cam_id":"6913027","pause":0,"date_type":2,"cam_kind":4,"own_cd":6913}},{"type":"Feature","geometry":{"type":"Point","coordinates":[135.55440277,34.84035833]},"properties":{"id":106913094,"name":"中河原橋","name_kana":"なかがわらはし","ofc_cd":86,"sys_id":1,"sys_cam_id":"6913094","pause":0,"date_type":2,"cam_kind":4,"own_cd":6913}},{"type":"Feature","geometry":{"type":"Point","coordinates":[135.5533384,34.84569619]},"properties":{"id":106913105,"name":"新屋橋","name_kana":"にいやばし","ofc_cd":86,"sys_id":1,"sys_cam_id":"6913105","pause":0,"date_type":2,"cam_kind":4,"own_cd":6913}},{"type":"Feature","geometry":{"type":"Point","coordinates":[135.58350555,34.61232222]},"properties":{"id":106913080,"name":"太子橋","name_kana":"たいしはし","ofc_cd":86,"sys_id":1,"sys_cam_id":"6913080","pause":0,"date_type":2,"cam_kind":4,"own_cd":6913}},{"type":"Feature","geometry":{"type":"Point","coordinates":[135.60724722,34.63428333]},"properties":{"id":106913085,"name":"萱振大橋","name_kana":"かやふりおおはし","ofc_cd":86,"sys_id":1,"sys_cam_id":"6913085","pause":0,"date_type":2,"cam_kind":4,"own_cd":6913}},{"type":"Feature","geometry":{"type":"Point","coordinates":[135.62574166,34.62835833]},"properties":{"id":106913090,"name":"中高橋","name_kana":"なかたかばし","ofc_cd":86,"sys_id":1,"sys_cam_id":"6913090","pause":0,"date_type":2,"cam_kind":4,"own_cd":6913}},{"type":"Feature","geometry":{"type":"Point","coordinates":[135.6227907,34.650481]},"properties":{"id":106913125,"name":"恩智川治水緑地","name_kana":"おんちがわちすいりょくち","ofc_cd":86,"sys_id":1,"sys_cam_id":"6913125","pause":0,"date_type":2,"cam_kind":4,"own_cd":6913}},{"type":"Feature","geometry":{"type":"Point","coordinates":[135.584263889,34.591538889]},"properties":{"id":122069010,"name":"大和川 八尾市若林町","name_kana":"","ofc_cd":86,"sys_id":1,"sys_cam_id":"22069010","pause":0,"date_type":2,"cam_kind":4,"own_cd":22069}},{"type":"Feature","geometry":{"type":"Point","coordinates":[135.582833333,34.592277778]},"properties":{"id":222069026,"name":"若林防災ステーション","name_kana":"わかばやしぼうさいすてーしょん","ofc_cd":86,"sys_id":2,"sys_cam_id":"22069026","pause":0,"date_type":0,"cam_kind":2,"own_cd":22069}},{"type":"Feature","geometry":{"type":"Point","coordinates":[135.34540833,34.42580556]},"properties":{"id":106913042,"name":"見出川橋","name_kana":"","ofc_cd":86,"sys_id":1,"sys_cam_id":"6913042","pause":0,"date_type":2,"cam_kind":4,"own_cd":6913}},{"type":"Feature","geometry":{"type":"Point","coordinates":[135.328872,34.416647]},"properties":{"id":106913043,"name":"佐野川橋","name_kana":"","ofc_cd":86,"sys_id":1,"sys_cam_id":"6913043","pause":0,"date_type":2,"cam_kind":4,"own_cd":6913}},{"type":"Feature","geometry":{"type":"Point","coordinates":[135.29632222,34.381389]},"properties":{"id":106913044,"name":"大正大橋","name_kana":"","ofc_cd":86,"sys_id":1,"sys_cam_id":"6913044","pause":0,"date_type":2,"cam_kind":4,"own_cd":6913}},{"type":"Feature","geometry":{"type":"Point","coordinates":[135.606056,34.485631]},"properties":{"id":106913034,"name":"三中橋","name_kana":"","ofc_cd":86,"sys_id":1,"sys_cam_id":"6913034","pause":0,"date_type":2,"cam_kind":4,"own_cd":6913}},{"type":"Feature","geometry":{"type":"Point","coordinates":[135.60639166,34.50013611]},"properties":{"id":106913035,"name":"金剛大橋","name_kana":"こんごうおおはし","ofc_cd":86,"sys_id":1,"sys_cam_id":"6913035","pause":0,"date_type":2,"cam_kind":4,"own_cd":6913}},{"type":"Feature","geometry":{"type":"Point","coordinates":[135.61725833,34.51769722]},"properties":{"id":106913036,"name":"河南橋","name_kana":"","ofc_cd":86,"sys_id":1,"sys_cam_id":"6913036","pause":0,"date_type":2,"cam_kind":4,"own_cd":6913}},{"type":"Feature","geometry":{"type":"Point","coordinates":[135.62233055,34.49420555]},"properties":{"id":106913097,"name":"上東条橋","name_kana":"かみとうじょうはし","ofc_cd":86,"sys_id":1,"sys_cam_id":"6913097","pause":0,"date_type":2,"cam_kind":4,"own_cd":6913}},{"type":"Feature","geometry":{"type":"Point","coordinates":[135.63612222,34.74975]},"properties":{"id":106913095,"name":"讃良川高橋","name_kana":"さらがわたかはし","ofc_cd":86,"sys_id":1,"sys_cam_id":"6913095","pause":0,"date_type":2,"cam_kind":4,"own_cd":6913}},{"type":"Feature","geometry":{"type":"Point","coordinates":[135.616446,34.75887633]},"properties":{"id":106913126,"name":"古川導水路","name_kana":"ふるかわどうすいろ","ofc_cd":86,"sys_id":1,"sys_cam_id":"6913126","pause":0,"date_type":2,"cam_kind":4,"own_cd":6913}},{"type":"Feature","geometry":{"type":"Point","coordinates":[135.5933333,34.77]},"properties":{"id":222068022,"name":"仁和寺","name_kana":"","ofc_cd":86,"sys_id":2,"sys_cam_id":"22068022","pause":0,"date_type":0,"cam_kind":2,"own_cd":22068}},{"type":"Feature","geometry":{"type":"Point","coordinates":[135.53308055,34.44558333]},"properties":{"id":106913031,"name":"高橋","name_kana":"たかはし","ofc_cd":86,"sys_id":1,"sys_cam_id":"6913031","pause":0,"date_type":2,"cam_kind":4,"own_cd":6913}},{"type":"Feature","geometry":{"type":"Point","coordinates":[135.572169,34.428434]},"properties":{"id":106913033,"name":"大川橋","name_kana":"おおかわばし","ofc_cd":86,"sys_id":1,"sys_cam_id":"6913033","pause":0,"date_type":2,"cam_kind":4,"own_cd":6913}},{"type":"Feature","geometry":{"type":"Point","coordinates":[135.598718,34.435469]},"properties":{"id":106913037,"name":"南大門橋","name_kana":"","ofc_cd":86,"sys_id":1,"sys_cam_id":"6913037","pause":0,"date_type":2,"cam_kind":4,"own_cd":6913}},{"type":"Feature","geometry":{"type":"Point","coordinates":[135.5738998,34.45069554]},"properties":{"id":106913111,"name":"諸越橋","name_kana":"もろこしばし","ofc_cd":86,"sys_id":1,"sys_cam_id":"6913111","pause":0,"date_type":2,"cam_kind":4,"own_cd":6913}},{"type":"Feature","geometry":{"type":"Point","coordinates":[135.5668613,34.43874757]},"properties":{"id":106913115,"name":"平和橋","name_kana":"へいわばし","ofc_cd":86,"sys_id":1,"sys_cam_id":"6913115","pause":0,"date_type":2,"cam_kind":4,"own_cd":6913}},{"type":"Feature","geometry":{"type":"Point","coordinates":[135.574002778,34.592633333]},"properties":{"id":122069009,"name":"大和川 新明治橋","name_kana":"","ofc_cd":86,"sys_id":1,"sys_cam_id":"22069009","pause":0,"date_type":2,"cam_kind":4,"own_cd":22069}},{"type":"Feature","geometry":{"type":"Point","coordinates":[135.5230556,34.5933333]},"properties":{"id":222069005,"name":"今池","name_kana":"","ofc_cd":86,"sys_id":2,"sys_cam_id":"22069005","pause":0,"date_type":0,"cam_kind":2,"own_cd":22069}},{"type":"Feature","geometry":{"type":"Point","coordinates":[135.61945833,34.70712777]},"properties":{"id":106913077,"name":"住道","name_kana":"すみのどう","ofc_cd":86,"sys_id":1,"sys_cam_id":"6913077","pause":0,"date_type":2,"cam_kind":4,"own_cd":6913}},{"type":"Feature","geometry":{"type":"Point","coordinates":[135.62542222,34.72572222]},"properties":{"id":106913086,"name":"寝屋川治水緑地","name_kana":"ねやがわちすいりょくち","ofc_cd":86,"sys_id":1,"sys_cam_id":"6913086","pause":0,"date_type":2,"cam_kind":4,"own_cd":6913}},{"type":"Feature","geometry":{"type":"Point","coordinates":[135.64190555,34.73173888]},"properties":{"id":106913096,"name":"鎌池公園","name_kana":"","ofc_cd":86,"sys_id":1,"sys_cam_id":"6913096","pause":0,"date_type":2,"cam_kind":4,"own_cd":6913}},{"type":"Feature","geometry":{"type":"Point","coordinates":[135.6294537,34.73128865]},"properties":{"id":106913122,"name":"寝屋川治水緑地","name_kana":"ねやがわちすいりょくち","ofc_cd":86,"sys_id":1,"sys_cam_id":"6913122","pause":0,"date_type":2,"cam_kind":4,"own_cd":6913}},{"type":"Feature","geometry":{"type":"Point","coordinates":[135.47485556,34.454595]},"properties":{"id":106913054,"name":"川中橋","name_kana":"","ofc_cd":86,"sys_id":1,"sys_cam_id":"6913054","pause":0,"date_type":2,"cam_kind":4,"own_cd":6913}},{"type":"Feature","geometry":{"type":"Point","coordinates":[135.43277222,34.479117]},"properties":{"id":106913055,"name":"桑原大橋","name_kana":"","ofc_cd":86,"sys_id":1,"sys_cam_id":"6913055","pause":0,"date_type":2,"cam_kind":4,"own_cd":6913}},{"type":"Feature","geometry":{"type":"Point","coordinates":[135.42165277,34.47578611]},"properties":{"id":106913099,"name":"新緑田橋","name_kana":"しんみどりだばし","ofc_cd":86,"sys_id":1,"sys_cam_id":"6913099","pause":0,"date_type":2,"cam_kind":4,"own_cd":6913}},{"type":"Feature","geometry":{"type":"Point","coordinates":[135.45927222,34.87950555]},"properties":{"id":106913020,"name":"大正橋","name_kana":"たいしょうばし","ofc_cd":86,"sys_id":1,"sys_cam_id":"6913020","pause":0,"date_type":2,"cam_kind":4,"own_cd":6913}},{"type":"Feature","geometry":{"type":"Point","coordinates":[135.45048333,34.82396944]},"properties":{"id":106913091,"name":"石澄川橋","name_kana":"","ofc_cd":86,"sys_id":1,"sys_cam_id":"6913091","pause":0,"date_type":2,"cam_kind":4,"own_cd":6913}},{"type":"Feature","geometry":{"type":"Point","coordinates":[135.4653544,34.832354265]},"properties":{"id":106913104,"name":"徳尾橋","name_kana":"とくおばし","ofc_cd":86,"sys_id":1,"sys_cam_id":"6913104","pause":0,"date_type":2,"cam_kind":4,"own_cd":6913}},{"type":"Feature","geometry":{"type":"Point","coordinates":[135.633608,34.567159]},"properties":{"id":106913081,"name":"新玉手橋","name_kana":"","ofc_cd":86,"sys_id":1,"sys_cam_id":"6913081","pause":0,"date_type":2,"cam_kind":4,"own_cd":6913}},{"type":"Feature","geometry":{"type":"Point","coordinates":[135.64461944,34.5713444]},"properties":{"id":122069012,"name":"大和川 柏原市高井田","name_kana":"","ofc_cd":86,"sys_id":1,"sys_cam_id":"22069012","pause":0,"date_type":2,"cam_kind":4,"own_cd":22069}},{"type":"Feature","geometry":{"type":"Point","coordinates":[135.652369444,34.5700305]},"properties":{"id":122069013,"name":"大和川 柏原市国分市場","name_kana":"","ofc_cd":86,"sys_id":1,"sys_cam_id":"22069013","pause":0,"date_type":2,"cam_kind":4,"own_cd":22069}},{"type":"Feature","geometry":{"type":"Point","coordinates":[135.652369444,34.56891944]},"properties":{"id":122069014,"name":"大和川 柏原市青谷","name_kana":"","ofc_cd":86,"sys_id":1,"sys_cam_id":"22069014","pause":0,"date_type":2,"cam_kind":4,"own_cd":22069}},{"type":"Feature","geometry":{"type":"Point","coordinates":[135.6288889,34.5780556]},"properties":{"id":222069008,"name":"石川合流点","name_kana":"","ofc_cd":86,"sys_id":2,"sys_cam_id":"22069008","pause":0,"date_type":0,"cam_kind":2,"own_cd":22069}},{"type":"Feature","geometry":{"type":"Point","coordinates":[135.61466666,34.55106111]},"properties":{"id":106913029,"name":"石川浄水場前","name_kana":"いしかわじょうすいじょうまえ","ofc_cd":86,"sys_id":1,"sys_cam_id":"6913029","pause":0,"date_type":2,"cam_kind":4,"own_cd":6913}},{"type":"Feature","geometry":{"type":"Point","coordinates":[135.57526944,34.56228333]},"properties":{"id":106913032,"name":"観音橋","name_kana":"かんのんはし","ofc_cd":86,"sys_id":1,"sys_cam_id":"6913032","pause":0,"date_type":2,"cam_kind":4,"own_cd":6913}},{"type":"Feature","geometry":{"type":"Point","coordinates":[135.6328,34.5365]},"properties":{"id":106913038,"name":"八丁橋","name_kana":"はっちょうばし","ofc_cd":86,"sys_id":1,"sys_cam_id":"6913038","pause":0,"date_type":2,"cam_kind":4,"own_cd":6913}},{"type":"Feature","geometry":{"type":"Point","coordinates":[135.6229683,34.54592969]},"properties":{"id":106913113,"name":"逢坂橋","name_kana":"おおさかばし","ofc_cd":86,"sys_id":1,"sys_cam_id":"6913113","pause":0,"date_type":2,"cam_kind":4,"own_cd":6913}},{"type":"Feature","geometry":{"type":"Point","coordinates":[135.59535277,34.72626111]},"properties":{"id":106913088,"name":"桑才","name_kana":"くわざい","ofc_cd":86,"sys_id":1,"sys_cam_id":"6913088","pause":0,"date_type":2,"cam_kind":4,"own_cd":6913}},{"type":"Feature","geometry":{"type":"Point","coordinates":[135.54999722,34.77993333]},"properties":{"id":106913010,"name":"阪急京都線","name_kana":"","ofc_cd":86,"sys_id":1,"sys_cam_id":"6913010","pause":0,"date_type":2,"cam_kind":4,"own_cd":6913}},{"type":"Feature","geometry":{"type":"Point","coordinates":[135.56293888,34.77463333]},"properties":{"id":106913019,"name":"鶴野橋","name_kana":"つるのはし","ofc_cd":86,"sys_id":1,"sys_cam_id":"6913019","pause":0,"date_type":2,"cam_kind":4,"own_cd":6913}},{"type":"Feature","geometry":{"type":"Point","coordinates":[135.55891944,34.78813333]},"properties":{"id":106913093,"name":"生駒橋","name_kana":"いこまばし","ofc_cd":86,"sys_id":1,"sys_cam_id":"6913093","pause":0,"date_type":2,"cam_kind":4,"own_cd":6913}},{"type":"Feature","geometry":{"type":"Point","coordinates":[135.56,34.7569444]},"properties":{"id":222068019,"name":"一津屋樋門","name_kana":"","ofc_cd":86,"sys_id":2,"sys_cam_id":"22068019","pause":0,"date_type":0,"cam_kind":2,"own_cd":22068}},{"type":"Feature","geometry":{"type":"Point","coordinates":[135.44213333,34.52393056]},"properties":{"id":106913056,"name":"加茂","name_kana":"","ofc_cd":86,"sys_id":1,"sys_cam_id":"6913056","pause":0,"date_type":2,"cam_kind":4,"own_cd":6913}},{"type":"Feature","geometry":{"type":"Point","coordinates":[135.59679444,34.58314722]},"properties":{"id":106913098,"name":"小山","name_kana":"こやま","ofc_cd":86,"sys_id":1,"sys_cam_id":"6913098","pause":0,"date_type":2,"cam_kind":4,"own_cd":6913}},{"type":"Feature","geometry":{"type":"Point","coordinates":[135.6175,34.5827778]},"properties":{"id":222069007,"name":"柏原","name_kana":"","ofc_cd":86,"sys_id":2,"sys_cam_id":"22069007","pause":0,"date_type":0,"cam_kind":2,"own_cd":22069}},{"type":"Feature","geometry":{"type":"Point","coordinates":[135.6213889,34.5708333]},"properties":{"id":222069021,"name":"道明寺","name_kana":"","ofc_cd":86,"sys_id":2,"sys_cam_id":"22069021","pause":0,"date_type":0,"cam_kind":2,"own_cd":22069}},{"type":"Feature","geometry":{"type":"Point","coordinates":[135.64387777,34.6992]},"properties":{"id":106913082,"name":"東高野街道","name_kana":"ひがしこうやかいどう","ofc_cd":86,"sys_id":1,"sys_cam_id":"6913082","pause":0,"date_type":2,"cam_kind":4,"own_cd":6913}},{"type":"Feature","geometry":{"type":"Point","coordinates":[135.63514999,34.69376944]},"properties":{"id":106913083,"name":"宮前橋","name_kana":"","ofc_cd":86,"sys_id":1,"sys_cam_id":"6913083","pause":0,"date_type":2,"cam_kind":4,"own_cd":6913}},{"type":"Feature","geometry":{"type":"Point","coordinates":[135.63293333,34.67159166]},"properties":{"id":106913084,"name":"花園遊水地","name_kana":"はなぞのゆうすいち","ofc_cd":86,"sys_id":1,"sys_cam_id":"6913084","pause":0,"date_type":2,"cam_kind":4,"own_cd":6913}},{"type":"Feature","geometry":{"type":"Point","coordinates":[135.56703055,34.68760277]},"properties":{"id":106913087,"name":"昭明橋","name_kana":"","ofc_cd":86,"sys_id":1,"sys_cam_id":"6913087","pause":0,"date_type":2,"cam_kind":4,"own_cd":6913}},{"type":"Feature","geometry":{"type":"Point","coordinates":[135.62568055,34.64995]},"properties":{"id":106913089,"name":"恩智川治水緑地","name_kana":"おんちがわちすいりょくち","ofc_cd":86,"sys_id":1,"sys_cam_id":"6913089","pause":0,"date_type":2,"cam_kind":4,"own_cd":6913}},{"type":"Feature","geometry":{"type":"Point","coordinates":[135.63362777,34.68979722]},"properties":{"id":106913101,"name":"芝大橋","name_kana":"","ofc_cd":86,"sys_id":1,"sys_cam_id":"6913101","pause":0,"date_type":2,"cam_kind":4,"own_cd":6913}},{"type":"Feature","geometry":{"type":"Point","coordinates":[135.5932536,34.66575668]},"properties":{"id":106913124,"name":"新田大橋","name_kana":"しんでんおおはし","ofc_cd":86,"sys_id":1,"sys_cam_id":"6913124","pause":0,"date_type":2,"cam_kind":4,"own_cd":6913}},{"type":"Feature","geometry":{"type":"Point","coordinates":[135.28098056,34.39056111]},"properties":{"id":106913045,"name":"江永橋","name_kana":"","ofc_cd":86,"sys_id":1,"sys_cam_id":"6913045","pause":0,"date_type":2,"cam_kind":4,"own_cd":6913}},{"type":"Feature","geometry":{"type":"Point","coordinates":[135.25247222,34.360859]},"properties":{"id":106913046,"name":"男里川橋","name_kana":"","ofc_cd":86,"sys_id":1,"sys_cam_id":"6913046","pause":0,"date_type":2,"cam_kind":4,"own_cd":6913}},{"type":"Feature","geometry":{"type":"Point","coordinates":[135.297585,34.371]},"properties":{"id":106913061,"name":"府道新家川橋","name_kana":"ふどうしんげがわばし","ofc_cd":86,"sys_id":1,"sys_cam_id":"6913061","pause":0,"date_type":2,"cam_kind":4,"own_cd":6913}},{"type":"Feature","geometry":{"type":"Point","coordinates":[135.556596,34.478026]},"properties":{"id":106913030,"name":"草沢歩道橋","name_kana":"くささわほどうきょう","ofc_cd":86,"sys_id":1,"sys_cam_id":"6913030","pause":0,"date_type":2,"cam_kind":4,"own_cd":6913}},{"type":"Feature","geometry":{"type":"Point","coordinates":[135.5554447,34.49276914]},"properties":{"id":106913110,"name":"金剛橋","name_kana":"こんごうばし","ofc_cd":86,"sys_id":1,"sys_cam_id":"6913110","pause":0,"date_type":2,"cam_kind":4,"own_cd":6913}},{"type":"Feature","geometry":{"type":"Point","coordinates":[135.5458222,34.49736705]},"properties":{"id":106913114,"name":"三津屋川橋","name_kana":"みつやがわばし","ofc_cd":86,"sys_id":1,"sys_cam_id":"6913114","pause":0,"date_type":2,"cam_kind":4,"own_cd":6913}},{"type":"Feature","geometry":{"type":"Point","coordinates":[135.2115231,34.33955078]},"properties":{"id":106913117,"name":"茶屋川橋","name_kana":"ちゃやがわばし","ofc_cd":86,"sys_id":1,"sys_cam_id":"6913117","pause":0,"date_type":2,"cam_kind":4,"own_cd":6913}},{"type":"Feature","geometry":{"type":"Point","coordinates":[135.66999722,34.888056]},"properties":{"id":106913015,"name":"水無瀬橋","name_kana":"","ofc_cd":86,"sys_id":1,"sys_cam_id":"6913015","pause":0,"date_type":2,"cam_kind":4,"own_cd":6913}},{"type":"Feature","geometry":{"type":"Point","coordinates":[135.6694444,34.8686111]},"properties":{"id":222068031,"name":"高浜水位観測所","name_kana":"","ofc_cd":86,"sys_id":2,"sys_cam_id":"22068031","pause":0,"date_type":0,"cam_kind":2,"own_cd":22068}},{"type":"Feature","geometry":{"type":"Point","coordinates":[135.6411111,34.9125]},"properties":{"id":222068034,"name":"向谷中継所","name_kana":"","ofc_cd":86,"sys_id":2,"sys_cam_id":"22068034","pause":0,"date_type":0,"cam_kind":2,"own_cd":22068}},{"type":"Feature","geometry":{"type":"Point","coordinates":[135.493735,34.917594]},"properties":{"id":106913001,"name":"女美尾橋","name_kana":"","ofc_cd":86,"sys_id":1,"sys_cam_id":"6913001","pause":0,"date_type":2,"cam_kind":4,"own_cd":6913}},{"type":"Feature","geometry":{"type":"Point","coordinates":[135.44798888,34.91029722]},"properties":{"id":106913024,"name":"初谷橋","name_kana":"はつたにばし","ofc_cd":86,"sys_id":1,"sys_cam_id":"6913024","pause":0,"date_type":2,"cam_kind":4,"own_cd":6913}},{"type":"Feature","geometry":{"type":"Point","coordinates":[135.45215277,34.96820555]},"properties":{"id":106913021,"name":"当刈橋","name_kana":"","ofc_cd":86,"sys_id":1,"sys_cam_id":"6913021","pause":0,"date_type":2,"cam_kind":4,"own_cd":6913}},{"type":"Feature","geometry":{"type":"Point","coordinates":[135.412298,34.960572]},"properties":{"id":106913022,"name":"深田橋","name_kana":"ふかたばし","ofc_cd":86,"sys_id":1,"sys_cam_id":"6913022","pause":0,"date_type":2,"cam_kind":4,"own_cd":6913}},{"type":"Feature","geometry":{"type":"Point","coordinates":[135.39974999,34.972675]},"properties":{"id":106913025,"name":"城山橋","name_kana":"","ofc_cd":86,"sys_id":1,"sys_cam_id":"6913025","pause":0,"date_type":2,"cam_kind":4,"own_cd":6913}},{"type":"Feature","geometry":{"type":"Point","coordinates":[135.41548333,34.47838333]},"properties":{"id":106913048,"name":"高板橋","name_kana":"","ofc_cd":86,"sys_id":1,"sys_cam_id":"6913048","pause":0,"date_type":2,"cam_kind":4,"own_cd":6913}},{"type":"Feature","geometry":{"type":"Point","coordinates":[135.34254722,34.40415833]},"properties":{"id":106913060,"name":"大久保中２丁目地先","name_kana":"おおくぼなか２ちょうちさき","ofc_cd":86,"sys_id":1,"sys_cam_id":"6913060","pause":0,"date_type":2,"cam_kind":4,"own_cd":6913}},{"type":"Feature","geometry":{"type":"Point","coordinates":[135.33989166,34.40185277]},"properties":{"id":106913062,"name":"大久保中３丁目地先","name_kana":"おおくぼなか３ちょうめちさき","ofc_cd":86,"sys_id":1,"sys_cam_id":"6913062","pause":0,"date_type":2,"cam_kind":4,"own_cd":6913}},{"type":"Feature","geometry":{"type":"Point","coordinates":[135.15586666,34.31626944]},"properties":{"id":106913063,"name":"南海橋","name_kana":"","ofc_cd":86,"sys_id":1,"sys_cam_id":"6913063","pause":0,"date_type":2,"cam_kind":4,"own_cd":6913}},{"type":"Feature","geometry":{"type":"Point","coordinates":[135.18283055,34.322775]},"properties":{"id":106913064,"name":"大渡橋","name_kana":"おおわたりばし","ofc_cd":86,"sys_id":1,"sys_cam_id":"6913064","pause":0,"date_type":2,"cam_kind":4,"own_cd":6913}},{"type":"Feature","geometry":{"type":"Point","coordinates":[135.12523333,34.31480833]},"properties":{"id":106913065,"name":"平野橋","name_kana":"","ofc_cd":86,"sys_id":1,"sys_cam_id":"6913065","pause":0,"date_type":2,"cam_kind":4,"own_cd":6913}},{"type":"Feature","geometry":{"type":"Point","coordinates":[135.12361666,34.31755]},"properties":{"id":106913100,"name":"谷川橋","name_kana":"たにがわばし","ofc_cd":86,"sys_id":1,"sys_cam_id":"6913100","pause":0,"date_type":2,"cam_kind":4,"own_cd":6913}},{"type":"Feature","geometry":{"type":"Point","coordinates":[135.176753,34.3282131]},"properties":{"id":106913118,"name":"田身輪橋","name_kana":"たみわばし","ofc_cd":86,"sys_id":1,"sys_cam_id":"6913118","pause":0,"date_type":2,"cam_kind":4,"own_cd":6913}},{"type":"Feature","geometry":{"type":"Point","coordinates":[135.6244723,34.52003414]},"properties":{"id":106913112,"name":"梅川橋","name_kana":"うめかわばし","ofc_cd":86,"sys_id":1,"sys_cam_id":"6913112","pause":0,"date_type":2,"cam_kind":4,"own_cd":6913}},{"type":"Feature","geometry":{"type":"Point","coordinates":[135.6337,34.49497777]},"properties":{"id":106913028,"name":"寺田橋","name_kana":"てらたはし","ofc_cd":86,"sys_id":1,"sys_cam_id":"6913028","pause":0,"date_type":2,"cam_kind":4,"own_cd":6913}}]}